id,stop_id,postcode,stop_name,stop_lat,stop_lon,mode,state_code
1,OOBUS003,0810,Casuarina Interchange,-12.37345,130.88048,bus,NT
2,OOBUS004,0810,Trower 004,-12.36928,130.88298,bus,NT
3,OOBUS005,0810,Delamere 005,-12.36686,130.88125,bus,NT
4,OOBUS006,0810,Willaroo 006,-12.364889999999999,130.88419,bus,NT
5,OOBUS007,0810,Henbury 007,-12.36167,130.88571000000002,bus,NT
6,OOBUS008,0810,Private Hospital 008,-12.35859,130.88279,bus,NT
7,OOBUS009,0810,Hospital Precinct,-12.356110000000001,130.8826,bus,NT
8,OOBUS010,0810,Rocklands 100,-12.35932,130.88215,bus,NT
9,OOBUS011,0810,10 Manbulloo 011,-12.360489999999999,130.88033000000001,bus,NT
10,OOBUS012,0810,Tiwi Shops,-12.36224,130.87688,bus,NT
11,OOBUS013,0810,Erldunda 013,-12.3653,130.87611,bus,NT
12,OOBUS014,0810,Trower 014,-12.3653,130.8729,bus,NT
13,OOBUS015,0810,Omeo Street,-12.36703,130.87133,bus,NT
14,OOBUS016,0810,Ellengowen 016,-12.36669,130.87389,bus,NT
15,OOBUS017,0810,Nakara Shops,-12.36946,130.87566999999999,bus,NT
16,OOBUS018,0810,Buchanan 018,-12.37168,130.87473,bus,NT
17,OOBUS019,0810,Ellengowen CDU 019,-12.37247,130.87245,bus,NT
18,OOBUS020,0810,Dripstone 020,-12.37372,130.87382,bus,NT
19,OOBUS021,0810,Nungalinya College 021,-12.37525,130.87577,bus,NT
20,OOBUS023,0810,Swimming Pool 023,-12.37355,130.88519,bus,NT
21,OOBUS024,0810,Gsell 024,-12.37053,130.8863,bus,NT
22,OOBUS025,0810,Tambling 025,-12.36611,130.88936999999999,bus,NT
23,OOBUS026,0810,Wanguri Shops 026,-12.36905,130.88948,bus,NT
24,OOBUS027,0810,Canaris 027,-12.37077,130.89061,bus,NT
25,OOBUS028,0810,Lee Point 028,-12.3698,130.89171000000002,bus,NT
26,OOBUS029,0812,VRD 028,-12.36887,130.89305,bus,NT
27,OOBUS030,0812,VRD 030,-12.370569999999999,130.89694,bus,NT
28,OOBUS031,0812,Leanyer 031,-12.37224,130.89856,bus,NT
29,OOBUS032,0812,Leanyer 032,-12.372589999999999,130.89961,bus,NT
30,OOBUS033,0812,Leanyer Primary School,-12.37546,130.90056,bus,NT
31,OOBUS034,0812,Leanyer 034,-12.37807,130.90195,bus,NT
32,OOBUS035,0812,Leanyer 035,-12.38021,130.90348999999998,bus,NT
33,OOBUS036,0812,Leanyer Drive,-12.38209,130.90253,bus,NT
34,OOBUS037,0812,Vanderlin 037,-12.38362,130.90264,bus,NT
35,OOBUS038,0812,Patterson 038,-12.3867,130.9034,bus,NT
36,OOBUS039,0812,Wulagi 039,-12.38476,130.89948,bus,NT
37,OOBUS040,0812,Wulagi Shops,-12.38389,130.89401,bus,NT
38,OOBUS041,0812,Jabiru 041,-12.38156,130.89428999999998,bus,NT
39,OOBUS042,0812,Jabiru 042,-12.3808,130.89132,bus,NT
40,OOBUS043,0810,Wagaman Shops,-12.38028,130.88681,bus,NT
41,OOBUS044,0810,Wagaman 044,-12.37962,130.88369,bus,NT
42,OOBUS045,0810,Limmen 045,-12.379610000000001,130.88192,bus,NT
43,OOBUS046,0810,Trower 046,-12.37377,130.88326,bus,NT
44,OOBUS047,0810,Scaturchio 047,-12.37209,130.88206,bus,NT
45,OOBUS049,0810,Alawa Crescent,-12.38043,130.88066,bus,NT
46,OOBUS050,0810,Casuarina Senior College,-12.38232,130.87852,bus,NT
47,OOBUS051,0810,Trower 051,-12.38306,130.8748,bus,NT
48,OOBUS052,0810,Jingili 052,-12.38428,130.87368,bus,NT
49,OOBUS053,0810,Jingili School,-12.386619999999999,130.8733,bus,NT
50,OOBUS054,0810,Jingili Shops,-12.38947,130.87498,bus,NT
51,OOBUS055,0810,Scales 055,-12.390089999999999,130.87885,bus,NT
52,OOBUS056,0810,Moil Shops,-12.391160000000001,130.88178,bus,NT
53,OOBUS057,0810,Lee Point 057,-12.39072,130.88404,bus,NT
54,OOBUS058,0812,Yanyula 058,-12.38983,130.88726,bus,NT
55,OOBUS059,0812,Anula Shops,-12.392380000000001,130.89095,bus,NT
56,OOBUS060,0812,Springhill 060,-12.39195,130.89488,bus,NT
57,OOBUS061,0812,Sanderson High School,-12.39021,130.89655,bus,NT
58,OOBUS062,0812,Union 062,-12.38836,130.89583000000002,bus,NT
59,OOBUS063,0812,Union 063,-12.38772,130.89311999999998,bus,NT
60,OOBUS064,0812,Union 064,-12.38608,130.89021,bus,NT
61,OOBUS065,0810,Parer 065,-12.385769999999999,130.88541999999998,bus,NT
62,OOBUS066,0810,Parer 066,-12.38397,130.88228999999998,bus,NT
63,OOBUS067,0810,Parer 067,-12.38297,130.88093999999998,bus,NT
64,OOBUS068,0810,Trower 068,-12.379760000000001,130.88098,bus,NT
65,OOBUS069,0800,Darwin Interchange,-12.464839999999999,130.8444,bus,NT
66,OOBUS070,0800,Woolworths Darwin,-12.46016,130.8406,bus,NT
67,OOBUS071,0800,St Mary's,-12.4587,130.83907,bus,NT
68,OOBUS072,0800,Cavenagh 072,-12.457510000000001,130.83778,bus,NT
69,OOBUS073,0800,Mitchell St Child Care 121,-12.4576,130.83403,bus,NT
70,OOBUS074,0820,Mitchell 074,-12.45537,130.83175,bus,NT
71,OOBUS075,0820,Mitchell 075,-12.453710000000001,130.83005,bus,NT
72,OOBUS076,0820,Gilruth Ave/Casino,-12.44938,130.83168999999998,bus,NT
73,OOBUS077,0820,Mindil Beach outbound,-12.445889999999999,130.83336,bus,NT
74,OOBUS078,0820,East Point Road,-12.435369999999999,130.83785,bus,NT
75,OOBUS079,0820,Sailing Club,-12.43073,130.8371,bus,NT
76,OOBUS080,0820,Fannie Bay,-12.42448,130.83999,bus,NT
77,OOBUS081,0820,Dick Ward 081,-12.41182,130.85034,bus,NT
78,OOBUS082,0810,Dick Ward 082,-12.40053,130.85228,bus,NT
79,OOBUS083,0810,Dick Ward 083,-12.39753,130.85227,bus,NT
80,OOBUS084,0810,Dick Ward 084,-12.39344,130.85223,bus,NT
81,OOBUS085,0810,Dick Ward 085,-12.39011,130.85223,bus,NT
82,OOBUS086,0810,Nightcliff Shops,-12.38793,130.85057,bus,NT
83,OOBUS087,0810,Bougainvilia 087,-12.38621,130.84824,bus,NT
84,OOBUS088,0810,Bougainvilia 088,-12.38423,130.84828000000002,bus,NT
85,OOBUS089,0810,Bougainvilia 089,-12.381269999999999,130.84769,bus,NT
86,OOBUS090,0810,Aralia 090,-12.37952,130.84825,bus,NT
87,OOBUS091,0810,Nightcliff High School,-12.37936,130.85203,bus,NT
88,OOBUS092,0810,Ryland 092,-12.3789,130.85713,bus,NT
89,OOBUS093,0810,Ryland 093,-12.381089999999999,130.85928,bus,NT
90,OOBUS094,0810,Ryland 094,-12.383510000000001,130.86029,bus,NT
91,OOBUS095,0810,Ryland 095,-12.38573,130.86102,bus,NT
92,OOBUS096,0810,Rapid Creek ,-12.38589,130.86282,bus,NT
93,OOBUS097,0810,Trower 097,-12.38451,130.86725,bus,NT
94,OOBUS098,0810,Lakeside 098,-12.3826,130.86862,bus,NT
95,OOBUS099,0810,Lakeside 099,-12.37829,130.87018,bus,NT
96,OOBUS100,0810,Lakeside 100,-12.37642,130.87243999999998,bus,NT
97,OOBUS101,0810,Charles Darwin University,-12.37274,130.87062,bus,NT
98,OOBUS103,0820,Stuart Highway 103,-12.44854,130.84091,bus,NT
99,OOBUS104,0820,Stuart Highway 104,-12.44303,130.8412,bus,NT
100,OOBUS105,0820,Stuart Highway 105,-12.43902,130.84098999999998,bus,NT
101,OOBUS106,0820,Parap Road,-12.43546,130.84416000000002,bus,NT
102,OOBUS107,0820,Ross Smith Avenue,-12.4327,130.84951999999998,bus,NT
103,OOBUS108,0820,Ludmilla School,-12.424660000000001,130.85601,bus,NT
104,OOBUS109,0820,Bagot 109,-12.42038,130.85599,bus,NT
105,OOBUS110,0820,Bagot 110 ,-12.4128,130.856,bus,NT
106,OOBUS112,0810,Bagot 112 ,-12.39617,130.85592,bus,NT
107,OOBUS113,0810,Bagot 113,-12.39138,130.85592,bus,NT
108,OOBUS114,0810,Trower 114,-12.38748,130.85872,bus,NT
109,OOBUS115,0810,Alawa Cres115,-12.383389999999999,130.87143999999998,bus,NT
110,OOBUS116,0810,Trower 116,-12.382769999999999,130.87498,bus,NT
111,OOBUS118,0810,Vanderlin 118,-12.376660000000001,130.88593999999998,bus,NT
112,OOBUS119,0810,Vanderlin 119,-12.37721,130.8896,bus,NT
113,OOBUS120,0812,Hibiscus Shops,-12.37866,130.89625,bus,NT
114,OOBUS121,0812,Patterson 121,-12.38921,130.9003,bus,NT
115,OOBUS122,0812,Darwent 122,-12.39136,130.8994,bus,NT
116,OOBUS123,0812,Darwent 123,-12.39552,130.90083,bus,NT
117,OOBUS124,0812,Malak Shops,-12.39717,130.90399,bus,NT
118,OOBUS125,0812,Chambers 125,-12.397739999999999,130.90585,bus,NT
119,OOBUS126,0812,Paqualin126,-12.39958,130.9083,bus,NT
120,OOBUS127,0812,Koolinda 127,-12.398430000000001,130.91052,bus,NT
121,OOBUS128,0812,Karama 128,-12.39958,130.91214,bus,NT
122,OOBUS129,0812,Karama 129,-12.400789999999999,130.91447,bus,NT
123,OOBUS130,0812,Karama Shops,-12.40173,130.91589,bus,NT
124,OOBUS131,0812,Koolinda 131,-12.399239999999999,130.91516000000001,bus,NT
125,OOBUS132,0812,Livistona 132,-12.39657,130.91341,bus,NT
126,OOBUS133,0812,Calytrix 133,-12.39528,130.91087,bus,NT
127,OOBUS134,0812,Mueller 134,-12.393469999999999,130.90963,bus,NT
128,OOBUS135,0812,Dalwood 135,-12.3918,130.9091,bus,NT
129,OOBUS136,0812,Dalwood 136,-12.38915,130.90653999999998,bus,NT
130,OOBUS137,0812,Dalwood 137,-12.3884,130.90428,bus,NT
131,OOBUS138,0812,Malak 138,-12.38862,130.90156000000002,bus,NT
132,OOBUS139,0812,Patterson 139,-12.387089999999999,130.90226,bus,NT
133,OOBUS140,0812,Vanderlin Service 140,-12.38194,130.89979,bus,NT
134,OOBUS141,0812,Vanderlin Service 141,-12.380180000000001,130.8975,bus,NT
135,OOBUS142,0812,Vanderlin Service Road,-12.37848,130.89502,bus,NT
136,OOBUS143,0810,Vanderlin 143,-12.37749,130.88961,bus,NT
137,OOBUS144,0810,Vanderlin Drive,-12.37695,130.886,bus,NT
138,OOBUS149,0810,Trower 149,-12.38369,130.87107,bus,NT
139,OOBUS150,0810,Water Gardens,-12.38481,130.8671,bus,NT
140,OOBUS151,0810,Rapid Creek 151,-12.38758,130.86466000000001,bus,NT
141,OOBUS152,0810,Rapid Creek 152,-12.390080000000001,130.8669,bus,NT
142,OOBUS153,0810,Rapid Creek 153,-12.393139999999999,130.86886,bus,NT
143,OOBUS154,0810,Old McMillan's 154,-12.39516,130.8668,bus,NT
144,OOBUS155,0810,Sabine 155,-12.39349,130.86135,bus,NT
145,OOBUS156,0810,Robinson 156,-12.39137,130.86286,bus,NT
146,OOBUS157,0810,Ryland 157,-12.38969,130.86263,bus,NT
147,OOBUS158,0810,Ryland 158,-12.38722,130.86153000000002,bus,NT
148,OOBUS159,0810,Cummins 159,-12.3865,130.85743,bus,NT
149,OOBUS160,0810,Francis 160,-12.38677,130.85911000000002,bus,NT
150,OOBUS161,0810,Alawa 161,-12.382010000000001,130.87233,bus,NT
151,OOBUS162,0810,Alawa 162,-12.37981,130.87311,bus,NT
152,OOBUS163,0810,Alawa Shops,-12.3782,130.87518,bus,NT
153,OOBUS164,0810,Scriven 164,-12.37726,130.87663999999998,bus,NT
154,OOBUS165,0832,Forrest 165,-12.50949,130.99029,bus,NT
155,OOBUS166,0810,Rapid Creek Shops,-12.386330000000001,130.86215,bus,NT
156,OOBUS167,0810,Trower 167,-12.3881,130.85801999999998,bus,NT
157,OOBUS168,0810,Bagot 168,-12.39405,130.85625,bus,NT
158,OOBUS169,0820,Bunning's,-12.40095,130.85625,bus,NT
159,OOBUS170,0820,Bagot 170,-12.41189,130.85629,bus,NT
160,OOBUS171,0820,Bagot 171,-12.42066,130.85634,bus,NT
161,OOBUS172,0820,Ludmilla School,-12.42395,130.85631999999998,bus,NT
162,OOBUS173,0820,Woolner Road,-12.43388,130.84753999999998,bus,NT
163,OOBUS174,0820,Parap Road,-12.43666,130.84302,bus,NT
164,OOBUS175,0820,Stuart Highway 175,-12.44444,130.84124,bus,NT
165,OOBUS176,0820,Stuart Highway 176,-12.449689999999999,130.84118999999998,bus,NT
166,OOBUS177,0800,Daly Street,-12.45726,130.83674,bus,NT
167,OOBUS178,0800,Mitchell 178,-12.46095,130.83762,bus,NT
168,OOBUS179,0800,Mitchell 179,-12.46497,130.84186,bus,NT
169,OOBUS180,0800,Darwin Interchange 180,-12.46452,130.84472,bus,NT
170,OOBUS181,0820,Stuart Highway 181,-12.42801,130.85971,bus,NT
171,OOBUS182,0820,Stuart Highway 182,-12.427,130.86201,bus,NT
172,OOBUS183,0820,Stuart Highway 183,-12.425419999999999,130.86715,bus,NT
173,OOBUS184,0820,Hickman 184,-12.42672,130.87063999999998,bus,NT
174,OOBUS185,0820,Sweet 185,-12.429689999999999,130.87255,bus,NT
175,OOBUS186,0820,Coonawarra 186,-12.43025,130.87932,bus,NT
176,OOBUS187,0820,Catterthun 187,-12.42972,130.88232,bus,NT
177,OOBUS188,0820,Albatross 188,-12.42853,130.88472,bus,NT
178,OOBUS189,0820,Mataram 189,-12.42747,130.89051,bus,NT
179,OOBUS190,0820,Winnellie 190,-12.42655,130.89366,bus,NT
180,OOBUS191,0820,Aviation Museum,-12.426039999999999,130.89727,bus,NT
181,OOBUS192,0820,Stuart Highway 192,-12.42632,130.9009,bus,NT
182,OOBUS193,0828,Defence Establishment outbound,-12.42915,130.9122,bus,NT
183,OOBUS194,0828,Stuart Highway 194,-12.431410000000001,130.91826,bus,NT
184,OOBUS195,0828,WOW Berrimah,-12.432830000000001,130.92217,bus,NT
185,OOBUS196,0828,Vanderlin 196,-12.43085,130.92334,bus,NT
186,OOBUS197,0828,Vanderlin 197,-12.42153,130.92325,bus,NT
187,OOBUS198,0828,Vanderlin 198,-12.415510000000001,130.92321,bus,NT
188,OOBUS199,0828,McMillan's Road,-12.41345,130.92323000000002,bus,NT
189,OOBUS200,0812,McMillan's 200,-12.408710000000001,130.92018000000002,bus,NT
190,OOBUS201,0812,McMillan's 201,-12.4072,130.91749,bus,NT
191,OOBUS202,0812,McMillan's 202,-12.40403,130.91203000000002,bus,NT
192,OOBUS203,0812,McMillan's 203,-12.4006,130.90607,bus,NT
193,OOBUS204,0812,McMillan's 204,-12.39679,130.89893999999998,bus,NT
194,OOBUS205,0812,Darwin Golf Club,-12.39627,130.89632,bus,NT
195,OOBUS206,0812,McMillan's 206,-12.39551,130.89088999999998,bus,NT
196,OOBUS207,0812,McMillan's 207,-12.39555,130.88208,bus,NT
197,OOBUS208,0810,Rothdale 208,-12.39424,130.87815,bus,NT
198,OOBUS209,0810,Rothdale 209,-12.38958,130.87741,bus,NT
199,OOBUS210,0810,Rothdale 210,-12.38667,130.87672,bus,NT
200,OOBUS211,0810,Rothdale  211,-12.38386,130.87665,bus,NT
201,OOBUS213,0810,Dripstone 213,-12.37541,130.87593,bus,NT
202,OOBUS214,0810,Lakeside 214,-12.37552,130.87368999999998,bus,NT
203,OOBUS215,0810,Lakeside 215,-12.3781,130.87059,bus,NT
204,OOBUS216,0810,Lakeside 216,-12.38231,130.86879,bus,NT
205,OOBUS217,0810,Ryland 217,-12.385480000000001,130.86077,bus,NT
206,OOBUS218,0810,Ryland 218,-12.38298,130.86001000000002,bus,NT
207,OOBUS219,0810,Ryland 219,-12.38038,130.85849,bus,NT
208,OOBUS220,0810,Ryland 220,-12.37885,130.85521,bus,NT
209,OOBUS221,0810,Ryland 221,-12.3795,130.85189,bus,NT
210,OOBUS222,0810,Aralia 222,-12.37909,130.84905,bus,NT
211,OOBUS223,0810,Bougainvilia 223,-12.38125,130.84779,bus,NT
212,OOBUS224,0810,Bougainvilia 224,-12.38333,130.84836,bus,NT
213,OOBUS225,0810,Bougainvilia 225,-12.386439999999999,130.84836,bus,NT
214,OOBUS226,0810,Progress Drive,-12.38785,130.84953000000002,bus,NT
215,OOBUS227,0810,Dick Ward 227,-12.388860000000001,130.85234,bus,NT
216,OOBUS228,0810,Dick Ward 228,-12.39263,130.85235,bus,NT
217,OOBUS229,0810,Dick Ward 229,-12.39595,130.85237,bus,NT
218,OOBUS230,0810,Dick Ward 230,-12.399989999999999,130.8524,bus,NT
219,OOBUS231,0820,Dick Ward 231,-12.41296,130.85058,bus,NT
220,OOBUS232,0820,Fannie Bay Jail,-12.42453,130.83626,bus,NT
221,OOBUS233,0820,East Point 233,-12.43114,130.83738,bus,NT
222,OOBUS234,0820,East Point 234,-12.43481,130.83798000000002,bus,NT
223,OOBUS235,0820,East Point 235,-12.43867,130.83775,bus,NT
224,OOBUS236,0820,Mindil Beach inbound,-12.44613,130.83346,bus,NT
225,OOBUS237,0820,Gilruth Ave/Casino,-12.44966,130.83167,bus,NT
226,OOBUS238,0820,Mitchell 238,-12.453560000000001,130.83004,bus,NT
227,OOBUS239,0820,Mitchell 239,-12.4551,130.83166,bus,NT
228,OOBUS240,0800,Mitchell 240,-12.45769,130.83431000000002,bus,NT
229,OOBUS241,0820,Gregory 241,-12.43212,130.83885,bus,NT
230,OOBUS242,0820,Parap Shopping Centre,-12.431289999999999,130.84328,bus,NT
231,OOBUS243,0820,Ross Smith 243,-12.42738,130.84191,bus,NT
232,OOBUS244,0820,Ross Smith 244,-12.425469999999999,130.83926,bus,NT
233,OOBUS245,0810,Progress 245,-12.387939999999999,130.85451,bus,NT
234,OOBUS246,0810,Old McMillan's 246,-12.39531,130.85378,bus,NT
235,OOBUS247,0810,Ryland 247,-12.38723,130.86163,bus,NT
236,OOBUS248,0810,Ryland 248,-12.38988,130.86283999999998,bus,NT
237,OOBUS249,0810,Ryland 249,-12.39258,130.86369,bus,NT
238,OOBUS250,0810,Ryland 250,-12.39489,130.8637,bus,NT
239,OOBUS251,0810,Old McMillan's 251,-12.39512,130.86605,bus,NT
240,OOBUS252,0810,Old McMillan's 252,-12.39512,130.86825,bus,NT
241,OOBUS253,0812,Abala 253,-12.39917,130.88035,bus,NT
242,OOBUS254,0812,Marrara Sporting Complex,-12.40059,130.88562,bus,NT
243,OOBUS255,0812,Abala 255,-12.39777,130.88631,bus,NT
244,OOBUS256,0812,Abala 256,-12.397780000000001,130.88208999999998,bus,NT
245,OOBUS257,0812,Mathews 257,-12.39277,130.89781000000002,bus,NT
246,OOBUS258,0810,Lee Point 258,-12.38768,130.88579,bus,NT
247,OOBUS259,0810,Lee Point 259,-12.38445,130.88771,bus,NT
248,OOBUS260,0810,Chapman 260,-12.38258,130.85592,bus,NT
249,OOBUS261,0810,Pandanus 261,-12.38044,130.85097,bus,NT
250,OOBUS262,0820,Harney 262,-12.41122,130.852,bus,NT
251,OOBUS263,0820,Harney  263,-12.41344,130.85259,bus,NT
252,OOBUS264,0820,Nadpur 264,-12.41653,130.8523,bus,NT
253,OOBUS265,0828,Berrimah 265,-12.44218,130.92301,bus,NT
254,OOBUS266,0828,Crocodylus Park,-12.41151,130.9278,bus,NT
255,OOBUS268,0810,Rothdale 268,-12.38611,130.87684,bus,NT
256,OOBUS269,0810,Rothdale 269,-12.389339999999999,130.87759,bus,NT
257,OOBUS270,0810,Rothdale 270,-12.3912,130.87803,bus,NT
258,OOBUS271,0810,Rothdale 271,-12.394,130.87837,bus,NT
259,OOBUS272,0810,Airport Hotel,-12.39531,130.87971000000002,bus,NT
260,OOBUS273,0812,McMillan's 273,-12.39527,130.88431,bus,NT
261,OOBUS274,0812,McMillan's 274,-12.39528,130.89021,bus,NT
262,OOBUS275,0812,Northlakes Shops,-12.39531,130.89555,bus,NT
263,OOBUS276,0812,McMillan's 276,-12.39648,130.89896000000002,bus,NT
264,OOBUS277,0812,McMillan's 277,-12.40029,130.90608,bus,NT
265,OOBUS278,0812,McMillan's 278,-12.4033,130.91126,bus,NT
266,OOBUS279,0812,McMillan's 279,-12.40686,130.91742,bus,NT
267,OOBUS280,0828,Berrimah Police Centre,-12.41277,130.92338,bus,NT
268,OOBUS281,0828,Vanderlin 281,-12.415569999999999,130.92343,bus,NT
269,OOBUS282,0828,Vanderlin 282,-12.42195,130.92344,bus,NT
270,OOBUS283,0828,Vanderlin 283,-12.43136,130.92355,bus,NT
271,OOBUS284,0828,Ford Berrimah,-12.432889999999999,130.92135,bus,NT
272,OOBUS285,0828,Defence Establishment inbound,-12.43177,130.91851,bus,NT
273,OOBUS286,0820,Stuart Highway 286,-12.42929,130.91181,bus,NT
274,OOBUS287,0820,Stuart Highway 287,-12.4265,130.9003,bus,NT
275,OOBUS288,0820,Show Grounds,-12.42628,130.89751,bus,NT
276,OOBUS289,0820,Winnellie 289,-12.426680000000001,130.89334,bus,NT
277,OOBUS290,0820,Albatross 290,-12.42865,130.88988,bus,NT
278,OOBUS291,0820,Albatross 291,-12.42865,130.88606000000001,bus,NT
279,OOBUS292,0820,Catterthun 292,-12.42972,130.8824,bus,NT
280,OOBUS293,0820,Coonawarra 293,-12.43036,130.88036,bus,NT
281,OOBUS294,0820,Coonawarra 294,-12.43037,130.87651,bus,NT
282,OOBUS295,0820,Sweet 295,-12.429269999999999,130.87238,bus,NT
283,OOBUS296,0820,Hickman 296,-12.4277,130.87051,bus,NT
284,OOBUS297,0820,Stuart Highway 297,-12.425410000000001,130.86905,bus,NT
285,OOBUS298,0820,Winnellie Post Office,-12.42659,130.86449,bus,NT
286,OOBUS299,0820,Stuart Highway 299,-12.42826,130.8596,bus,NT
287,OOBUS301,0820,Phillip Street Shops,-12.42375,130.8375,bus,NT
288,OOBUS302,0820,Phillip 302,-12.41976,130.83665,bus,NT
289,OOBUS303,0820,George 303,-12.41972,130.83383999999998,bus,NT
290,OOBUS304,0820,George 304,-12.42248,130.83526,bus,NT
291,OOBUS305,0820,Ross Smith  305,-12.42545,130.83963,bus,NT
292,OOBUS306,0820,Ross Smith 306,-12.42722,130.84208999999998,bus,NT
293,OOBUS307,0820,Ross Smith 307,-12.42966,130.84546,bus,NT
294,OOBUS308,0820,Vickers 308,-12.43088,130.84479,bus,NT
295,OOBUS309,0820,Parap shops,-12.43218,130.84358999999998,bus,NT
296,OOBUS310,0820,Parap Road,-12.43524,130.84339,bus,NT
297,OOBUS311,0820,Westralia Street Shops,-12.445039999999999,130.84323999999998,bus,NT
298,OOBUS312,0820,Westralia 312,-12.4449,130.84595,bus,NT
299,OOBUS313,0820,Meigs 313,-12.44628,130.84473,bus,NT
300,OOBUS314,0820,Guy 314,-12.44914,130.84675,bus,NT
301,OOBUS315,0820,Gothenburg 315,-12.44898,130.8448,bus,NT
302,OOBUS316,0820,Margaret 316,-12.44895,130.84302,bus,NT
303,OOBUS317,0820,Duke 317,-12.45099,130.84253,bus,NT
304,OOBUS318,0820,Packard 318,-12.45854,130.8302,bus,NT
305,OOBUS319,0800,Smith 319,-12.459430000000001,130.83803999999998,bus,NT
306,OOBUS320,0820,Hudson Fysh 320,-12.43017,130.85078000000001,bus,NT
307,OOBUS321,0820,Bremer 321,-12.42929,130.85145,bus,NT
308,OOBUS322,0820,Nadpur 322,-12.4164,130.8522,bus,NT
309,OOBUS323,0820,Harney 323,-12.41338,130.85252,bus,NT
310,OOBUS324,0820,Harney 324,-12.41131,130.85197,bus,NT
311,OOBUS325,0812,Amy Johnson 325,-12.4072,130.91606000000002,bus,NT
312,OOBUS326,0800,Darwin Interchange S&G,-12.46504,130.8423,bus,NT
313,OOBUS327,0820,Stuart Highway 327,-12.4251,130.87644,bus,NT
314,OOBUS328,0820,Stuart Highway 328,-12.42505,130.87921,bus,NT
315,OOBUS329,0820,Stuart Highway 329,-12.425130000000001,130.8851,bus,NT
316,OOBUS330,0820,Stuart Highway 330,-12.42573,130.89293999999998,bus,NT
317,OOBUS331,0828,Stuart Highway 331,-12.43397,130.92516,bus,NT
318,OOBUS332,0828,Stuart Highway 332,-12.43791,130.93555,bus,NT
319,OOBUS333,0828,Berrimah Prison Outbound,-12.44187,130.94632,bus,NT
320,OOBUS334,0829,Stuart Highway 334,-12.44767,130.9569,bus,NT
321,OOBUS335,0829,Stuart Highway 335 ,-12.451839999999999,130.9622,bus,NT
322,OOBUS336,0829,BP Palms,-12.45905,130.97098,bus,NT
323,OOBUS337,0830,Roystonia 337,-12.47385,130.9838,bus,NT
324,OOBUS339,0830,Cambridge 339,-12.47826,130.98311,bus,NT
325,OOBUS340,0830,Coles,-12.481539999999999,130.98426,bus,NT
326,OOBUS341,0830,Dwyer 341,-12.48439,130.9792,bus,NT
327,OOBUS342,0830,Dwyer 342,-12.48126,130.98067,bus,NT
328,OOBUS343,0830,Dwyer 343,-12.4809,130.97798999999998,bus,NT
329,OOBUS344,0830,Woodlake 344,-12.4793,130.97575,bus,NT
330,OOBUS345,0830,Woodlake School,-12.47653,130.9735,bus,NT
331,OOBUS346,0830,Woodlake Blvd School,-12.47358,130.9731,bus,NT
332,OOBUS347,0830,Woodlake Blvd,-12.46982,130.97021999999998,bus,NT
333,OOBUS348,0830,Woodlake 348,-12.47231,130.96607,bus,NT
334,OOBUS349,0830,Woodlake Blvd West,-12.4744,130.96575,bus,NT
335,OOBUS350,0830,University 350,-12.4805,130.97316999999998,bus,NT
336,OOBUS351,0830,CDU Palmerston,-12.47597,130.97945,bus,NT
337,OOBUS352,0830,Maluka Street,-12.48125,130.98741,bus,NT
338,OOBUS353,0830,Palmerston Interchange,-12.47919,130.98735,bus,NT
339,OOBUS354,0832,Lakeview 354,-12.488669999999999,130.99319,bus,NT
340,OOBUS355,0832,Lakeview 355,-12.48971,130.9978,bus,NT
341,OOBUS356,0832,Bakewell School,-12.494010000000001,130.99267,bus,NT
342,OOBUS357,0832,Landsborough 357,-12.49543,130.99391,bus,NT
343,OOBUS358,0832,Landsborough 358,-12.49806,130.9938,bus,NT
344,OOBUS359,0832,Aunger 359,-12.50082,130.99571,bus,NT
345,OOBUS360,0832,Rosebery Shops,-12.50309,130.99374,bus,NT
346,OOBUS361,0832,Rosebery 361,-12.50424,130.98985,bus,NT
347,OOBUS362,0832,Rosebery 362,-12.50427,130.98806000000002,bus,NT
348,OOBUS363,0832,Rosebery 363,-12.5011,130.98866,bus,NT
349,OOBUS364,0832,Shearwater Drive,-12.498669999999999,130.98851000000002,bus,NT
350,OOBUS365,0832,Shearwater 365,-12.49531,130.98996,bus,NT
351,OOBUS367,0812,Vanderlin 367,-12.38903,130.90941999999998,bus,NT
352,OOBUS368,0812,Calytrix 368,-12.39378,130.91308,bus,NT
353,OOBUS369,0812,Applegum 369,-12.39517,130.915,bus,NT
354,OOBUS370,0812,Applegum 370,-12.39606,130.91714,bus,NT
355,OOBUS371,0812,Applegum 371,-12.39875,130.91976,bus,NT
356,OOBUS372,0812,Bauer 372,-12.401480000000001,130.91971,bus,NT
357,OOBUS373,0812,Bauer 373,-12.404010000000001,130.92015,bus,NT
358,OOBUS374,0812,Moray 374,-12.4072,130.91943,bus,NT
359,OOBUS375,0830,Farrer 375,-12.48292,131.00212,bus,NT
360,OOBUS376,0830,Farrer 376,-12.47981,131.00083,bus,NT
361,OOBUS377,0830,Farrar Blvd,-12.4798,130.996,bus,NT
362,OOBUS378,0830,Farrer 378,-12.47832,130.99376999999998,bus,NT
363,OOBUS379,0830,Health Precinct,-12.47937,130.99014,bus,NT
364,OOBUS380,0830,Kokoda Industries,-12.47565,130.99126,bus,NT
365,OOBUS381,0830,Callanan 381,-12.47277,130.98911,bus,NT
366,OOBUS382,0830,Adams Road,-12.47538,130.98899,bus,NT
367,OOBUS383,0830,Georgina 383,-12.4745,130.9857,bus,NT
368,OOBUS385,0830,Roystonia 385,-12.47408,130.98359,bus,NT
369,OOBUS386,0829,BP Palms 386,-12.45843,130.96958999999998,bus,NT
370,OOBUS387,0829,Stuart Highway 387,-12.45348,130.96355,bus,NT
371,OOBUS388,0829,Stuart Highway 388,-12.448089999999999,130.95662,bus,NT
372,OOBUS389,0828,Tivendale Road,-12.44173,130.9446,bus,NT
373,OOBUS390,0828,Stuart Highway 390,-12.43772,130.93375,bus,NT
374,OOBUS391,0828,Stuart Highway 391,-12.435780000000001,130.92883,bus,NT
375,OOBUS392,0812,Moray Street,-12.405660000000001,130.9203,bus,NT
376,OOBUS393,0812,Bauer 393,-12.40353,130.92025,bus,NT
377,OOBUS394,0812,Bauer 394,-12.40136,130.91962,bus,NT
378,OOBUS395,0812,Applegum 395,-12.39847,130.91952,bus,NT
379,OOBUS396,0812,Applegum 396,-12.39686,130.91796000000002,bus,NT
380,OOBUS397,0812,Applegum 397,-12.39529,130.91365,bus,NT
381,OOBUS398,0812,Calytrix Road,-12.39282,130.9136,bus,NT
382,OOBUS399,0812,Vanderlin 399,-12.3887,130.90883,bus,NT
383,OOBUS400,0810,Trower 400,-12.36685,130.87901000000002,bus,NT
384,OOBUS401,0810,Erldunda 401,-12.36505,130.87605,bus,NT
385,OOBUS402,0810,Tiwi Gardens 402,-12.3619,130.87725,bus,NT
386,OOBUS403,0810,Manbullo 403,-12.36045,130.88026000000002,bus,NT
387,OOBUS404,0810,Trower 404,-12.36662,130.87867,bus,NT
388,OOBUS406,0812,Livistona 406,-12.39705,130.91352,bus,NT
389,OOBUS407,0812,Koolinda 407,-12.39883,130.9125,bus,NT
390,OOBUS408,0812,Koolinda 408,-12.398530000000001,130.91057,bus,NT
391,OOBUS409,0812,Ringwood 409,-12.39477,130.89831999999998,bus,NT
392,OOBUS410,0820,Airport Hotel inbound,-12.39558,130.87725,bus,NT
393,OOBUS411,0832,Odegaard 411,-12.5042,130.9922,bus,NT
394,OOBUS412,0810,Lee Point 412,-12.38096,130.88975,bus,NT
395,OOBUS413,0810,Lee Point 413,-12.37368,130.89115,bus,NT
396,OOBUS414,0812,Leanyer 414,-12.38082,130.90326000000002,bus,NT
397,OOBUS415,0812,Leanyer 415,-12.37768,130.90149,bus,NT
398,OOBUS416,0812,Leanyer 416,-12.37474,130.90071,bus,NT
399,OOBUS417,0812,Leanyer 417,-12.3732,130.9001,bus,NT
400,OOBUS418,0812,VRD 418,-12.37116,130.8971,bus,NT
401,OOBUS419,0812,VRD 419,-12.36892,130.89286,bus,NT
402,OOBUS420,0810,Lee Point 420,-12.3704,130.89166,bus,NT
403,OOBUS421,0810,Lee Point 421,-12.37377,130.89119,bus,NT
404,OOBUS422,0812,Lee Point 422,-12.38145,130.88973000000001,bus,NT
405,OOBUS423,0812,Lee Point 423,-12.38723,130.88631,bus,NT
406,OOBUS424,0812,Lee Point 424,-12.39054,130.88436000000002,bus,NT
407,OOBUS426,0810,Angelo 426,-12.373380000000001,130.88433999999998,bus,NT
408,OOBUS427,0820,Parap Markets Inbound,-12.43225,130.84252,bus,NT
409,OOBUS428,0820,Gregory 428,-12.43223,130.83915,bus,NT
410,OOBUS430,0830,Victoria 430,-12.49037,130.98101,bus,NT
411,OOBUS431,0830,Victoria 431,-12.49111,130.97926999999999,bus,NT
412,OOBUS432,0830,Victoria 432,-12.49315,130.97814,bus,NT
413,OOBUS433,0830,Sacred Heart Primary ,-12.49472,130.97879,bus,NT
414,OOBUS434,0830,Emery 434,-12.49554,130.98152,bus,NT
415,OOBUS435,0830,Sibbald 435,-12.49731,130.98208,bus,NT
416,OOBUS436,0830,Sibbald 436,-12.49986,130.98113999999998,bus,NT
417,OOBUS437,0830,Woodroffe 437,-12.50259,130.98148999999998,bus,NT
418,OOBUS438,0830,Woodroffe School,-12.50655,130.98133,bus,NT
419,OOBUS439,0830,Woodroffe 439,-12.50809,130.97986,bus,NT
420,OOBUS440,0830,Sibbald 440,-12.50198,130.98382,bus,NT
421,OOBUS441,0830,Sibbald 441,-12.499889999999999,130.98105,bus,NT
422,OOBUS442,0830,Baldwin 442,-12.49978,130.9799,bus,NT
423,OOBUS443,0830,St Joseph's School,-12.50071,130.97669,bus,NT
424,OOBUS444,0830,Temple Terrace,-12.4949,130.97492,bus,NT
425,OOBUS445,0830,Emery 445,-12.49412,130.97696000000002,bus,NT
426,OOBUS446,0830,Chun Wah 446,-12.49628,130.98654,bus,NT
427,OOBUS447,0830,Essington 447,-12.49217,130.98368,bus,NT
428,OOBUS448,0830,Essington 448,-12.48943,130.98183999999998,bus,NT
429,OOBUS449,0830,Raffles 449,-12.48807,130.98256,bus,NT
430,OOBUS450,0830,Raffles 450,-12.487680000000001,130.98492,bus,NT
431,OOBUS451,0830,Raffles 451,-12.486310000000001,130.98745,bus,NT
432,OOBUS452,0830,Woolworths Palmerston,-12.48436,130.98713999999998,bus,NT
433,OOBUS453,0830,Gray Shops,-12.487039999999999,130.98212,bus,NT
434,OOBUS454,0830,Essington 454,-12.49382,130.98578,bus,NT
435,OOBUS456,0820,Stuart Highway 456,-12.425939999999999,130.89245,bus,NT
436,OOBUS457,0820,Stuart Highway 457,-12.42527,130.87994,bus,NT
437,OOBUS458,0820,Stuart Highway 458,-12.42533,130.8763,bus,NT
438,OOBUS459,0820,Stuart Highway 459,-12.42534,130.88468,bus,NT
439,OOBUS460,0810,Canaris 460,-12.370569999999999,130.88962,bus,NT
440,OOBUS462,0830,Driver 462,-12.484580000000001,130.97527,bus,NT
441,OOBUS463,0830,Driver Avenue Shops,-12.48574,130.97307,bus,NT
442,OOBUS464,0830,Driver 464,-12.488669999999999,130.97279,bus,NT
443,OOBUS465,0830,Driver 465,-12.490310000000001,130.97061000000002,bus,NT
444,OOBUS466,0830,Elrundie 466,-12.49267,130.96913999999998,bus,NT
445,OOBUS467,0830,Tilston 467,-12.49536,130.97098,bus,NT
446,OOBUS468,0830,Bonson 468,-12.49966,130.97161,bus,NT
447,OOBUS469,0830,Bonson 469,-12.50257,130.97222,bus,NT
448,OOBUS470,0830,Moulden School,-12.506039999999999,130.97056,bus,NT
449,OOBUS471,0830,Elrundie 471,-12.51494,130.97349,bus,NT
450,OOBUS472,0830,Moulden 472,-12.51379,130.97637,bus,NT
451,OOBUS473,0830,Kafcaloudes 473,-12.50818,130.97583,bus,NT
452,OOBUS474,0830,Temple 474,-12.50337,130.97528,bus,NT
453,OOBUS475,0830,Waterhouse 475,-12.490969999999999,130.97236,bus,NT
454,OOBUS476,0830,Driver 476,-12.4887,130.97268,bus,NT
455,OOBUS477,0830,Driver Shops 477,-12.48574,130.97302,bus,NT
456,OOBUS478,0830,Driver 478,-12.48443,130.9758,bus,NT
457,OOBUS479,0830,Waler 479,-12.49125,130.9643,bus,NT
458,OOBUS480,0830,Kafcaloudes Crescent,-12.51079,130.97538,bus,NT
459,OOBUS481,0830,Woodlake & Bangalow,-12.4744,130.96567,bus,NT
460,OOBUS482,0830,Woodlake 482,-12.47223,130.96604,bus,NT
461,OOBUS483,0830,Woodlake 483,-12.46973,130.97001,bus,NT
462,OOBUS484,0830,Drack School,-12.47661,130.97365,bus,NT
463,OOBUS485,0830,Woodlake 485,-12.47842,130.97548,bus,NT
464,OOBUS498,0830,Palmerston Interchange,-12.47909,130.98753,bus,NT
465,OOBUS502,0835,Stuart Highway 502,-12.50735,131.01965,bus,NT
466,OOBUS503,0835,Stuart Highway 503,-12.51533,131.02952,bus,NT
467,OOBUS504,0839,Coolalinga 504,-12.52368,131.04336,bus,NT
468,OOBUS505,0839,Coolalinga 505,-12.521560000000001,131.03925,bus,NT
469,OOBUS506,0834,Stuart Highway 596,-12.50638,131.01869,bus,NT
470,OOBUS507,0834,Virginia 507,-12.516060000000001,131.02934,bus,NT
471,OOBUS508,0834,Lowther  508,-12.554680000000001,131.03843,bus,NT
472,OOBUS509,0822,Bees Creek 509,-12.562289999999999,131.05911,bus,NT
473,OOBUS510,0822,Gulnare Road,-12.584060000000001,131.07282,bus,NT
474,OOBUS511,0822,Gulnare 511,-12.5839,131.05892,bus,NT
475,OOBUS512,0834,Lowther Road,-12.5549,131.04695,bus,NT
476,OOBUS513,0834,Virginia 513,-12.54172,131.02926000000002,bus,NT
477,OOBUS514,0834,Virginia 514,-12.52244,131.02918,bus,NT
478,OOBUS523,0835,Hillier 523,-12.50807,131.05909,bus,NT
479,OOBUS524,0822,McMinns 524,-12.53336,131.07947,bus,NT
480,OOBUS525,0836,Anglesey 525,-12.529710000000001,131.10723000000002,bus,NT
481,OOBUS526,0836,Pioneer 526,-12.55504,131.11846,bus,NT
482,OOBUS533,0820,Bayview 533,-12.44083,130.85643000000002,bus,NT
483,OOBUS534,0820,Stoddart 534,-12.43573,130.85752,bus,NT
484,OOBUS535,0822,Gulnare 535,-12.584108,131.072596,bus,NT
485,OOBUS538,0832,Catchlove 538,-12.50581,130.98563000000001,bus,NT
486,OOBUS542,0834,Virginia 542,-12.522403,131.029438,bus,NT
487,OOBUS544,0834,Virginia 544,-12.533863,131.02938,bus,NT
488,OOBUS545,0834,Virginia 545,-12.541707,131.029515,bus,NT
489,OOBUS546,0834,Jacomb 546,-12.5505,131.03195,bus,NT
490,OOBUS547,0834,Francesca 547,-12.546619999999999,131.03521,bus,NT
491,OOBUS548,0834,Lowther 548,-12.554671,131.038569,bus,NT
492,OOBUS549,0834,Lowther  Road 549,-12.554715,131.047079,bus,NT
493,OOBUS553,0822,Gulnare 553,-12.583777,131.05925200000001,bus,NT
494,OOBUS554,0822,Gulnare Road 554,-12.584041000000001,131.07107,bus,NT
495,OOBUS569,0810,Casuarina Bus Interchange S&G,-12.37364,130.88044,bus,NT
496,OOBUS572,0832,Forrest Parade,-12.506639999999999,130.99108,bus,NT
497,OOBUS573,0832,Owston Avenue 573,-12.50987,130.9851,bus,NT
498,OOBUS574,0832,Owston Avenue,-12.5099,130.98533,bus,NT
499,OOBUS575,0832,Forrest 575,-12.51065,130.98961,bus,NT
500,OOBUS576,0832,Forrest 576,-12.50654,130.99104,bus,NT
501,OOBUS579,0836,Rodgers St,-12.52519,131.09628,bus,NT
502,OOBUS581,0836,Humpty Doo Shops,-12.57387,131.10134,bus,NT
503,OOBUS583,0835,Whitewood 583,-12.496310000000001,131.04554,bus,NT
504,OOBUS584,0835,Whitewood 584,-12.49633,131.04346,bus,NT
505,OOBUS586,0835,Whitewood 586,-12.49623,131.03483,bus,NT
506,OOBUS587,0835,Whitewood 587,-12.49624,131.04608000000002,bus,NT
507,OOBUS588,0836,Humpty Doo,-12.57659,131.10027,bus,NT
508,OOBUS593,0835,Howard Springs 593,-12.493210000000001,131.01843,bus,NT
509,OOBUS596,0820,Stoddart 596,-12.43941,130.85182,bus,NT
510,OOBUS597,0820,Tipperary Waters,-12.44872,130.84945,bus,NT
511,OOBUS643,0810,Danimila Terrace,-12.363101,130.889516,bus,NT
512,OOBUS644,0810,Lyons Community Centre,-12.359679,130.888248,bus,NT
513,OOBUS655,0810,Daldawa Terrace,-12.357024000000001,130.889232,bus,NT
514,OOBUS656,0832,Odegarrd 656,-12.505239999999999,130.99311,bus,NT
515,OOBUS657,0832,Odegarrd 657,-12.50769,130.99491,bus,NT
516,OOBUS661,0820,Gardens Rd 661,-12.450330000000001,130.83633999999998,bus,NT
517,OOBUS662,0832,Rosebery School,-12.50906,130.99200000000002,bus,NT
518,OOBUS693,0832,Haydon 693,-12.50825,130.98962,bus,NT
519,OOBUS694,0832,Antonino 694,-12.50742,130.98682,bus,NT
520,OOBUS756,0820,Playford Street,-12.42839,130.84729,bus,NT
521,OOBUS757,0810,Bagot Road Car Wash,-12.40137,130.85596,bus,NT
522,OOBUS758,0810,Casuarina Interchange 758,-12.3736,130.88076,bus,NT
523,OOBUS761,0832,Indigenous Village,-12.489980000000001,131.01137,bus,NT
524,OOBUS763,0834,Virginia 763,-12.51784,131.02919,bus,NT
525,OOBUS766,0834,London 766,-12.55127,131.0383,bus,NT
526,OOBUS768,0834,Jacomb 768,-12.55059,131.03113000000002,bus,NT
527,OOBUS769,0837,Noonamah Store,-12.63359,131.07416,bus,NT
528,OOBUS770,0837,Elizabeth Valley 770,-12.64276,131.0827,bus,NT
529,OOBUS771,0837,Elizabeth Valley 771,-12.642660000000001,131.10971999999998,bus,NT
530,OOBUS772,0837,Redcliffe 772,-12.63734,131.11856,bus,NT
531,OOBUS773,0836,Redcliffe 773,-12.60797,131.11858,bus,NT
532,OOBUS774,0836,Fred's Pass 774,-12.593169999999999,131.11343,bus,NT
533,OOBUS775,0832,Forrest Pde,-12.4996,130.993,bus,NT
534,OOBUS776,0834,Stuart Hwy & Virginia 776,-12.515369999999999,131.02858999999998,bus,NT
535,OOBUS778,0836,Stuart Highway 778,-12.57368,131.07372,bus,NT
536,OOBUS779,0836,Stuart Highway 779,-12.585,131.07366000000002,bus,NT
537,OOBUS780,0836,Stuart Highway 780,-12.59635,131.07361,bus,NT
538,OOBUS781,0822,Stuart highway 781,-12.61243,131.07329,bus,NT
539,OOBUS782,0822,Stuart Highway 782,-12.59481,131.07336,bus,NT
540,OOBUS783,0822,Stuart Highway 783,-12.588280000000001,131.07334,bus,NT
541,OOBUS784,0822,Stuart Highway 784,-12.58318,131.07335,bus,NT
542,OOBUS785,0822,Stuart Highway 785,-12.57199,131.07336,bus,NT
543,OOBUS787,0822,Stuart Highway 787,-12.55558,131.06926,bus,NT
544,OOBUS798,0822,Sayer Rd 798,-12.55585,131.06986,bus,NT
545,OOBUS802,0839,Coolalinga,-12.5234,131.04163,bus,NT
546,OOBUS805,0820,Marina 805,-12.449869999999999,130.82363,bus,NT
547,OOBUS806,0820,Cullen Bay,-12.45155,130.82082,bus,NT
548,OOBUS809,0820,Marina 809,-12.449869999999999,130.82601,bus,NT
549,OOBUS811,0820,Bayview,-12.44153,130.85817,bus,NT
550,OOBUS812,0800,Frances Bay _ Fisherman's Place,-12.45917,130.84747,bus,NT
551,OOBUS813,0820,Stoddart 813,-12.43942,130.85291,bus,NT
552,OOBUS815,0839,Coolalinga P&R,-12.524695,131.045675,bus,NT
553,OOBUS814,0812,Kalymnos Drive,-12.4019,130.916,bus,NT
554,OOBUS816,0820,Charles Eaton Drive,-12.4043,130.878,bus,NT
555,OOBUS817,0800,Stokes Hill Road,-12.465449000000001,130.847881,bus,NT
556,OOBUS818,0832,Johnstone 818,-12.4987,131.006,bus,NT
557,OOBUS819,0832,Farrer 819,-12.494000000000002,131.006,bus,NT
558,OOBUS820,0828,Boulter Road East,-12.4149,130.921,bus,NT
559,OOBUS821,0828,Boulter Road,-12.4144,130.917,bus,NT
560,OOBUS825,0820,Cullen Bay 825,-12.4517,130.82,bus,NT
561,OOBUS826,0822,Mandorah 826,-12.443,130.768,bus,NT
562,OOBUS827,0830,Gurd 827,-12.47994,130.990718,bus,NT
563,OOBUS826,0820,The Gardens,-12.436891000000001,130.83341399999998,bus,NT
