id,stop_id,postcode,stop_name,stop_lat,stop_lon,mode,state_code
1,2465,7320,1 Aileen Cres ,-41.06177956,145.9019465,train,TA
2,2643,7320,1 Atkins Dr ,-41.08106707,145.89744069999998,train,TA
3,2663,7325,100 Inglis St ,-40.98710914,145.70575209999998,train,TA
4,2453,7320,102 Payne St ,-41.07015,145.89091200000001,train,TA
5,4219,7316,105 South Rd ,-41.1257563,146.07673569999997,train,TA
6,2617,7316,109 Main Rd ,-41.115159600000005,146.07538069999998,train,TA
7,2533,7325,11 Dodgin St ,-40.98982517,145.732664,train,TA
8,2472,7320,116 Wilson St ,-41.05525446,145.90583180000002,train,TA
9,2590,7320,12 Kentish Dr ,-41.076659,145.884432,train,TA
10,2452,7320,120 Payne St ,-41.071717,145.89058400000002,train,TA
11,2525,7320,126 View Rd ,-41.05546194,145.88843319999998,train,TA
12,4221,7315,130A South Rd ,-41.15192515,146.1427236,train,TA
13,2591,7320,131 Woniora Rd ,-41.07811202,145.885681,train,TA
14,4220,7316,133B South Rd ,-41.12761556,146.0806375,train,TA
15,2500,7320,14 Grenville St ,-41.06657,145.89738,train,TA
16,2726,7325,143 Scenic Dr ,-40.99794554,145.765153,train,TA
17,2671,7322,15 Beaufort St ,-41.03779151,145.8239351,train,TA
18,4226,7316,16 Rekuna Rd ,-41.11292966,146.0622526,train,TA
19,2612,7315,17 Amy St ,-41.147813,146.15166340000002,train,TA
20,2540,7320,17 Grenville St ,-41.06651009,145.8968499,train,TA
21,4329,7320,18 Main Rd ,-41.067276,145.928224,train,TA
22,2748,7320,18 Main Rd ,-41.06741276,145.9292562,train,TA
23,4224,7315,18 Undara Cres ,-41.14293572,146.1503633,train,TA
24,2477,7320,1A Edwards St ,-41.05933743,145.909727,train,TA
25,2496,7320,2 Old Surrey Rd ,-41.07451004,145.917862,train,TA
26,2594,7320,2 Three Mile Line Rd ,-41.08082849,145.89582980000003,train,TA
27,4218,7316,21 Ironcliffe Rd ,-41.11608714,146.0700423,train,TA
28,2476,7320,22 Madden St ,-41.07390786,145.89324130000003,train,TA
29,2601,7320,237 Mount St ,-41.07449419,145.9000795,train,TA
30,4228,7316,25 Pineleigh St ,-41.1162778,146.0593799,train,TA
31,2602,7320,255 Mount St ,-41.07603053,145.8997683,train,TA
32,2548,7320,279 Mount St ,-41.08058127,145.8970354,train,TA
33,2672,7322,28 Raglan St ,-41.038626799999996,145.82445769999998,train,TA
34,2745,7320,29 Bass Hwy ,-41.06560556,145.95239719999998,train,TA
35,4233,7315,3 Tingha Way ,-41.1444816,146.15659109999999,train,TA
36,2502,7320,3 Verelle St ,-41.06387369,145.8980125,train,TA
37,2522,7325,30 Inglis St ,-40.98952884,145.72039099999998,train,TA
38,2467,7320,30 Old Surrey Rd ,-41.07687441,145.918871,train,TA
39,2589,7320,31 Wright St ,-41.0754625,145.8830834,train,TA
40,2741,7316,318 Old Bass Hwy ,-41.09260524,146.0224573,train,TA
41,2541,7320,33 Belton St ,-41.067239,145.894305,train,TA
42,2730,7325,35 Martin St ,-40.99469293,145.740875,train,TA
43,2501,7320,36 Mark St ,-41.06501429,145.8983701,train,TA
44,4330,7320,39 Main Rd ,-41.06787116,145.9345155,train,TA
45,2746,7320,39 Main Rd ,-41.06786781,145.93436450000002,train,TA
46,4222,7315,4 Tingha Way ,-41.144487700000006,146.15664569999998,train,TA
47,2526,7320,41 Halstead St ,-41.05689246,145.89419750000002,train,TA
48,4223,7315,43 Clara St ,-41.14694831,146.1564959,train,TA
49,2482,7316,43 South Rd ,-41.119718,146.074248,train,TA
50,2593,7320,44 Three Mile Line Rd ,-41.080024,145.88995500000001,train,TA
51,4232,7315,46 Clara St ,-41.14701692,146.15647969999998,train,TA
52,2471,7320,47 Payne St ,-41.06533043,145.8910653,train,TA
53,2666,7325,48 Inglis St ,-40.98931031,145.7168141,train,TA
54,2750,7320,49 Marine Tce ,-41.05946031,145.9104477,train,TA
55,2757,7315,5 Jowett St ,-41.15123904,146.1520057,train,TA
56,2466,7320,5 The Boulevard ,-41.06146326,145.89816499999998,train,TA
57,2468,7320,5 Wattle Ave ,-41.07634976,145.919333,train,TA
58,2611,7315,51 - 55 Queen St ,-41.15020602,146.1632849,train,TA
59,2637,7320,52 Old Surrey Rd ,-41.07921587,145.9175094,train,TA
60,2755,7315,58 Queen St ,-41.15009008,146.1632849,train,TA
61,2630,7320,6 Atkins Dr ,-41.08112153,145.8979868,train,TA
62,2614,7315,64 Amy St ,-41.141581,146.15136,train,TA
63,2613,7315,64 Amy St ,-41.14418145,146.1534049,train,TA
64,4227,7316,7 Fielding St ,-41.11412644,146.0612916,train,TA
65,4249,7315,7 Jowett St ,-41.15120016,146.1519429,train,TA
66,2592,7320,70 Three Mile Line Rd ,-41.079536,145.885789,train,TA
67,2759,7316,73 South Rd ,-41.12087333,146.07668280000001,train,TA
68,2749,7320,74 Marine Tce ,-41.06352579,145.91586719999998,train,TA
69,2572,7316,74 Mission Hill Rd ,-41.114492299999995,146.05803590000002,train,TA
70,2494,7320,84 Payne St ,-41.06833799,145.8907685,train,TA
71,2535,7320,85 Bird St ,-41.06064117,145.8962898,train,TA
72,2660,7325,85 Inglis St ,-40.987755,145.708745,train,TA
73,2656,7325,89 Saunders St ,-40.9829776,145.721991,train,TA
74,2524,7320,97 West Park Gr ,-41.05446622,145.8883631,train,TA
75,2473,7320,Acton Recreation Reserve - Payne St ,-41.07040927,145.8908638,train,TA
76,2571,7315,Amy Str near Upper Maud St ,-41.14796501,146.1516326,train,TA
77,2764,7325,Austin St / Wynyard FC ,-40.98734789,145.7214073,train,TA
78,2523,7325,Austin St near Goldie St ,-40.99079854,145.7233385,train,TA
79,2688,7320,Bass Hwy near East Cam Rd ,-41.03930736,145.8453137,train,TA
80,2724,7322,Bass Hwy near McKays Rd ,-41.03100454,145.8103357,train,TA
81,2692,7320,Bass Hwy opposite Burnie High School ,-41.039714000000004,145.865593,train,TA
82,2728,7325,Bowick St East Wynyard ,-40.99214642,145.7443553,train,TA
83,4403,7320,BURNIE CITY TERMINUS ,-41.05234,145.905734,train,TA
84,2508,7320,Burnie High School ,-41.04216854,145.8679423,train,TA
85,2490,7320,Burnie Interchange Stop A ,-41.05229031,145.9053074,train,TA
86,2491,7320,Burnie Interchange Stop B ,-41.05232605,145.9055993,train,TA
87,2492,7320,Burnie Interchange Stop C ,-41.0523171,145.90554719999997,train,TA
88,2493,7320,Burnie Interchange Stop D ,-41.05229031,145.9053296,train,TA
89,4279,7321,Chasm Creek Bus Stop ,-41.06723162,145.9649282,train,TA
90,4248,7321,Chasm Creek Bus Stop ,-41.066911,145.964679,train,TA
91,4527,7310,Devonport Interchange ,-41.17721326,146.36115700000002,train,TA
92,2732,7325,Dodgin St before Saunders St #44 ,-40.99184169,145.7260777,train,TA
93,4400:01:00,7321,East Cam Rd ,-41.05735029,145.8533492,train,TA
94,4540,7321,East Cam School Stop Only ,-41.0608,145.86058500000001,train,TA
95,2657,7325,Gibbons St cnr Bridge St ,-40.982458,145.72061200000002,train,TA
96,2659,7325,Hales St opp Hales Crt ,-40.98632685,145.7119831,train,TA
97,2743,7316,Heybridge Bus Stop ,-41.07699151,145.9886533,train,TA
98,4528,7320,Hutchinson St (School Stop) ,-41.073685,145.87962,train,TA
99,2573,7316,Ironcliffe Rd near Crescent St ,-41.113597999999996,146.070908,train,TA
100,2544,7325,Jackson St (Wynyard) ,-40.98969245,145.72841269999998,train,TA
101,2733,7325,Jackson St (Wynyard) ,-40.98975149,145.7284451,train,TA
102,4225,7316,King Edward St ,-41.1160253,146.07392380000002,train,TA
103,2729,7325,Lockett St / Petunia St ,-40.99355221,145.7432583,train,TA
104,4000,7322,Mackenzie Dr (West Somerset) ,-41.03578987,145.8192821,train,TA
105,4093,7320,Marist Junior School (Inside Grounds) ,-41.05001195,145.8867183,train,TA
106,2646,7320,Marriott St - Havenview Primary School ,-41.08315883,145.9119754,train,TA
107,2756,7315,Maud St near Dooley St ,-41.14923083,146.16055790000001,train,TA
108,4231,7315,Maud St near Dooley St ,-41.14920249,146.1602842,train,TA
109,4526,7307,Mersey Community Hospital ,-41.22941913,146.42144119999998,train,TA
110,4002,7316,Mission Hill Rd near Deviation Rd ,-41.1158282,146.05595319999998,train,TA
111,2642,7320,Mount St near Singline Ave ,-41.08570414,145.8925289,train,TA
112,4217,7320,No.10 Wattle Ave ,-41.07693398,145.9216003,train,TA
113,2531,7320,No.15 Tattersall St (School Stop) ,-41.05928133,145.8957702,train,TA
114,2588,7320,No.17 Wright St ,-41.07344792,145.88414609999998,train,TA
115,2754,7315,No.18 Hobbs Pde ,-41.15479602,146.1649102,train,TA
116,4530,7320,No.2 Barnard Cr (School Stop) ,-41.075492,145.879002,train,TA
117,2610,7315,No.4 Grove St ,-41.15890549,146.16823440000002,train,TA
118,2499,7320,No.40 Grenville St ,-41.066231,145.894714,train,TA
119,4529,7320,No.48 Barnard Cr (School Stop) ,-41.077169,145.879601,train,TA
120,4230,7315,No.5 Hobbs Pde ,-41.15488362,146.1650197,train,TA
121,2626,7320,No.54 Mount Street ,-41.05291314,145.9048811,train,TA
122,2700,7320,No.7 Wilmot Street ,-41.049871,145.904052,train,TA
123,2616,7320,North West Regional Hospital ,-41.04698005,145.88100649999998,train,TA
124,2727,7325,Old Bass Hwy opp Rotary Park ,-40.99175327,145.7476541,train,TA
125,2640,7320,Old Surrey Rd ,-41.08882914,145.9076915,train,TA
126,2474,7320,Opposite 120 Payne St ,-41.0716934,145.8905767,train,TA
127,2641,7320,Opposite 216 Old Surrey Rd ,-41.09035498,145.90284590000002,train,TA
128,2693,7320,Opposite 221 Bass Hwy ,-41.04034291,145.87169880000002,train,TA
129,2691,7320,Opposite 227 Bass Hwy ,-41.039844,145.859964,train,TA
130,2731,7325,Opposite 30 Martin St ,-40.99297738,145.74003059999998,train,TA
131,2690,7320,Opposite 303 Bass Hwy ,-41.03972839,145.8566705,train,TA
132,2689,7320,Opposite 335 Bass Hwy ,-41.04089224,145.8524058,train,TA
133,2765,7320,Opposite 4 Bass Hwy ,-41.0663586,145.9444436,train,TA
134,2550,7320,Opposite 44 Three Mile Line Rd ,-41.08006075,145.8902971,train,TA
135,2762,7320,Opposite 53 Marine Tce ,-41.060421000000005,145.911844,train,TA
136,2761,7320,Opposite 72 Marine Tce ,-41.063168,145.915572,train,TA
137,4091,7320,Parklands High School (Inside Grounds) ,-41.08103343,145.9008629,train,TA
138,2618,7316,Preservation Bay Rd near Hogarth Rd ,-41.09103771,146.0180781,train,TA
139,2742,7316,Preservation Dr near Hogarth Rd ,-41.09056745,146.0171363,train,TA
140,2739,7316,Preservation Dr near Johnsons Beach - Inwards ,-41.10790166,146.0675871,train,TA
141,2621,7316,Preservation Dr near Johnsons Beach - Outwards ,-41.10797123,146.06769309999999,train,TA
142,2619,7316,Preservation Dr near Overall St ,-41.09271845,146.0231333,train,TA
143,4324,7320,Romaine Park Primary School ,-41.077282000000004,145.901611,train,TA
144,4090,7320,Stella Maris Primary School (Inside Grounds) ,-41.05137938,145.88744509999998,train,TA
145,2542,7320,Stop 1  Edwards St near Strahan St,-41.05966197,145.90924640000003,train,TA
146,2464,7320,Stop 1  No.2 Aileen Cres,-41.06176,145.901946,train,TA
147,2699,7320,Stop 1  No.2 Bass Hwy,-41.047016,145.90053999999998,train,TA
148,2701,7320,Stop 1  No.27 North Terrace,-41.04855943,145.9031699,train,TA
149,2581,7320,Stop 10  Moorville Rd (Hellyer College),-41.06072,145.880927,train,TA
150,2563,7320,Stop 10  Moorville Rd (Hellyer College),-41.0609,145.880772,train,TA
151,2627,7320,Stop 10  No.17 Blackwood Pde,-41.07996491,145.9062115,train,TA
152,2710,7320,Stop 10  No.271 Bass Hwy,-41.03996682,145.8609639,train,TA
153,2512,7320,Stop 10  No.53 View Road,-41.05466932,145.8962987,train,TA
154,2740,7316,Stop 11 Preservation Dr ,-41.09550517,146.02997969999998,train,TA
155,2620,7316,Stop 11 Preservation Dr ,-41.09577078,146.0304188,train,TA
156,2562,7320,Stop 11  Mooreville Rd near Ace Ave,-41.0623876,145.88019730000002,train,TA
157,2511,7320,Stop 11  No.20 Halstead St,-41.05661835,145.89458059999998,train,TA
158,2711,7320,Stop 11  No.297 Bass Hwy,-41.03979191,145.8575477,train,TA
159,2628,7320,Stop 11  No.3 Manuka Dr,-41.08078446,145.9048261,train,TA
160,2561,7320,Stop 12  Mooreville Rd near Malonga Dr,-41.06387468,145.87965390000002,train,TA
161,8644,7320,Stop 12  No.26 Manuka Dr,-41.08242347,145.9037135,train,TA
162,2644,7320,Stop 12  No.26 Manuka Dr,-41.08242347,145.9037135,train,TA
163,2712,7320,Stop 12  No.317 Bass Hwy,-41.04095613,145.85341830000002,train,TA
164,2527,7320,Stop 12  No.40 Jorgensen Street,-41.05750291,145.8950265,train,TA
165,2582,7320,Stop 12  No.45 Mooreville Rd,-41.06354211,145.8797612,train,TA
166,8629,7320,Stop 13  45 Manuka Dr,-41.0838093,145.9001061,train,TA
167,2629,7320,Stop 13  45 Manuka Dr,-41.0838093,145.9001061,train,TA
168,2560,7320,Stop 13  No.110 Mooreville Rd,-41.06933393,145.8786455,train,TA
169,2583,7320,Stop 13  No.113 Mooreville Rd,-41.06969765,145.8785813,train,TA
170,2528,7320,Stop 13  No.18 Jorgensen Street,-41.056476,145.896325,train,TA
171,2713,7320,Stop 13  No.365 Bass Hwy,-41.04037308,145.84952819999998,train,TA
172,2510,7320,Stop 13  opp.No.26 Jorgensen St,-41.05682768,145.8958936,train,TA
173,2687,7322,Stop 14  Bass Hwy,-41.0393412,145.8347395,train,TA
174,2714,7320,Stop 14  Bass Hwy near East Cam Rd,-41.03933487,145.84352869999998,train,TA
175,2529,7320,Stop 14  Morrison St near Mace St,-41.05695865,145.897777,train,TA
176,2584,7320,Stop 14  No.44 Wiseman St,-41.07165883,145.8795966,train,TA
177,2738,7316,Stop 14  No.66 South Rd,-41.120837,146.076689,train,TA
178,2559,7320,Stop 14  Wiseman St,-41.07168352,145.87944319999997,train,TA
179,2686,7322,Stop 15  Falmouth St,-41.04008791,145.8338044,train,TA
180,2530,7320,Stop 15  Morrison St near Bird St,-41.057897,145.899128,train,TA
181,2631,7320,Stop 15  Mount St / Singline Ave,-41.08543379,145.8926748,train,TA
182,2715,7322,Stop 15  No.20 Falmouth St,-41.03992577,145.8338371,train,TA
183,2489,7320,Stop 16  Bird St (Montello PS),-41.05956594,145.8975234,train,TA
184,2586,7320,Stop 16  No.22 Wiseman St,-41.07143641,145.8833968,train,TA
185,2716,7322,Stop 16  No.32 Falmouth St,-41.04155248,145.83347680000003,train,TA
186,2685,7322,Stop 16  No.33 Simpson St,-41.041158,145.83283600000001,train,TA
187,2507,7320,Stop 16  No.52 Bird St,-41.05871448,145.8985721,train,TA
188,2557,7320,Stop 16  opp.No.22 Wiseman St,-41.07141732,145.8831943,train,TA
189,2506,7320,Stop 17  No.80 Bird St,-41.06045983,145.8965012,train,TA
190,2480,7316,Stop 17  No.96 Main Rd,-41.1149844,146.07497030000002,train,TA
191,2684,7322,Stop 17  Wragg St,-41.04076644,145.8316157,train,TA
192,2505,7320,Stop 18  No.102 Bird St,-41.06165075,145.8950831,train,TA
193,2639,7320,Stop 18  No.145 Old Surrey Rd,-41.08695734,145.9102996,train,TA
194,2683,7322,Stop 18  No.34 Wragg St,-41.03919399,145.8296283,train,TA
195,2717,7322,Stop 18  No.59 Wragg St,-41.03929324,145.8297358,train,TA
196,2555,7320,Stop 18  No.8 Wright St,-41.072281,145.885141,train,TA
197,2632,7320,Stop 19  Havenview Primary School,-41.08406668,145.9122614,train,TA
198,2638,7320,Stop 19  Havenview Primary School,-41.08418055,145.9121823,train,TA
199,2682,7322,Stop 19  No.17 George St,-41.041218,145.82867099999999,train,TA
200,2461,7320,Stop 19  No.34 Terrylands St,-41.06146971,145.8934173,train,TA
201,2702,7320,Stop 2  Bass Hwy (Burnie Park),-41.046716100000005,145.8975938,train,TA
202,2463,7320,Stop 2  No.5 The Boulevard,-41.06158141,145.898055,train,TA
203,2681,7322,Stop 20  No.1 Cardigan St,-41.04497138,145.8274955,train,TA
204,2718,7322,Stop 20  No.38 Cardigan St,-41.04491569,145.8270867,train,TA
205,2458,7320,Stop 20  No.44 Payne St,-41.06451065,145.89127130000003,train,TA
206,2554,7320,Stop 20  Wright St opp.Lorymer Pl,-41.07442636,145.8836425,train,TA
207,2553,7320,Stop 21  No.27 Kentish Dr,-41.07673629,145.8831514,train,TA
208,2719,7322,Stop 21  No.56 Cardigan St,-41.04462054,145.82489219999997,train,TA
209,2635,7320,Stop 22  No.27 McPhee St,-41.079638,145.91485600000001,train,TA
210,2720,7322,Stop 22  No.49 Lyons St,-41.043178000000005,145.821056,train,TA
211,2680,7322,Stop 22  No.68 Lyons St,-41.04304513,145.8210695,train,TA
212,2634,7320,Stop 23  No.51 McPhee St,-41.08119305,145.9132785,train,TA
213,2679,7322,Stop 23  No.65 Pelissier St,-41.04188324,145.8211439,train,TA
214,2497,7320,Stop 24  No.150 Payne St,-41.07470066,145.8898188,train,TA
215,2633,7320,Stop 24  No.69 McPhee St,-41.082569,145.912153,train,TA
216,2678,7322,Stop 24  No.85 Pelissier St (School Stop),-41.04160401,145.8189916,train,TA
217,2677,7322,Stop 25  No.122 Pelissier St (School Stop),-41.04207225,145.8147822,train,TA
218,2475,7320,Stop 25  No.2 Griffith St,-41.07539858,145.8928602,train,TA
219,2498,7320,Stop 25  No.5 Griffith St,-41.07537592,145.89280449999998,train,TA
220,2676,7322,Stop 26  No.33 Flinders Dr (School Stop),-41.04306083,145.8152855,train,TA
221,2595,7320,Stop 26  No.356 Mount St,-41.080005,145.897707,train,TA
222,2450,7320,Stop 26  No.63 Madden St,-41.07391287,145.8932524,train,TA
223,2547,7320,Stop 27  Mount St (Parklands HS),-41.07828042,145.89931,train,TA
224,2596,7320,Stop 27  Mount St (Parklands HS),-41.078333,145.89925,train,TA
225,2449,7320,Stop 27  No.41 Thorne St,-41.07326007,145.8940253,train,TA
226,2675,7322,Stop 27  No.7 Flinders Dr (School Stop),-41.04215338,145.81711130000002,train,TA
227,2448,7320,Stop 28  No.1/25 Thorne St,-41.07353729,145.89619419999997,train,TA
228,2647,7320,Stop 28  No.304 Mount St,-41.07594192,145.899789,train,TA
229,2721,7322,Stop 28  No.61 Pelissier St,-41.04208579,145.82265159999997,train,TA
230,2674,7322,Stop 28  No.68 Pelissier St,-41.04212856,145.82298390000003,train,TA
231,2598,7320,Stop 29  No.2 Thorne St,-41.07379846,145.89846210000002,train,TA
232,2609,7320,Stop 29  No.288 Mount St,-41.07471214,145.90002769999998,train,TA
233,2543,7320,Stop 29  No.3 Thorne St,-41.073820399999995,145.8984591,train,TA
234,2722,7322,Stop 29  No.33 Raglan St,-41.040106,145.82413369999998,train,TA
235,2673,7322,Stop 29  Raglan St (near Simpson St),-41.04030677,145.8240955,train,TA
236,2478,7320,Stop 3  No.1 Brooklyn Rd,-41.06721896,145.9083157,train,TA
237,2703,7320,Stop 3  No.15 Bass Hwy,-41.04612043,145.89390590000002,train,TA
238,2574,7320,Stop 3  No.55 West Park Gr,-41.05102698,145.8926078,train,TA
239,2538,7320,Stop 3  No.6 Verelle St,-41.06388828,145.8981353,train,TA
240,2519,7320,Stop 3  West Park Grove near Burnie Park,-41.051007,145.892621,train,TA
241,2698,7320,Stop 3  West Park Oval,-41.046457000000004,145.89646000000002,train,TA
242,2723,7322,Stop 30  No.17 Raglan St,-41.03829102,145.82452769999998,train,TA
243,2599,7320,Stop 30  No.264 Mount St,-41.07229348,145.900529,train,TA
244,2650,7320,Stop 31  216 Mount St,-41.06982593,145.9010572,train,TA
245,2623,7320,Stop 31  No.197 Mount Street,-41.06994578,145.90102119999997,train,TA
246,2600,7320,Stop 31  No.215 Mount St,-41.07210642,145.9005771,train,TA
247,2651,7320,Stop 32  204A Mount St,-41.067985,145.901386,train,TA
248,2622,7320,Stop 32  No.171 Mount St,-41.06777565,145.9014685,train,TA
249,2669,7322,Stop 33  Mackenzie Dr (West Somerset),-41.03593899,145.81924980000002,train,TA
250,2725,7325,Stop 35  Seabrook Golf Club,-41.00610222,145.7782353,train,TA
251,3999,7325,Stop 35  Seabrook Golf Club,-41.00613625,145.7783333,train,TA
252,2608,7320,Stop 4  Cnr Exhibition St and Collins St,-41.07195107,145.90883480000002,train,TA
253,2575,7320,Stop 4  No.1 Futuna Ave,-41.05261191,145.8904072,train,TA
254,2569,7320,Stop 4  No.2 Futuna Ave,-41.052688,145.89054299999998,train,TA
255,2479,7320,Stop 4  No.31 Collins St,-41.07128366,145.909131,train,TA
256,2518,7320,Stop 4  No.48 West Park Gr,-41.05402351,145.8889951,train,TA
257,2539,7320,Stop 4  No.49 Mark St,-41.06487949,145.89840680000003,train,TA
258,2704,7320,Stop 4  No.51 Bass Hwy,-41.04504134,145.8904124,train,TA
259,2697,7320,Stop 4  opp.No.45 Bass Hwy,-41.044895000000004,145.891242,train,TA
260,2696,7320,Stop 5  Bass Hwy (opp.Button Ave),-41.044708,145.88454199999998,train,TA
261,2705,7320,Stop 5  Bass Hwy near Toorak Ct,-41.04432424,145.88371719999998,train,TA
262,2483,7320,Stop 5  No.1 Wembley St,-41.07165047,145.9075267,train,TA
263,2517,7320,Stop 5  No.125 View Rd,-41.0554444,145.8883236,train,TA
264,2568,7320,Stop 5  No.20 Futuna Ave,-41.05168431,145.88788480000002,train,TA
265,2576,7320,Stop 5  No.21 Futuna Ave,-41.05171235,145.8879914,train,TA
266,2606,7320,Stop 5  No.6 Exhibition St,-41.07184825,145.9079414,train,TA
267,2520,7325,Stop 50  York St,-40.98333212,145.702246,train,TA
268,2658,7325,Stop 53  Gibbons St,-40.98476858,145.7133451,train,TA
269,2706,7320,Stop 6  No.127 Bass Hwy,-41.04309395,145.8806734,train,TA
270,2605,7320,Stop 6  No.6 Flinders St,-41.07257571,145.9051659,train,TA
271,2516,7320,Stop 6  No.79 Grandview Ave,-41.05453919,145.8932377,train,TA
272,2567,7320,Stop 6  No.86 Brickport Road,-41.05129563,145.8844662,train,TA
273,2577,7320,Stop 6  No.93 Brickport Rd,-41.05158829,145.88437109999998,train,TA
274,2695,7320,Stop 6  opp.No.143 Bass Hwy,-41.0423561,145.87914809999998,train,TA
275,2694,7320,Stop 7  Bass Hwy (Cooee Shops),-41.04075993,145.87501840000002,train,TA
276,2566,7320,Stop 7  No.110 Brickport Road,-41.0536943,145.88364430000001,train,TA
277,2578,7320,Stop 7  No.123 Brickport Rd,-41.05382055,145.8836101,train,TA
278,2604,7320,Stop 7  No.18 Flinders St,-41.07362192,145.9044294,train,TA
279,2707,7320,Stop 7  No.189 Bass Hwy (Cooee Shops),-41.04069797,145.87464440000002,train,TA
280,2534,7320,Stop 7  No.36 Belton St,-41.06689617,145.89402969999998,train,TA
281,2515,7320,Stop 7  No.53 Grandview Ave,-41.05376128,145.8947532,train,TA
282,2603,7320,Stop 8  No.101 Collins St,-41.07496118,145.90597069999998,train,TA
283,2565,7320,Stop 8  No.132 Brickport Road,-41.05581466,145.8828376,train,TA
284,2579,7320,Stop 8  No.147 Brickport Rd,-41.05570849,145.8828871,train,TA
285,2607,7320,Stop 8  No.16 Roslyn Ave,-41.07672558,145.90367780000003,train,TA
286,2708,7320,Stop 8  No.235 Bass Hwy,-41.04030105,145.86985259999997,train,TA
287,2514,7320,Stop 8  No.25 Grandview Ave,-41.05211493,145.8967488,train,TA
288,2488,7320,Stop 8  No.86 Collins St,-41.074969,145.90606200000002,train,TA
289,2709,7320,Stop 9  Bass Hwy (Burnie High School),-41.03975805,145.86613569999997,train,TA
290,2513,7320,Stop 9  No.14 Elizabeth Street,-41.05343597,145.89755159999999,train,TA
291,2645,7320,Stop 9  No.2 Blackwood Pde,-41.07748288,145.9056503,train,TA
292,2564,7320,Stop 9  UTAS Cradle Coast Campus,-41.05765207,145.8820647,train,TA
293,2580,7320,Stop 9  UTAS Cradle Coast Campus,-41.057686,145.88210700000002,train,TA
294,2549,7320,Three Mile Line Rd near Greenacre St ,-41.08076463,145.8954441,train,TA
295,2753,7315,Ulverstone Interchange ,-41.158239,146.171729,train,TA
296,8564:01:00,7320,UNIVERSITY TERMINUS ,-41.05765207,145.8820647,train,TA
297,4092,7320,Van Diemens Cres - Burnie Primary School ,-41.05819387,145.8841882,train,TA
298,4258,7320,Wellington St / Hopkinson St ,-41.06246551,145.91003669999998,train,TA
299,4541,7321,West Mooreville School Stop Only ,-41.106456,145.8361,train,TA
300,2551,7320,Woniora Rd near Rouse Pl ,-41.079076,145.885398,train,TA
301,2552,7320,Woniora Rd near Stammers Pl ,-41.0773146,145.8858606,train,TA
302,4554,7320,Burnie Interchange ,-41.052305,145.90529899999999,train,TA
