id,stop_id,postcode,stop_name,stop_lat,stop_lon,mode,state_code
1,3086,7249,opp.No.11 Chifley St ,-41.46567133,147.1518811,train,TA
2,3016,7249,66B Poplar Pde ,-41.48890406,147.1751769,train,TA
3,3673,7290,17 Bartley St ,-41.50963757,147.06295459999998,train,TA
4,2825,7250,86A St John St ,-41.43797103,147.1393574,train,TA
5,3516,7249,13 Talbot Rd ,-41.449651,147.153286,train,TA
6,3263,7248,Mowbray / Vermont Rd ,-41.406552000000005,147.13450500000002,train,TA
7,3983,7250,North Riverside Terminus ,-41.39901187,147.08605319999998,train,TA
8,2910,7248,Stop 14  No.116 George Town Rd,-41.38858138,147.1269022,train,TA
9,4107,7250,Prospect High School ,-41.475429999999996,147.13089,train,TA
10,2832,7248,Stop 4  Invermay Rd,-41.42607518,147.1371136,train,TA
11,14052:1,7250,Sacred Heart ,-41.44329172,147.132205,train,TA
12,3010,7249,95 Poplar Pde ,-41.48713251,147.17827659999998,train,TA
13,3698,7250,4 Longvista Rd ,-41.45831697,147.0766833,train,TA
14,3207,7250,Hoblers Bridge Rd near Hart St ,-41.43932906,147.1671029,train,TA
15,3324,7250,2 Bridge Rd ,-41.44072639,147.1295948,train,TA
16,3274,7250,Opposite 32 Faraday St ,-41.42073714,147.1807237,train,TA
17,3214,7248,155 Vermont Rd ,-41.40920747,147.1504083,train,TA
18,3611,7250,448 Westbury Rd ,-41.4888466,147.1246601,train,TA
19,4401,7250,Stop 2  Brisbane St,-41.43330831,147.143975,train,TA
20,2828,7250,No.194 Charles St ,-41.44155946,147.1402786,train,TA
21,14117:1,7300,Illawarra Rd / Pateena Rd ,-41.576454,147.142109,train,TA
22,3041,7250,106 Bathurst St ,-41.44447216,147.137822,train,TA
23,3731,7290,57 South Esk Dr ,-41.5001925,147.0689545,train,TA
24,3716,7250,257 Peel St ,-41.47033122,147.1218561,train,TA
25,3257,7248,2 Wildor Cres ,-41.41424438,147.161017,train,TA
26,4375,7250,Home Point Pde (Royal Park) ,-41.43522174,147.1302104,train,TA
27,3283,7250,Opposite 32 Pitt Ave ,-41.43109232,147.10579380000001,train,TA
28,3653,7249,Westbury Rd / Norwich St ,-41.45826235,147.14600990000002,train,TA
29,14104:1,7302,Cressy Rd / Green Rises Rd ,-41.67201,147.083171,train,TA
30,3268,7250,4 Racecourse Cres ,-41.42994461,147.1476658,train,TA
31,3631,7249,197 Poplar Pde ,-41.47953322,147.18257659999998,train,TA
32,3475,7250,36 Salisbury Cres ,-41.456153,147.13165800000002,train,TA
33,3154,7250,Stop 19  277 Penquite Rd,-41.4606936,147.182315,train,TA
34,14012:1,7301,65 Marlborough St ,-41.601267,147.120034,train,TA
35,2837,7248,Stop 7  Invermay Rd,-41.41476593,147.1334699,train,TA
36,3614,7250,Opposite 321 Westbury Rd ,-41.47821859,147.1270227,train,TA
37,3164,7250,214 St Leonards Rd ,-41.45159218,147.1920603,train,TA
38,3371,7250,Opposite 61 Hardwicke St ,-41.46679162,147.1180937,train,TA
39,3209,7250,10 Hoblers Bridge Rd ,-41.44169177,147.1622658,train,TA
40,2860,7248,No.9 Lawson St ,-41.3889019,147.1335282,train,TA
41,3676,7290,Opposite 17 Bartley St ,-41.50949961,147.06273159999998,train,TA
42,3988,7250,No.348 West Tamar Rd ,-41.41047671,147.097824,train,TA
43,2967,7248,33 Mayne St ,-41.42061249,147.1321692,train,TA
44,14107:1,7302,1 Cressy Rd ,-41.659126,147.08580700000002,train,TA
45,3464,7250,29 Lavender Gr ,-41.46568856,147.1194748,train,TA
46,3691,7250,31 Panorama Rd ,-41.46353379,147.08629480000002,train,TA
47,3976,7250,No.21 Cormiston Rd ,-41.40059609,147.0837532,train,TA
48,14123:1,7300,Clarence St ,-41.568354,147.177193,train,TA
49,3688,7290,Opposite 15 Main Rd ,-41.50382972,147.06796540000002,train,TA
50,2869,7250,111 Hardwicke St ,-41.46967352,147.1224679,train,TA
51,2996,7249,Stop 15  No.165 Hobart Rd,-41.46942902,147.1613437,train,TA
52,3647,7290,98 South Esk Dr ,-41.498965000000005,147.074472,train,TA
53,3084,7249,No.72 Riseley St ,-41.46865525,147.15191769999998,train,TA
54,3096,7250,42 Brisbane St ,-41.43569368,147.14129409999998,train,TA
55,14015:1,7301,Wellington St / Smith St ,-41.591073,147.121096,train,TA
56,4380,7250,Opposite Lambert St near Lennox St ,-41.41872265,147.1772583,train,TA
57,2946,7248,Blackwood Dr / Waratah Rd ,-41.37463996,147.138275,train,TA
58,14108:1,7301,Lot 2550 Cressy Rd ,-41.642953000000006,147.091027,train,TA
59,3355,7250,71 Frederick St ,-41.44389711,147.1340291,train,TA
60,2940,7248,No. 159 Alanvale Rd ,-41.38690265,147.11557140000002,train,TA
61,3233,7250,Opposite 55 Warring St ,-41.41266182,147.1702076,train,TA
62,14273:1,7306,Sheffield Visitor Information Ce ,-41.382911,146.325218,train,TA
63,3702,7250,38 Blackstone Rd ,-41.46712816,147.0816907,train,TA
64,3597,7250,Chris St near Mace St ,-41.48098775,147.12890480000002,train,TA
65,3341,7250,Opposite 35 Gorge Rd ,-41.43666008,147.11660690000002,train,TA
66,3223,7250,Opposite 1 Blyth St ,-41.41748377,147.17489709999998,train,TA
67,2835,7248,Stop 6  Invermay Rd,-41.41980298,147.1350529,train,TA
68,4067,7249,No.31 Blaydon St ,-41.47001225,147.15697219999998,train,TA
69,3292,7250,No.6 Pomona Road ,-41.41950151,147.1058351,train,TA
70,3089,7249,Lithgow St (Sandhill Aged Care) ,-41.46065859,147.1512895,train,TA
71,3622,7250,389 Westbury Rd ,-41.48618542,147.1250898,train,TA
72,3594,7250,Opposite 266 Westbury Rd ,-41.47281024,147.130499,train,TA
73,3248,7250,26 Faulkner Rd ,-41.42425501,147.1775817,train,TA
74,3969,7250,Stop 17  No.335 West Tamar Rd,-41.41168145,147.0990104,train,TA
75,2922,7248,Stop 21  Alanvale Rd / George Town Rd,-41.39566638,147.1261754,train,TA
76,2987,7249,Stop 7  No.355 Wellington St,-41.45513878,147.14559340000002,train,TA
77,14111:1,7301,Marlborough St / Bulwer St In ,-41.606078000000004,147.118211,train,TA
78,2867,7250,68 Stanley St ,-41.46616827,147.1280047,train,TA
79,2965,7248,Alanvale Rd / George Town Rd ,-41.39553578,147.1259503,train,TA
80,3313,7250,Coulter St / Reatta Rd ,-41.43568552,147.1071894,train,TA
81,3334,7250,Dandenong Rd / Delungra Rd ,-41.440638299999996,147.12015580000002,train,TA
82,3512,7250,79 High St ,-41.44216412,147.1475868,train,TA
83,3301,7250,No.20 Riverside Dr ,-41.41772101,147.1037612,train,TA
84,2855,7248,Stop 13  George Town Rd,-41.39239094,147.1256411,train,TA
85,14036:1,7250,Stop 5  No.259 Charles St,-41.444444,147.142008,train,TA
86,4525,7250,No.66 Queechy Rd (School Stop) ,-41.44764722,147.1787197,train,TA
87,3363,7250,33 Vaux St ,-41.46195329,147.133026,train,TA
88,3158,7250,St Leonards / Station Rd ,-41.46004465,147.19807580000003,train,TA
89,3278,7250,School Stop Only - No.68 Cherry Rd ,-41.43117879,147.1088507,train,TA
90,2998,7250,Opposite 24 Stanley St ,-41.46413449,147.12413469999998,train,TA
91,3280,7250,School Stop Only - No.6 Joseph St ,-41.42960892,147.11083,train,TA
92,3166,7250,132 St Leonards Rd ,-41.44599979,147.18486240000001,train,TA
93,2943,7248,39 Bronzewing Ave ,-41.38341818,147.1159576,train,TA
94,2913,7248,Stop 11  No.20 George Town Rd,-41.39790675,147.1282785,train,TA
95,3724,7250,2 Las Vegas Dr ,-41.48293220000001,147.1231805,train,TA
96,4385,7250,Opposite 79 St Leonards Rd ,-41.44184318,147.1808756,train,TA
97,3656,7250,96 Chris St ,-41.48415942,147.1328655,train,TA
98,3078,7249,No.12 Waroona St ,-41.47672498,147.16776090000002,train,TA
99,3694,7250,81 Panorama Rd ,-41.45479625,147.0809241,train,TA
100,2955,7248,No.32 Lilydale Rd ,-41.37667599,147.1301179,train,TA
101,3563,7249,46 Punchbowl Rd ,-41.4592818,147.16058610000002,train,TA
102,4254,7249,No.3 Waveney St (Ainsley House) ,-41.459258,147.14783899999998,train,TA
103,4100,7248,Launceston Church Grammar School ,-41.40876702,147.1278048,train,TA
104,3473,7250,144 Cambridge St ,-41.46065879,147.1304482,train,TA
105,14019:1,7300,8 Drummond Cr ,-41.576025,147.16808,train,TA
106,3511,7248,No.4 Lawson St ,-41.38864,147.133254,train,TA
107,2997,7249,Stop 16  opp.No.172 Hobart Rd,-41.47160415,147.1625082,train,TA
108,3063,7249,Ernest St near Blaydon St ,-41.47079188,147.1543199,train,TA
109,3337,7250,31 Anderson Rd ,-41.43867048,147.1161994,train,TA
110,3277,7250,33 Pitt Ave ,-41.43302863,147.107757,train,TA
111,3719,7250,63 Mt Leslie Rd ,-41.47497568,147.12028840000002,train,TA
112,3197,7250,10 Eldon St ,-41.43604675,147.191255,train,TA
113,3079,7249,No.12 Woolven St ,-41.47612357,147.1666654,train,TA
114,4074,7250,Opposite 24 Cleghorn Ave ,-41.41136165,147.1024991,train,TA
115,14016:1,7301,BWS; Wellington St ,-41.588795000000005,147.12007,train,TA
116,2977,7248,No.130 Alanvale Rd ,-41.38704612,147.11587580000003,train,TA
117,2850,7250,St John St ,-41.43782502,147.13922680000002,train,TA
118,2882,7248,Stop 8  Invermay Rd,-41.410649600000006,147.13234980000001,train,TA
119,3287,7250,22 Gray St ,-41.42725556,147.1010524,train,TA
120,3216,7248,241 Vermont Rd ,-41.412746899999995,147.1587983,train,TA
121,3508,7248,No.85 Hargrave Cres ,-41.385785,147.133092,train,TA
122,3237,7250,4 Warring St ,-41.41735165,147.17476619999997,train,TA
123,3189,7250,73 Tasman Hwy ,-41.43612346,147.1837371,train,TA
124,3978,7250,No.95 Cormiston Rd ,-41.40362775,147.0850861,train,TA
125,4391,7249,Opposite 38 Quarantine Rd ,-41.47310975,147.16894409999998,train,TA
126,3624,7249,Normanstone Rd / Hobart Rd ,-41.45918838,147.1531915,train,TA
127,3104,7250,93 Elphin Rd ,-41.43519731,147.15537340000003,train,TA
128,3169,7250,113 St Leonards Rd ,-41.44604769,147.1849169,train,TA
129,3589,7249,89A Normanstone Rd ,-41.46445395,147.1473233,train,TA
130,4066,7249,No.11 Blaydon St ,-41.46897888,147.15911459999998,train,TA
131,14023:1,7300,Clarence St / Arthur ,-41.568441,147.177297,train,TA
132,14114:1,7301,Village Green  Wellington St In,-41.593365000000006,147.12186599999998,train,TA
133,3129,7250,Charlton St near Boiton Hill Rd ,-41.46242207,147.17774680000002,train,TA
134,14072:1,7306,Claude Rd / Wellington St ,-41.469257,146.217373,train,TA
135,4076,7250,12 Farmer St ,-41.41166353,147.10485380000003,train,TA
136,3182,7250,240 Penquite Rd ,-41.45790719,147.1799791,train,TA
137,3633,7250,No.57 Norwood Rd ,-41.45848181,147.1737872,train,TA
138,3157,7250,66 Station Rd ,-41.46208182,147.19436330000002,train,TA
139,14004:1,7302,Cressy Rd; opp Green Rises Rd ,-41.67199,147.08335,train,TA
140,3540,7250,5 Clarence St ,-41.43495915,147.149426,train,TA
141,3204,7250,No.18 Tasman Hwy ,-41.43843508,147.1796648,train,TA
142,3364,7250,187 Cambridge St ,-41.46315099,147.13400910000001,train,TA
143,3347,7250,Opposite 133 Patterson St ,-41.44016562,147.13111709999998,train,TA
144,4524,7250,No.38 Queechy Rd (School Stop) ,-41.449346000000006,147.17656499999998,train,TA
145,3547,7250,2 Clarence St ,-41.43542545,147.1503711,train,TA
146,3009,7249,67 Poplar Pde ,-41.48846386,147.17597659999998,train,TA
147,3580,7250,Launceston General Hospital ,-41.445809000000004,147.14273799999998,train,TA
148,3100,7250,29A Elphin Rd ,-41.43140473,147.148108,train,TA
149,2853,7248,5 George Town Rd ,-41.39821734,147.1284655,train,TA
150,3328,7250,No.17 Gorge Rd (Trevallyn Shops) ,-41.43560617,147.119057,train,TA
151,3282,7250,School Stop Only - No.77 Cherry Rd ,-41.43133223,147.1085086,train,TA
152,3187,7250,13 St Leonards Rd ,-41.43682162,147.17637150000002,train,TA
153,4323,7250,Margaret St (School Stop) ,-41.44140181,147.13317780000003,train,TA
154,3592,7250,167 Westbury Rd ,-41.46837846,147.1393315,train,TA
155,3533,7250,Opposite 141 Abbott St ,-41.44692888,147.15720119999997,train,TA
156,3185,7250,Hoblers Bridge Rd near Hart St ,-41.43915333,147.1674054,train,TA
157,3253,7250,110 Wildor Cres ,-41.42098198,147.16728759999998,train,TA
158,3317,7250,121 New World Ave ,-41.43697602,147.10490090000002,train,TA
159,3554,7250,163 Abbott St ,-41.448704,147.1586,train,TA
160,3567,7249,No.68 Talbot Rd ,-41.45427534,147.154604,train,TA
161,3705,7250,24 Pitcher Pde ,-41.47606376,147.1027014,train,TA
162,3576,7250,Launceston Aquatic Centre ,-41.43462279999999,147.14734950000002,train,TA
163,3566,7249,No.92 Talbot Rd ,-41.45662687,147.15512030000002,train,TA
164,3581,7249,Opposite 10 Mulgrave St ,-41.44749229999999,147.1450227,train,TA
165,3638,7290,134 South Esk Dr ,-41.50130737,147.0720924,train,TA
166,3582,7249,Opposite 40 Mulgrave St ,-41.44945285,147.14673530000002,train,TA
167,3535,7250,126 Abbott St ,-41.44530364,147.155946,train,TA
168,4439,7250,CITY TERMINUS E-F-H ,-41.43797103,147.1393574,train,TA
169,2934,7248,Opposite 34-36 Reservoir Rd ,-41.37772058,147.13505619999998,train,TA
170,14253:1,7250,Riverside High School ,-41.409526,147.097877,train,TA
171,3127,7250,33 Charlton St ,-41.46626614,147.17760090000002,train,TA
172,14130:1,7258,Hobart Rd ,-41.527996,147.187469,train,TA
173,3102,7250,71 Elphin Rd ,-41.43368709,147.15265390000002,train,TA
174,3338,7250,41 Fairthorne Rd ,-41.43929254,147.1150729,train,TA
175,3655,7250,3 Burrows St ,-41.48319742,147.12676399999998,train,TA
176,3704,7250,12 Blackstone Rd ,-41.47016384,147.0883232,train,TA
177,3963,7250,Stop 10  No.79 Forest Rd,-41.426462,147.113747,train,TA
178,3312,7250,Opposite 4 Reatta Rd ,-41.43564407,147.11010180000002,train,TA
179,2973,7248,No.59 Franmaree Rd ,-41.38285485,147.1170351,train,TA
180,3679,7250,127 Tasman Hwy ,-41.43451581,147.1894948,train,TA
181,3053,7249,No.34 Heather St ,-41.45662062,147.13854980000002,train,TA
182,4328,7250,47 Cameron St ,-41.43514902,147.1387104,train,TA
183,3639,7249,198 Poplar Pde ,-41.47838348,147.182778,train,TA
184,2986,7249,Stop 6  No.301 Wellington St,-41.4520074,147.142789,train,TA
185,14032:1,7249,Hobart Rd opp Dunnivan St ,-41.484219,147.1676,train,TA
186,3069,7249,No.31 Waroona St ,-41.47841179,147.1686322,train,TA
187,3470,7250,148 Peel St West ,-41.46561035,147.1327446,train,TA
188,2921,7248,2 Mayne St ,-41.4194976,147.1345654,train,TA
189,3359,7250,Opposite 2 Granville St ,-41.45068198,147.12922930000002,train,TA
190,3208,7250,Hoblers Bridge Rd near Belhaven St ,-41.44033752,147.1653102,train,TA
191,4106,7250,St Anthony's Primary School ,-41.40687696,147.0951441,train,TA
192,3436,7290,Hadspen ,-41.51633855,147.0605066,train,TA
193,3989,7250,Stop 16  No.322 West Tamar Hwy,-41.41243227,147.0999669,train,TA
194,3177,7250,St Leonards / Station Rd ,-41.45982835,147.19844369999998,train,TA
195,2968,7248,86 Holbrook St ,-41.423277299999995,147.1333316,train,TA
196,3339,7250,Opposite 16 Fulford St ,-41.438425099999996,147.1124477,train,TA
197,3607,7250,Country Club Tasmania ,-41.48473012,147.10747460000002,train,TA
198,3644,7250,Opposite 81 Elizabeth St ,-41.44140194,147.1367261,train,TA
199,2984,7250,211 Wellington St ,-41.44704186,147.1393079,train,TA
200,3050,7249,Stop 7  No.15 Glen Dhu St,-41.45250152,147.1393128,train,TA
201,14112:1,7301,PCYC  Marlborough St,-41.601329,147.119867,train,TA
202,3003,7249,351A Hobart Rd ,-41.48421931,147.1676004,train,TA
203,3130,7250,8 Boiton Hill Rd ,-41.46329422,147.17487590000002,train,TA
204,3107,7250,Stop 8  No.161 Elphin Rd,-41.44098395,147.1604519,train,TA
205,2891,7248,Stop 3  Invermay Rd,-41.42919263,147.1383722,train,TA
206,3534,7250,50 Amy Rd ,-41.45050047,147.1607877,train,TA
207,4377,7250,City Park ,-41.431459000000004,147.144597,train,TA
208,14152:1,7250,Margaret St before York ,-41.442176,147.133938,train,TA
209,2826,7250,Westbury Rd (Marketplace) ,-41.479840700000004,147.1266189,train,TA
210,14017:1,7301,Pateena Rd / cnr Illawarra Rd ,-41.576254999999996,147.14083,train,TA
211,3230,7250,19 Naroo St ,-41.432381,147.188545,train,TA
212,3710,7250,34 Richard St ,-41.47819612,147.1199241,train,TA
213,3528,7250,185 Punchbowl Rd ,-41.45001779,147.16307680000003,train,TA
214,3353,7250,Stop B  St John Street,-41.43671218,147.13835869999997,train,TA
215,2928,7248,Stop 32  No.22 Tompsons Ln,-41.38561909,147.125416,train,TA
216,14135,7250,Launceston General Hospital ,-41.445752,147.142564,train,TA
217,3220,7250,97 Wildor Cres ,-41.42048017,147.1667469,train,TA
218,3040,7250,Opposite 237-241 Wellington St ,-41.44838318,147.1397817,train,TA
219,14103:1,7302,Opposite Pool  Main St,-41.682596000000004,147.08098700000002,train,TA
220,3150,7250,57-59 Brisbane St ,-41.43610654,147.140817,train,TA
221,2983,7250,181 Wellington St ,-41.44520745,147.1391163,train,TA
222,2865,7248,** Deleted Jun 2014 ,-41.38954868,147.12660549999998,train,TA
223,3004,7249,Alma St near Chestnut Rd ,-41.48504846,147.171435,train,TA
224,2948,7248,Reservoir Rd near Lilydale Rd ,-41.37560772,147.13300569999998,train,TA
225,2829,7250,Stop 2  William St,-41.43207497,147.1397877,train,TA
226,3332,7250,36 Fairthorne Rd ,-41.43940188,147.1148119,train,TA
227,3609,7250,opp.No.42 Connaught Cr ,-41.45120367,147.13414790000002,train,TA
228,3265,7250,112 Cimitiere St ,-41.43226585,147.1416164,train,TA
229,14054:1,7249,Kings Meadows High School ,-41.472827,147.159428,train,TA
230,3071,7249,No.12 Lorne St ,-41.47886605,147.17273630000003,train,TA
231,2917,7248,71A Holbrook St ,-41.42669578,147.1344011,train,TA
232,3474,7250,126 Cambridge St ,-41.45966994,147.128986,train,TA
233,3039,7249,Stop 6  No.232 Wellington St,-41.452005,147.14273799999998,train,TA
234,4523,7250,No.25 Sandown Rd (School Stop) ,-41.446586700000005,147.1774055,train,TA
235,3326,7250,19 Trevallyn Rd ,-41.43755512,147.12484609999998,train,TA
236,4381,7249,No.63 Charles St ,-41.44805203,147.14306069999998,train,TA
237,3515,7250,Riverside Way near West Tamar Rd ,-41.417024,147.10429399999998,train,TA
238,2982,7250,89 Wellington St ,-41.4414333,147.13782759999998,train,TA
239,3321,7250,22 Bald Hill Rd ,-41.434830299999994,147.1148977,train,TA
240,2974,7248,28 Bronzewing Ave ,-41.38342845,147.1158611,train,TA
241,3968,7250,Stop 16  No.299 West Tamar Rd,-41.41432484,147.1011573,train,TA
242,14250:1,7250,Launceston Christian College ,-41.40192570000001,147.0895855,train,TA
243,2989,7249,Stop 9  No.421 Wellington St,-41.45849224,147.1493989,train,TA
244,3289,7250,84 Pomona Rd ,-41.42509565,147.1016401,train,TA
245,3061,7249,opp. No.12 Jillian St ,-41.46932704,147.151804,train,TA
246,3700,7250,70 Blackstone Rd ,-41.46384282,147.07717399999999,train,TA
247,3670,7290,15 Main St ,-41.50369614,147.0683182,train,TA
248,3981,7250,No.10 New Ecclestone Rd ,-41.40877968,147.0870522,train,TA
249,3959,7250,Stop 6  No.21 West Tamar Hwy,-41.43599678,147.12501930000002,train,TA
250,3205,7250,14 St Leonards Rd ,-41.43686622,147.17640740000002,train,TA
251,14018:1,7300,2 Drummond Cr ,-41.576771,147.166528,train,TA
252,3091,7249,No.26 Glen Dhu St ,-41.45264449,147.1394031,train,TA
253,14121:1,7300,Scone St ,-41.575039000000004,147.17329099999998,train,TA
254,3254,7250,86 Wildor Cres ,-41.41952049,147.1658726,train,TA
255,3018,7249,22 Poplar Pde ,-41.489938,147.17077700000002,train,TA
256,3579,7250,Stop 5  No.259 Charles St,-41.44444388,147.1420082,train,TA
257,3335,7250,Opposite 3 Delungra Rd ,-41.437717799999994,147.1188698,train,TA
258,2831,7248,Stop 3 Invermay Rd,-41.42822349,147.1379205,train,TA
259,3654,7249,Opposite 100 Westbury Rd ,-41.46442541,147.1459145,train,TA
260,2945,7248,No.18 Franmaree Rd ,-41.38559642,147.1214803,train,TA
261,3222,7250,Opposite 30 Lambert St ,-41.41944304,147.173575,train,TA
262,3595,7250,292 Westbury Rd ,-41.47480998,147.1277348,train,TA
263,3159,7250,No.6 Station Rd ,-41.458959,147.199951,train,TA
264,3250,7250,36 Ravenswood Rd ,-41.42318682,147.17253730000002,train,TA
265,3043,7250,Princes Square ,-41.43993282,147.140129,train,TA
266,3675,7290,38 Bartley St ,-41.51098572,147.0651452,train,TA
267,3463,7250,7 Lavender Gr ,-41.46471192,147.122178,train,TA
268,3979,7250,No.135 Cormiston Rd ,-41.4065164,147.08511769999998,train,TA
269,3630,7249,155 Poplar Pde ,-41.48186106,147.1795509,train,TA
270,3173,7250,267 St Leonards Rd ,-41.45398361,147.1973543,train,TA
271,3048,7250,School Stop 5  No.25 Maitland St,-41.44994367,147.138244,train,TA
272,3697,7250,34 Longvista Rd ,-41.45530388,147.07320790000003,train,TA
273,3665,7250,Country Club Ave near Casino Rise ,-41.48173794,147.1114242,train,TA
274,3020,7249,416 Hobart Rd ,-41.48984833,147.16797549999998,train,TA
275,3982,7250,opp.No.9 Ecclestone Rd ,-41.40759727,147.0917215,train,TA
276,3202,7250,82 Tasman Hwy ,-41.43535206,147.1846402,train,TA
277,3648,7250,Princes Square ,-41.44008272,147.13977869999997,train,TA
278,3612,7250,No.376 Westbury Rd ,-41.482518,147.1259185,train,TA
279,3717,7250,5 Willow Ln ,-41.47152404,147.12068200000002,train,TA
280,3260,7248,122 Vermont Rd ,-41.40805858,147.14608869999998,train,TA
281,2919,7248,Holbrook St / Landale St Out ,-41.42292656,147.1332021,train,TA
282,4397,7250,Summerdale Primary School - Stanley St ,-41.46729896,147.12992319999998,train,TA
283,3497,7250,No.38 Connaught Cr ,-41.45137798,147.1346749,train,TA
284,3054,7249,opp.No.13 Heather St ,-41.45680996,147.14066119999998,train,TA
285,3323,7250,Stop 4  Margaret St,-41.44025754,147.1320858,train,TA
286,14030:1,7258,Hobart Rd Breadalbane ,-41.528177,147.187589,train,TA
287,3191,7250,Waverley ,-41.43429936,147.18576950000002,train,TA
288,3477,7250,2 Granville St ,-41.45074195,147.12922509999999,train,TA
289,3294,7250,No.3 Balmoral Avenue ,-41.41816623,147.1021816,train,TA
290,3358,7250,19 Brougham St ,-41.45016886,147.1306245,train,TA
291,3596,7250,317 Westbury Rd ,-41.4779784,147.1271022,train,TA
292,3586,7249,Stop 12  Normanstone Rd,-41.45991496,147.1530575,train,TA
293,3548,7250,Opposite 24 Abbott St ,-41.43712266,147.1512272,train,TA
294,3663,7290,76 South Esk Dr ,-41.499168,147.071682,train,TA
295,3217,7248,3 Wildor Cres ,-41.4143722,147.1611255,train,TA
296,3000,7249,263 Hobart Rd ,-41.47758242,147.16563969999999,train,TA
297,3231,7250,4 Mornington Dr ,-41.40958411,147.16838159999998,train,TA
298,3657,7250,72 Chris St ,-41.48600983,147.1304474,train,TA
299,3367,7250,Peel St West / Stanley St ,-41.46674055,147.13010490000002,train,TA
300,2972,7248,No.15 Franmaree Rd ,-41.38538831,147.12128909999998,train,TA
301,3318,7250,141 New World Ave ,-41.435588,147.10398999999998,train,TA
302,3544,7250,56 Salisbury Cres ,-41.45778876,147.1326996,train,TA
303,2895,7250,City Terminus ,-41.43691677,147.13850549999998,train,TA
304,3171,7250,209 St Leonards Road ,-41.45121961,147.1913333,train,TA
305,3068,7249,No.9 Waroona St ,-41.4765571,147.1676709,train,TA
306,3252,7250,Lambert St / Ravenswood Rd ,-41.42103005,147.1692591,train,TA
307,3174,7250,Opposite 310 St Leonards Rd ,-41.45718552,147.2001195,train,TA
308,3057,7249,No.26 Gascoyne St ,-41.46354532,147.1519575,train,TA
309,3142,7250,Stop 7  No.154 Elphin Road,-41.44129482,147.1606811,train,TA
310,3661,7249,Westbury Rd / Norwich St ,-41.45760418,147.1455126,train,TA
311,2933,7248,opp.No.32 Lilydale Rd ,-41.37674016,147.1300009,train,TA
312,2999,7249,Stop 17  No.233 Hobart Rd,-41.47448898,147.1640139,train,TA
313,3685,7250,Launceston General Hospital ,-41.445752,147.142564,train,TA
314,2923,7248,No.65 Alanvale Rd ,-41.39281197,147.1224025,train,TA
315,3240,7250,11 Castlemaine Rd ,-41.41648136,147.1817186,train,TA
316,3372,7250,42 Lavender Gr ,-41.46588161,147.1189889,train,TA
317,3651,7249,No.45 Heather St ,-41.45653562,147.138408,train,TA
318,3361,7250,Opposite 36 Salisbury Cres ,-41.45623137,147.1316409,train,TA
319,4108:01:00,7250,St Patricks College Stop A ,-41.47376229,147.12624619999997,train,TA
320,2942,7248,7 Bronzewing Ave ,-41.38422452,147.1140993,train,TA
321,3183,7250,200 Penquite Rd ,-41.45553819,147.17749540000003,train,TA
322,3726,7250,7 Pitcher Pde ,-41.47731486,147.1048534,train,TA
323,3085,7249,No.30 Chifley St ,-41.46733468,147.15343769999998,train,TA
324,3122,7250,34 Charlton St ,-41.46643098,147.17764630000002,train,TA
325,4110,7250,Larmenier Primary School ,-41.45936181,147.19612990000002,train,TA
326,3574,7250,36 High St ,-41.44050433,147.1473802,train,TA
327,4064,7249,No.24 Waveney St ,-41.46119366,147.148174,train,TA
328,3709,7250,11 Las Vegas Dr ,-41.48127692,147.1227747,train,TA
329,2936,7248,36 Blackwood Dr ,-41.37748105,147.1364862,train,TA
330,3671,7290,39 Main St ,-41.50523658,147.0646179,train,TA
331,3689,7290,25 South Esk Dr ,-41.501444,147.066405,train,TA
332,3683,7249,40 Mulgrave St ,-41.44936906,147.1466476,train,TA
333,14171:1,7310,Cradle Mtn Rd / Cethana Rd ,-41.47529,146.095566,train,TA
334,3505,7250,49 High St ,-41.43822316,147.14719519999997,train,TA
335,3587,7249,Stop 14  No.61 Normanstone Rd,-41.46263623,147.1502219,train,TA
336,3558,7250,144 Punchbowl Rd ,-41.453286999999996,147.164049,train,TA
337,3603,7250,Country Club Ave / Westbury Rd ,-41.48387158,147.1237199,train,TA
338,3311,7250,Opposite 2 Veulalee Ave ,-41.43457958,147.11442230000003,train,TA
339,3128,7250,57 Charlton St ,-41.46394572,147.1779615,train,TA
340,8958,7248,ALANVALE TERMINUS IN [s] ,-41.38467815,147.12725849999998,train,TA
341,3117,7250,27 Norwood Ave ,-41.45569718,147.1731418,train,TA
342,3047,7250,** Stop Deleted May 2017 ,-41.44838833,147.1369743,train,TA
343,3970,7250,Stop 18  No.359 West Tamar Rd,-41.409616,147.096729,train,TA
344,14270:1,7306,Cradle Mountain Transit Terminal ,-41.581579999999995,145.937774,train,TA
345,3729,7250,No.1 Neptune Dr ,-41.467647,147.089782,train,TA
346,2960,7248,No.43 Tompsons Ln ,-41.38688843,147.1231074,train,TA
347,2969,7248,54 Holbrook St ,-41.42567861,147.1342405,train,TA
348,3046,7250,175 York St ,-41.44129538,147.1347648,train,TA
349,3303,7250,23 Pomona Rd ,-41.420836,147.104218,train,TA
350,3993,7250,Tailrace Park ,-41.42294627,147.1131022,train,TA
351,3152,7250,Stop 17  207 Penquite Rd,-41.45603106,147.17799730000002,train,TA
352,3619,7250,140 Westbury Rd ,-41.46675658,147.1422896,train,TA
353,3707,7250,No.14 Casino Rise ,-41.48006103,147.1093545,train,TA
354,3267,7250,Kmart ,-41.4280413,147.14817659999997,train,TA
355,2884,7248,Stop 7  Invermay Rd,-41.41454904,147.13339380000002,train,TA
356,3996,7250,West Tamar Hwy (opp.Forest Rd) ,-41.43315129,147.1224054,train,TA
357,3620,7249,120 Westbury Rd ,-41.46594738,147.1444256,train,TA
358,4070,7250,143 Cambridge St ,-41.46068145,147.13048080000002,train,TA
359,2951,7248,13 Cupania St ,-41.380204,147.13351,train,TA
360,4116,7250,82 Stanley St ,-41.46726825,147.1298863,train,TA
361,14129:1,7212,Launceston Airport ,-41.542632,147.20253,train,TA
362,8983,7250,North Riverside Terminus ,-41.39901187,147.08605319999998,train,TA
363,3052,7249,Stop 9  No.60 Heather St,-41.455065999999995,147.136624,train,TA
364,3266,7250,Kmart ,-41.42803433,147.14796919999998,train,TA
365,3226,7250,Warring St near Bendigo St ,-41.41074695,147.16837859999998,train,TA
366,3517,7249,35 Talbot Rd ,-41.4511657,147.15386819999998,train,TA
367,4432:01:00,7249,62 Blamey Rd ,-41.459885,147.165931,train,TA
368,3557,7250,186 Punchbowl Rd ,-41.450133,147.16313799999998,train,TA
369,3706,7250,6 Pitcher Pde ,-41.47754383,147.105206,train,TA
370,4376,7250,National Automobile Museum ,-41.431671,147.142213,train,TA
371,3271,7250,26 Faraday St ,-41.42022487,147.180348,train,TA
372,3997,7250,opp.No.27 West Tamar Rd ,-41.43548785,147.124822,train,TA
373,2890,7248,Stop 4  York Park,-41.42623042,147.13732140000002,train,TA
374,3211,7248,Opposite 54 Vermont Rd ,-41.40621801,147.13902009999998,train,TA
375,2978,7248,No.15 Treherne St ,-41.38292279,147.130864,train,TA
376,2953,7248,No.20 Reservoir Rd ,-41.37636249,147.1336938,train,TA
377,3720,7250,3 Richard St ,-41.47594069,147.11803,train,TA
378,3072,7249,No.17 Delta Ave ,-41.48167824,147.17370259999998,train,TA
379,4378,7250,25 Hillside Cres ,-41.44854962,147.1334294,train,TA
380,3692,7250,53 Panorama Rd ,-41.45954208,147.0855486,train,TA
381,3027,7249,Stop 16  No.178 Hobart Rd,-41.47201454,147.162729,train,TA
382,14127:1,7212,75 Leighlands Rd ,-41.592928,147.218696,train,TA
383,3215,7248,223 Vermont Rd ,-41.41190505,147.1571596,train,TA
384,2930,7248,Stop 16  No.147 George Town Rd,-41.38263052,147.1285094,train,TA
385,3082,7249,No.26 Ernest St ,-41.47042693,147.15402230000004,train,TA
386,3527,7250,153 Punchbowl Rd ,-41.45298315,147.1640989,train,TA
387,3126,7250,Opposite 193 Opossum Rd ,-41.46851196,147.1774435,train,TA
388,3956,7290,101 South Esk Dr ,-41.49911833,147.0747392,train,TA
389,3723,7250,30 Las Vegas Dr ,-41.48062722,147.12181730000003,train,TA
390,3344,7250,opp.No.37 Trevallyn Rd ,-41.43531384,147.1225017,train,TA
391,3297,7250,No.71 Penrith Street ,-41.41475464,147.0943992,train,TA
392,3629,7249,41A Poplar Pde ,-41.48975601,147.1727591,train,TA
393,2971,7248,6 Holbrook St ,-41.42978936,147.1356668,train,TA
394,3113,7250,Penquite Rd near Queechy Rd ,-41.45208649,147.1720974,train,TA
395,3075,7249,No.88 Waroona St ,-41.481621000000004,147.170707,train,TA
396,3636,7250,195 Opossum Rd ,-41.46871106,147.17757749999998,train,TA
397,3356,7250,Hillside Cr / Canning St ,-41.44550229,147.1332951,train,TA
398,14105:1,7302,1018 Cressy Rd ,-41.667895,147.084015,train,TA
399,3229,7250,Ravenswood / Amundsen St ,-41.40801784,147.1659987,train,TA
400,3178,7250,65 Station Rd ,-41.46203919,147.1944629,train,TA
401,3575,7250,32 High St ,-41.4381505,147.147186,train,TA
402,3302,7250,No.5 Pomona Road ,-41.41960219,147.10570969999998,train,TA
403,2851,7248,Invermay Rd Stop 10 Out ,-41.40224564,147.13078169999997,train,TA
404,2916,7248,9 Holbrook St ,-41.42971112,147.13548889999998,train,TA
405,3615,7250,School train Stop (St Patrick's College) ,-41.4735766,147.12865219999998,train,TA
406,3721,7250,27 Richard St ,-41.47841026,147.1201055,train,TA
407,3964,7250,Stop 11 West Tamar Hwy ,-41.42370742,147.1120561,train,TA
408,3108,7250,19A Penquite Rd ,-41.44400942,147.1620687,train,TA
409,3304,7250,37 Pomona Rd ,-41.42214643,147.10371840000002,train,TA
410,3206,7250,Hoblers Bridge Rd near Killafaddy Rd ,-41.43597589,147.1732658,train,TA
411,3298,7250,No.89 Penrith Street ,-41.41374598,147.0953665,train,TA
412,4532,7250,Terminus near No.34 Kertch Rd ,-41.45823298,147.1997576,train,TA
413,14033:1,7249,Hobart Rd opp Blaydon St ,-41.467632,147.16040800000002,train,TA
414,3308,7250,20 Pitt Ave ,-41.43322166,147.1079389,train,TA
415,3242,7250,106 Lambert St ,-41.41827669,147.18341230000001,train,TA
416,2944,7248,No.64 Franmaree Rd ,-41.38294501,147.1179204,train,TA
417,14003:1,7302,Outside pool; Main St ,-41.682485,147.081161,train,TA
418,3035,7249,Stop 10  No.447 Wellington St,-41.45925513,147.1516358,train,TA
419,3115,7250,Stop 13  Penquite Road,-41.4542917,147.17617959999998,train,TA
420,3188,7250,Opposite 18 Tasman Hwy ,-41.43847231,147.17977209999998,train,TA
421,4078,7250,4 Fairway Cres ,-41.41357027,147.103017,train,TA
422,3684,7249,10 Mulgrave St ,-41.44747443,147.14500800000002,train,TA
423,3668,7250,Country Club Ave / Westbury Rd ,-41.48402168,147.1241381,train,TA
424,3066,7249,No.6 Blaydon St ,-41.46864884,147.1596791,train,TA
425,3019,7249,Poplar Pde / Hobart Rd ,-41.49074119,147.1687992,train,TA
426,3645,7249,65 Punchbowl Rd ,-41.45874263,147.1626016,train,TA
427,4423,7248,No.108 Franmaree Rd ,-41.382196,147.113971,train,TA
428,2861,7248,No.88 Hargrave Cres ,-41.389552,147.135146,train,TA
429,3492,7249,No.25 Waveney St ,-41.46125742,147.14817659999997,train,TA
430,2914,7248,Stop 15  No.156 George Town Rd,-41.38451211,147.128022,train,TA
431,12276:1,7250,Launceston Backpackers ,-41.444122,147.136721,train,TA
432,3136,7250,Opposite 143 Penquite Rd ,-41.45199615,147.17193909999997,train,TA
433,3522,7249,47 Punchbowl Rd ,-41.45924647,147.1607532,train,TA
434,3073,7249,50 Belgrave Pde ,-41.48345969,147.1736466,train,TA
435,14035:1,7250,Launceston General Hospital ,-41.445809000000004,147.14273799999998,train,TA
436,2892,7250,Stop 2  William St,-41.43269143,147.13821919999998,train,TA
437,3316,7250,109 New World Ave ,-41.43767368,147.10630700000002,train,TA
438,2893,7250,Opposite 40 Las Vegas Dr ,-41.48046207,147.12081799999999,train,TA
439,2854,7248,Stop 12  George Town Rd,-41.39527693,147.1267362,train,TA
440,3160,7250,Kertch Rd near St Leonards Rd ,-41.45635,147.199454,train,TA
441,2990,7249,Stop 10  No.443 Wellington St,-41.4591,147.151095,train,TA
442,14109:1,7301,674 Cressy Rd ,-41.636262,147.095944,train,TA
443,3992,7250,No.224 West Tamar Hwy ,-41.41941569,147.1082722,train,TA
444,3536,7250,110 Abbott St ,-41.44378329,147.1547812,train,TA
445,3105,7250,115A Elphin Rd ,-41.43710496,147.157569,train,TA
446,3258,7248,232 Vermont Rd ,-41.41230107,147.1578925,train,TA
447,2925,7248,Alanvale Rd / Tompsons Ln ,-41.38992851,147.1191903,train,TA
448,4103,7248,12 Beatty St ,-41.40315401,147.1338726,train,TA
449,3109,7250,Opposite 38 Penquite Rd ,-41.44676243,147.16411619999997,train,TA
450,3377,7250,Cambridge St / Brougham St ,-41.45547005,147.1232615,train,TA
451,3509,7248,No.119 Hargrave Cres ,-41.38781881,147.135502,train,TA
452,14133:1,7249,Hobart Rd past Blydon St ,-41.467648,147.16043200000001,train,TA
453,3239,7250,Prossers Forest Rd near  Sutton Crt ,-41.4166545,147.17812659999998,train,TA
454,3141,7250,22 Penquite Rd ,-41.44409086,147.1621163,train,TA
455,2920,7248,139 Holbrook St ,-41.42092813,147.1320554,train,TA
456,3029,7249,Stop 14  No.118 Hobart Rd,-41.46764782,147.16043190000002,train,TA
457,3026,7249,Stop 17  No.202 Hobart Rd,-41.47380583,147.1636649,train,TA
458,3343,7250,No.26 Gorge Rd (Trevallyn Shops) ,-41.43573138,147.11883480000003,train,TA
459,3059,7249,17 Chifley St ,-41.46611342,147.1523077,train,TA
460,2834,7248,Stop 5  Invermay Rd,-41.42228937,147.13588380000002,train,TA
461,3591,7250,143 Westbury Rd ,-41.46694696,147.1414332,train,TA
462,3181,7250,276 Penquite Rd ,-41.46054707,147.1822763,train,TA
463,3134,7250,16 Norwood Ave ,-41.45536687,147.1738327,train,TA
464,4255,7249,No.2 Waveney St (Ainsley House) ,-41.45913451,147.14774630000002,train,TA
465,2841,7248,Stop 9  Mowbray Shops,-41.40540988,147.13259130000003,train,TA
466,2880,7248,Stop 9  Mowbray Shops,-41.40606844,147.13295290000002,train,TA
467,3974,7250,West Tamar Rd/Orana Pl Out ,-41.40199898,147.0886735,train,TA
468,3329,7250,35 Gorge Rd ,-41.43664233,147.11670159999997,train,TA
469,14031:1,7249,Hobart Rd before Poplar Pde ,-41.489659,147.167949,train,TA
470,4036,7249,Youngtown Primary School ,-41.48194617,147.1647399,train,TA
471,3319,7250,36 Reatta Rd ,-41.4352116,147.1069661,train,TA
472,3481,7250,Opposite 75 Frederick St ,-41.44410522,147.1335322,train,TA
473,3664,7290,56 South Esk Dr ,-41.500161999999996,147.069059,train,TA
474,3483,7250,258 Brisbane St ,-41.44051470000001,147.1330004,train,TA
475,14113:1,7301,Marlborough St / High St ,-41.597840999999995,147.120995,train,TA
476,3681,7249,42 Meredith Cres ,-41.45440985,147.15095559999997,train,TA
477,3977,7250,No.51 Cormiston Rd ,-41.40062921,147.0818653,train,TA
478,2888,7248,Stop 5  Invermay Rd,-41.42233903,147.13590109999998,train,TA
479,3249,7250,62 Ravenswood Rd ,-41.4251125,147.17385330000002,train,TA
480,2979,7250,Stop C  St John Street,-41.43691411,147.1385095,train,TA
481,3184,7250,21 Hoblers Bridge Rd ,-41.44060972,147.1647017,train,TA
482,3262,7248,60 Vermont Rd ,-41.40640317,147.1397445,train,TA
483,3520,7249,Six Ways ,-41.45901726,147.1556228,train,TA
484,4114,7249,Kings Meadows High School ,-41.47286427,147.1594196,train,TA
485,3510,7248,No.139 Hargrave Cres ,-41.38963646,147.135045,train,TA
486,3572,7250,60-65 High St ,-41.44369073,147.148195,train,TA
487,14106:1,7302,974 Cressy Rd ,-41.664048,147.084766,train,TA
488,3573,7250,50 High St ,-41.44165514,147.1475484,train,TA
489,3165,7250,188 St Leonards Rd ,-41.450072999999996,147.1897397,train,TA
490,3490,7250,No.66 Connaught Cr ,-41.45020044,147.1313759,train,TA
491,14011:1,7301,Marlborough St / Bulwer St ,-41.606215,147.118334,train,TA
492,3153,7250,Stop 18  231 Penquite Rd,-41.45732733,147.1793305,train,TA
493,3616,7250,No.268 Westbury Rd ,-41.47289766,147.1303718,train,TA
494,3646,7250,Pomona Rd / Pitt Ave ,-41.42531719,147.1022071,train,TA
495,3641,7249,158 Poplar Pde ,-41.4820417,147.17935830000002,train,TA
496,14029:1,7212,Launceston Airport ,-41.540332,147.200242,train,TA
497,3703,7250,24 Blackstone Rd ,-41.46926566,147.084656,train,TA
498,3147,7250,Elphine Rd near Lyttleton St ,-41.43218566,147.1498202,train,TA
499,3001,7249,295 Hobart Rd ,-41.479845000000005,147.166809,train,TA
500,3990,7250,No.280 West Tamar Hwy ,-41.41568631,147.1030855,train,TA
501,3650,7249,No.3 Heather Street ,-41.45637719,147.1416279,train,TA
502,3170,7250,179 St Leonards Rd ,-41.4493032,147.1887361,train,TA
503,2875,7248,UTAS Maritime College ,-41.39961081,147.1199861,train,TA
504,3713,7250,38 Willow Ln ,-41.474283,147.12201000000002,train,TA
505,3640,7249,184 Poplar Pde ,-41.47960954,147.182431,train,TA
506,2952,7248,6 Tulipwood Cres ,-41.37914238,147.1348925,train,TA
507,3022,7249,Opposite 357 Hobart Rd ,-41.48467352,147.1676262,train,TA
508,3666,7250,76 Country Club Ave ,-41.48158603,147.1165552,train,TA
509,3971,7250,Stop 19  No.381 West Tamar Rd,-41.40820449,147.0948653,train,TA
510,14025:1,7300,Midland Hwy / Devon Hills Rd ,-41.547912,147.170448,train,TA
511,14228:1,7212,Evandale ,-41.570386,147.249435,train,TA
512,3076,7249,No.48 Waroona St ,-41.47977967,147.1690666,train,TA
513,14251:1,7250,St Anthonys ,-41.40687696,147.0951441,train,TA
514,3087,7249,No.4 Chifley St ,-41.464799,147.15106200000002,train,TA
515,2994,7249,Stop 13  No.111 Hobart Rd,-41.46545561,147.1592306,train,TA
516,3550,7250,73 Abbott St ,-41.44134026,147.1529229,train,TA
517,3051,7249,No.53 Thistle St ,-41.45401527,147.1371269,train,TA
518,4105,7250,Riverside High School ,-41.409526,147.097877,train,TA
519,3376,7250,92 Cambridge St ,-41.4575118,147.1260655,train,TA
520,2929,7248,Tompsons Ln / George Town Rd ,-41.38445897,147.1276464,train,TA
521,4327,7250,19 Holyman Dr ,-41.47382643,147.1156918,train,TA
522,3276,7250,5 Pitt Ave ,-41.43487966,147.10962769999998,train,TA
523,14172:1,7306,Claude Road ,-41.469567,146.216115,train,TA
524,3017,7249,46 Poplar Pde ,-41.48978579999999,147.17329919999997,train,TA
525,3680,7249,60 Meredith Cres ,-41.45683166,147.15092669999999,train,TA
526,3090,7249,No.71 Heather St ,-41.45472723,147.1363483,train,TA
527,3045,7248,No.36 Mayfield St ,-41.39027768,147.1295628,train,TA
528,3662,7249,Westbury Rd near Wellington St ,-41.45514204,147.14520919999998,train,TA
529,4287,7249,30 Blamey Rd ,-41.46127526,147.16374009999998,train,TA
530,3310,7250,Opposite 4 Bald Hill Rd ,-41.436285,147.116596,train,TA
531,3194,7250,Opposite 15 Naroo St ,-41.43289765,147.1889866,train,TA
532,3119,7250,No.103 Norwood Ave (Primary School) ,-41.4628158,147.1731064,train,TA
533,14034:1,7249,Wellington St / Cridge St ,-41.455139,147.145593,train,TA
534,3293,7250,No.11 Riverside Drive ,-41.41829867,147.10425419999999,train,TA
535,2912,7248,Stop 12  No.48 George Town Rd,-41.39505167,147.12661609999998,train,TA
536,3578,7250,opp.No.194 Charles St ,-41.44153465,147.140268,train,TA
537,14119:1,7300,3 Drummond Cr ,-41.576019,147.168875,train,TA
538,3333,7250,Opposite 21 Fairthorne Rd ,-41.43885017,147.116613,train,TA
539,3156,7250,107 Johnston Rd ,-41.46457995,147.18575180000002,train,TA
540,3281,7250,School Stop Only - No.57 Cherry Rd ,-41.43084444,147.1107812,train,TA
541,3984,7250,No.448 West Tamar Rd ,-41.40272996,147.0893864,train,TA
542,8436,7290,HADSPEN/RUTHERGLEN RD ,-41.51633855,147.0605066,train,TA
543,14201:1,7302,Church St ,-41.687203000000004,147.079525,train,TA
544,3315,7250,71 New World Ave ,-41.43842683,147.1089676,train,TA
545,3466,7250,87 Hardwicke St ,-41.46816075,147.1202385,train,TA
546,3101,7250,53 Elphin Rd ,-41.43260284,147.150657,train,TA
547,2857,7248,No.17 Mayfield St ,-41.3905354,147.1290871,train,TA
548,3551,7250,115 Abbott St ,-41.443843,147.154873,train,TA
549,3699,7250,84 Blackstone Rd ,-41.46134479,147.0746606,train,TA
550,14124:1,7300,Arthur St ,-41.566693,147.168218,train,TA
551,3067,7249,No.11 Woolven St ,-41.47601016,147.16690480000003,train,TA
552,2866,7248,Stop 15  No.117 George Town Rd,-41.38478507,147.1279619,train,TA
553,3532,7250,156 Abbott St ,-41.44870144,147.1585579,train,TA
554,3060,7249,No.47 Riseley St ,-41.46801921,147.15305949999998,train,TA
555,3144,7250,110 Elphin Rd ,-41.43721684,147.15763059999998,train,TA
556,3273,7250,Lambert St / Faraday St ,-41.41865861,147.179316,train,TA
557,3307,7250,32 Pitt Ave ,-41.4310757,147.1057704,train,TA
558,3362,7250,7 Ashleigh Ave ,-41.4590579,147.13377490000002,train,TA
559,3962,7250,Stop 9  No.51 Forest Rd,-41.4286849,147.1169042,train,TA
560,3203,7250,Tasman Hwy near Anson St ,-41.43689234,147.1822096,train,TA
561,3070,7249,Clarendon St ,-41.479307,147.169533,train,TA
562,3471,7250,126 Peel St West ,-41.46464492,147.1350178,train,TA
563,3245,7250,42 Lambert St ,-41.41910752,147.175136,train,TA
564,3056,7249,Lithgow St near Normanstone Rd ,-41.46079637,147.15143909999998,train,TA
565,2878,7248,Stop 10  Invermay Rd,-41.40244542,147.13089580000002,train,TA
566,2959,7248,No.25 Tompsons Ln ,-41.38602514,147.1246952,train,TA
567,14132:1,7249,Hobart Rd before Dunnivan St ,-41.484674,147.167626,train,TA
568,3360,7250,Stop 10  13 Granville St,-41.452236,147.130282,train,TA
569,3972,7250,Stop 20  No.407 West Tamar Rd,-41.40587577,147.0919721,train,TA
570,3179,7250,opp.No.107 Johnston Rd ,-41.46456923,147.1858561,train,TA
571,3498,7248,No.26 Treherne St ,-41.382812,147.130893,train,TA
572,3336,7250,13 Anderson Rd ,-41.437406,147.1180911,train,TA
573,2988,7249,Stop 8  No.391 Wellington St,-41.456540000000004,147.1469365,train,TA
574,3643,7249,96 Poplar Pde ,-41.48737078,147.1778228,train,TA
575,3627,7249,Poplar Pde / Hobart Rd ,-41.49075549,147.1686542,train,TA
576,4115,7250,55 Bourke St ,-41.44329172,147.132205,train,TA
577,3264,7250,69 Stanley St ,-41.466301,147.128289,train,TA
578,3598,7250,51 Mace St ,-41.48261091,147.13098469999997,train,TA
579,3659,7250,No.355 Westbury Rd ,-41.48323461,147.12575669999998,train,TA
580,3617,7250,No.220 Westbury Rd ,-41.47047972,147.1349839,train,TA
581,3565,7249,No.126 Talbot Rd ,-41.45909373,147.15563669999997,train,TA
582,2938,7248,8 Sassafras Cres ,-41.3740033,147.1367321,train,TA
583,3507,7250,57 High St ,-41.4405505,147.1473695,train,TA
584,2993,7249,Stop 12  No.71 Hobart Rd,-41.46287642,147.1572776,train,TA
585,3083,7249,No.51 Bond St ,-41.46926425,147.152481,train,TA
586,14022:1,7300,Clarence St / Frederick ,-41.574764,147.176423,train,TA
587,3131,7250,118 Norwood Ave ,-41.46281586,147.1731065,train,TA
588,3038,7249,274 Wellington St ,-41.45523086,147.1456826,train,TA
589,4390,7249,38 Quarantine Rd ,-41.47311073,147.16889540000003,train,TA
590,3024,7249,Stop 19  No.294 Hobart Rd,-41.47969957,147.1667004,train,TA
591,4284,7249,1 Morshead Rd ,-41.45830703,147.164343,train,TA
592,3269,7250,Cimitiere St / City Park ,-41.43224364,147.1416707,train,TA
593,4101,7248,Mayfield Primary School ,-41.3865745,147.1303968,train,TA
594,8728,7250,Panorama Rd past Neptune Dr Out ,-41.46954752,147.0888965,train,TA
595,3218,7250,23 Wildor Cres ,-41.41568106,147.1623136,train,TA
596,3605,7250,Opposite 74 Country Club Ave ,-41.48186344,147.1169431,train,TA
597,2939,7248,opp.No.62 Lilydale Rd ,-41.37496011,147.13315980000002,train,TA
598,3031,7249,68 Hobart Rd ,-41.463415999999995,147.1577655,train,TA
599,3618,7250,176 Westbury Rd ,-41.46862632,147.1389336,train,TA
600,3678,7249,Opposite 41 Normanstone Rd ,-41.46130435,147.1513044,train,TA
601,3701,7250,50 Blackstone Rd ,-41.4657018,147.0801299,train,TA
602,3503,7250,19 Trethewie St ,-41.42180286,147.1764389,train,TA
603,4404,7250,226 Opossum Road ,-41.4710211,147.1794848,train,TA
604,3667,7250,52 Country Club Ave ,-41.482763899999995,147.11924130000003,train,TA
605,3357,7250,Opposite 8 Brougham St ,-41.44902136,147.1321344,train,TA
606,4291,7250,Stop 23  No.6 Kigoma St,-41.43683589,147.1926782,train,TA
607,3484,7250,144 Brisbane St ,-41.43841397,147.1368988,train,TA
608,3606,7250,Country Club Ave near Casino Rise ,-41.48169391,147.111048,train,TA
609,3531,7250,178 Abbott St ,-41.45048193,147.159905,train,TA
610,2918,7248,99 Holbrook St ,-41.42441659,147.1337358,train,TA
611,3730,7250,No.9 Glover Ave ,-41.46640503,147.0905855,train,TA
612,3012,7249,125 Poplar Pde ,-41.48415923,147.1784679,train,TA
613,3986,7250,394 West Tamar Rd ,-41.40683152,147.09323840000002,train,TA
614,3330,7250,71 Gorge Rd ,-41.43791882,147.1129104,train,TA
615,3151,7250,No.2 Hogarth St ,-41.43486214,147.1883102,train,TA
616,4104,7250,Launceston Christian School ,-41.402235,147.089378,train,TA
617,3030,7249,86 Hobart Rd ,-41.46535155,147.15917190000002,train,TA
618,4389,7249,Opposite 62 Quarantine Rd ,-41.47196105,147.1714868,train,TA
619,3055,7249,Glen Dhu St (Door of Hope Church) ,-41.45603,147.141873,train,TA
620,14200:1,7250,Cornwall Square ,-41.435238,147.13591,train,TA
621,3111,7250,85 Penquite Rd ,-41.44909062,147.1679458,train,TA
622,3028,7249,Stop 15  No.150 Hobart Rd,-41.46979014,147.16153169999998,train,TA
623,3279,7250,School Stop Only - Glencoe Ave Park ,-41.42922418,147.11002030000003,train,TA
624,14134:1,7249,Wellington St / Westbury Rd ,-41.455231,147.14568300000002,train,TA
625,3728,7250,Blackstone Heights ,-41.46954752,147.0888965,train,TA
626,3244,7250,Opposite 53 Lambert St ,-41.4182713,147.17858619999998,train,TA
627,3537,7250,East Launceston Primary School ,-41.44130853,147.15287519999998,train,TA
628,3155,7250,Stop 20  305 Penquite Rd,-41.46403045,147.18410169999999,train,TA
629,4427,7250,City Stop D ,-41.43610938,147.13787290000002,train,TA
630,3957,7290,151 South Esk Dr ,-41.501455,147.07193,train,TA
631,3286,7250,140 Pomona Rd North ,-41.42880327,147.10094650000002,train,TA
632,3593,7250,opp.No.18 Westbury Rd ,-41.47051479,147.13468909999997,train,TA
633,3213,7248,Opposite 122 Vermont Rd ,-41.40804302,147.14614790000002,train,TA
634,3176,7250,St Leonards Primary School ,-41.45896863,147.1999821,train,TA
635,3167,7250,79 St Leonards Rd ,-41.44191951,147.18093249999998,train,TA
636,3642,7249,138 Poplar Pde ,-41.48423878,147.17849719999998,train,TA
637,4065,7249,No.30 Blaydon St ,-41.47012104,147.1567254,train,TA
638,14226:1,7300,Fire Station  Midland Hwy,-41.577696,147.17584499999998,train,TA
639,2911,7248,Stop 13  No.78 George Town Rd,-41.39182249,147.1258637,train,TA
640,3309,7250,2 Pitt Ave ,-41.43495991,147.10969740000002,train,TA
641,3288,7250,100 Pomona Rd ,-41.42608852,147.1007785,train,TA
642,14027:1,7212,Opp 75 Leighlands Rd ,-41.593016,147.218878,train,TA
643,3634,7250,Stop 1  St John St,-41.43409386,147.1363469,train,TA
644,3696,7250,22 Bay View Dr ,-41.45339352,147.07461930000002,train,TA
645,3465,7250,63 Hardwicke St ,-41.46690466,147.1182675,train,TA
646,3036,7249,Stop 9  No.332 Wellington St,-41.45822592,147.1488246,train,TA
647,3034,7249,2-6 Hobart Rd ,-41.45878068,147.1537313,train,TA
648,3275,7250,79 York St ,-41.43872291,147.139461,train,TA
649,3621,7249,86 Normanstone Rd ,-41.46451116,147.1471862,train,TA
650,2985,7250,251 Wellington St ,-41.44884142,147.14011169999998,train,TA
651,3331,7250,Fulford Rd near Gorge Rd ,-41.43848402,147.1125288,train,TA
652,3732,7290,69 South Esk Dr ,-41.499311999999996,147.0714275,train,TA
653,3023,7249,326 Hobart Rd ,-41.48200431,147.1674643,train,TA
654,3373,7250,8 Lavender Gr ,-41.46464483,147.12237439999998,train,TA
655,2824,7250,Stop 1  St John St,-41.43403701,147.13630690000002,train,TA
656,3966,7250,Stop 13  No.221 West Tamar Rd,-41.41883225,147.1073525,train,TA
657,2958,7248,Tompsons Ln / George Town Rd ,-41.38467815,147.12725849999998,train,TA
658,2964,7248,No.48 Alanvale Rd (near TAFE) ,-41.39302269,147.12265219999998,train,TA
659,3345,7250,No.18A Trevallyn Rd ,-41.43720597,147.1244164,train,TA
660,3708,7250,1 Las Vegas Dr ,-41.48301079,147.1231125,train,TA
661,3261,7248,96 Vermont Rd ,-41.4072807,147.1432475,train,TA
662,14118:1,7300,Drummond Cr ,-41.576552,147.16661100000002,train,TA
663,3476,7250,** Stop Deleted Apr 2016 ,-41.45259565,147.1305389,train,TA
664,2887,7248,Stop 6  Invermay Rd,-41.41791658,147.1343831,train,TA
665,3340,7250,Opposite 55 Gorge Rd ,-41.43736248,147.1144014,train,TA
666,3725,7250,No.9 Casino Rise ,-41.480154799999994,147.1095602,train,TA
667,2927,7248,No.46 Tompsons Ln ,-41.38668428,147.123448,train,TA
668,14024:1,7300,Arthur St / Cootamundra Dr ,-41.566755,147.169126,train,TA
669,3172,7250,229 St Leonards Rd ,-41.4529957,147.1952212,train,TA
670,3538,7250,54 Abbott St ,-41.43922651,147.1517895,train,TA
671,3212,7248,Opposite 86 Vermont Rd ,-41.40704756,147.1423382,train,TA
672,3192,7250,19 Dalkieth St ,-41.43238178,147.1857654,train,TA
673,3098,7250,12 Hogarth St ,-41.43641523,147.1893949,train,TA
674,3677,7290,48 Main St ,-41.50651174,147.062305,train,TA
675,3348,7250,Paterson St (Layover) ,-41.43699918,147.13688380000002,train,TA
676,2956,7248,Stop 17  No.218 George Town Rd,-41.37944042,147.1273669,train,TA
677,3370,7250,86 Hardwicke St ,-41.46813623,147.12016440000002,train,TA
678,3021,7249,Opposite 393 Hobart Rd ,-41.48648727,147.16772609999998,train,TA
679,4292,7248,Inveresk Rail Yards ,-41.428854,147.139904,train,TA
680,3715,7250,258 Peel St West ,-41.47058727,147.1212399,train,TA
681,3118,7250,No.87 Norwood Ave ,-41.46036622,147.1721209,train,TA
682,3658,7250,28 Chris St ,-41.48455547,147.127726,train,TA
683,2949,7248,No.31 Blackwood Dr ,-41.37753768,147.1364032,train,TA
684,14122:1,7300,Clarence St before Elizabeth St ,-41.573386,147.176128,train,TA
685,3960,7250,Stop 7  No.39 West Tamar Hwy,-41.43423881,147.12326769999999,train,TA
686,3180,7250,304 Penquite Rd ,-41.46405137,147.1840855,train,TA
687,3712,7250,58 Mt Leslie Rd ,-41.47499255,147.12007319999998,train,TA
688,3259,7248,158 Vermont Rd ,-41.40937811,147.1509189,train,TA
689,3162,7250,268 St Leonards Rd ,-41.45413904,147.1975867,train,TA
690,2935,7248,27 Reservoir Rd ,-41.37905716,147.1356215,train,TA
691,3693,7250,Opposite 76 Panorama Rd ,-41.45725743,147.08413480000002,train,TA
692,3543,7250,Opposite 119 Tasman Hwy ,-41.43449626,147.18853000000001,train,TA
693,4402,7250,Stop 2  Brisbane St,-41.43326846,147.1439253,train,TA
694,14116:1,7301,22 Wellington St ,-41.589012,147.12009,train,TA
695,3291,7250,30 Pomona Rd ,-41.42097425,147.1041252,train,TA
696,3539,7250,26 Abbott St ,-41.43724386,147.15124699999998,train,TA
697,3195,7250,No.5 Regent St ,-41.43533599,147.1909781,train,TA
698,3228,7250,Opposite 100 Warring St ,-41.408381799999994,147.1649094,train,TA
699,3518,7249,71 Talbot Rd ,-41.45382670000001,147.15449030000002,train,TA
700,3570,7250,Opposite 165 High St ,-41.4479947,147.1520226,train,TA
701,3210,7248,9 Vermont Rd ,-41.40659559,147.1343916,train,TA
702,4075,7250,26 Farmer St ,-41.41088870000001,147.1038811,train,TA
703,3669,7290,28 South Esk Dr ,-41.50149729,147.0664865,train,TA
704,3306,7250,42 Pitt Ave ,-41.42761384,147.1036085,train,TA
705,3604,7250,47 Country Club Ave ,-41.48280353,147.11972319999998,train,TA
706,14274:1,7310,Devonport Visitor Centre ,-41.179457,146.363127,train,TA
707,14115:1,7301,Wellington St / Smith St ,-41.591049,147.120935,train,TA
708,3506,7250,9 St Leonards Rd ,-41.43849062,147.1778928,train,TA
709,14014:1,7301,Village Green; Wellington St Out ,-41.593249,147.12183000000002,train,TA
710,14136:1,7250,Brisbane St near Kingsway ,-41.438414,147.136899,train,TA
711,3553,7250,139 Abbott St ,-41.44678344,147.1571159,train,TA
712,3571,7250,High St / David St ,-41.44622734,147.1510596,train,TA
713,3513,7250,Opposite 70 High St ,-41.44387554,147.14840680000003,train,TA
714,3602,7250,2 Burrows St ,-41.483156,147.12663600000002,train,TA
715,3135,7250,Norwood Ave / Penquite Rd ,-41.45412807,147.1759613,train,TA
716,14255:1,7250,Launceston College ,-41.440191999999996,147.133604,train,TA
717,3542,7250,Opposite 50 York St ,-41.43528623,147.144159,train,TA
718,3168,7250,Opposite 39 St Leonards Rd ,-41.4384258,147.1778057,train,TA
719,3967,7250,Stop 14  No.247 West Tamar Rd,-41.417163,147.104846,train,TA
720,3585,7249,79 Meredith Cres ,-41.45691306,147.15100880000003,train,TA
721,3980,7250,No.137 Cormiston Rd ,-41.40787705,147.0833746,train,TA
722,2876,7248,UTAS Leprena ,-41.40057467,147.1256196,train,TA
723,3314,7250,25 New World Ave ,-41.43625074,147.10758700000002,train,TA
724,3590,7249,125 Westbury Rd ,-41.46626929,147.1437852,train,TA
725,3365,7250,131 Peel St West ,-41.46464364,147.13503730000002,train,TA
726,2847,7248,University of Tasmania ,-41.40101772,147.122031,train,TA
727,3300,7250,No.60 Riverside Drive ,-41.41512482,147.1001568,train,TA
728,3469,7250,Peel St West / Stanley St ,-41.4666662,147.13028459999998,train,TA
729,4424,7248,No. 85 Franmaree Rd ,-41.382263,147.113878,train,TA
730,2966,7248,5 Mayne St ,-41.41960737,147.1343742,train,TA
731,3224,7250,Warring St near Rosny St ,-41.41511285,147.17259380000002,train,TA
732,3485,7250,113 Cambridge St ,-41.45880506,147.1277813,train,TA
733,3711,7250,2 Richard St ,-41.47576647,147.1179775,train,TA
734,3652,7249,11 Westbury Rd ,-41.45637465,147.14523630000002,train,TA
735,3714,7250,10 Willow Ln ,-41.47183008,147.1208797,train,TA
736,3305,7250,62 Pitt Ave ,-41.42561924,147.10237780000003,train,TA
737,14220:1,7300,Midland Hwy ,-41.577744,147.175745,train,TA
738,3088,7249,No.8 Ainslie Gr ,-41.46278455,147.1518499,train,TA
739,3285,7250,13 Rankine St ,-41.42841902,147.10240080000003,train,TA
740,3519,7249,105 Talbot Rd ,-41.45626138,147.15503930000003,train,TA
741,3722,7250,52 Las Vegas Dr ,-41.48012764,147.1192083,train,TA
742,3568,7249,No.26 Talbot Rd ,-41.45126063,147.1538146,train,TA
743,3583,7249,69 Mulgrave St ,-41.45176022,147.1487733,train,TA
744,3961,7250,Stop 8  No.21 Forest Rd,-41.43144591,147.1190647,train,TA
745,3120,7250,No.31 Boiton Hill Rd ,-41.46221301,147.1773156,train,TA
746,3145,7250,88A Elphin Rd ,-41.435359000000005,147.1556559,train,TA
747,3549,7250,43 Abbott St ,-41.43925847,147.1518038,train,TA
748,2975,7248,6 Bronzewing Ave ,-41.384475,147.114336,train,TA
749,14110:1,7301,477 Cressy Rd ,-41.625388,147.10386200000002,train,TA
750,3139,7250,64 Penquite Rd ,-41.44776988,147.1657685,train,TA
751,3994,7250,opp.No.113 West Tamar Hwy ,-41.42737376,147.11802319999998,train,TA
752,3687,7290,36 Main St ,-41.50526199,147.0645675,train,TA
753,4099,7248,Brooks High School ,-41.37807647,147.1207751,train,TA
754,3626,7249,419 Hobart Rd ,-41.48965895,147.167949,train,TA
755,14021:1,7300,Scone St ,-41.575225,147.173344,train,TA
756,3608,7250,opp.No.18 Connaught Cr ,-41.45148606,147.1370218,train,TA
757,3138,7250,80-86 Penquite Rd ,-41.44910928,147.1679671,train,TA
758,2839,7248,Stop 8  Invermay Rd,-41.41052118,147.1323145,train,TA
759,3690,7250,No.22 Glover Ave ,-41.46476417,147.0883016,train,TA
760,3479,7250,Opposite 1 Brougham St ,-41.44859945,147.1327441,train,TA
761,3504,7250,19 High St ,-41.43471304,147.1473657,train,TA
762,2937,7248,28 Sassafras Cres ,-41.37583499,147.1366753,train,TA
763,3482,7250,Margaret St near York St ,-41.44217638,147.1339377,train,TA
764,3632,7249,Poplar Pde near Leichardt Gr ,-41.47820015,147.1827277,train,TA
765,2868,7250,26 Stanley St ,-41.46425574,147.1243771,train,TA
766,3133,7250,48 Norwood Ave ,-41.45758503,147.17371930000002,train,TA
767,3637,7250,225 Opossum Rd ,-41.47113579999999,147.1795957,train,TA
768,2957,7248,Stopp 16  No.168 George Town Rd,-41.38272593,147.12849530000003,train,TA
769,3062,7249,No.54 Bond St ,-41.46919313,147.1526131,train,TA
770,3628,7249,19 Poplar Pde ,-41.49014866,147.1703561,train,TA
771,3219,7250,63 Wildor Cres ,-41.41843087,147.1648293,train,TA
772,4071,7250,20 Las Vegas Dr ,-41.48129752,147.12275669999997,train,TA
773,2995,7249,139 Hobart Rd ,-41.46763192,147.1604084,train,TA
774,3625,7249,375 Hobart Rd ,-41.48660681,147.1677226,train,TA
775,4288,7249,8 Blamey Rd ,-41.459332,147.16264040000002,train,TA
776,3116,7250,7 Norwood Ave ,-41.45482,147.175223,train,TA
777,3074,7249,20 Belgrave Pde ,-41.48306801,147.1717047,train,TA
778,3472,7250,180 Cambridge St ,-41.46285113,147.1335466,train,TA
779,4374,7250,Paterson St near Cenotaph ,-41.43872838,147.13372959999998,train,TA
780,3514,7250,High St / David St ,-41.44663966,147.1513959,train,TA
781,3290,7250,46 Pomona Rd ,-41.42227126,147.1037225,train,TA
782,3121,7250,54 Charlton St ,-41.46386769,147.177967,train,TA
783,14131:1,7249,Hobart Rd past Poplar Pde ,-41.489847999999995,147.167976,train,TA
784,3058,7249,No.1 Chifley St ,-41.46470988,147.15098740000002,train,TA
785,2907,7248,No.62 Hargrave Cres ,-41.387766,147.13541899999998,train,TA
786,3320,7250,4 Reatta Rd ,-41.43558333,147.1100996,train,TA
787,3366,7250,155 Peel St West ,-41.46576851,147.1323623,train,TA
788,3674,7290,39 Bartley St ,-41.51105252,147.06524419999997,train,TA
789,2992,7249,Stop 11  No.25 Hobart Rd,-41.45941159,147.155056,train,TA
790,3995,7250,opp.No.85 West Tamar Rd ,-41.42957612,147.11991640000002,train,TA
791,4077,7250,36 Fairway Cres ,-41.41268993,147.1055918,train,TA
792,3682,7249,66 Mulgrave St ,-41.45169163,147.1486582,train,TA
793,3457,7250,87 Cambridge St ,-41.45720429,147.1256469,train,TA
794,4422,7248,No.211 Alanvale Rd ,-41.383415,147.111008,train,TA
795,3232,7250,68 Warring St ,-41.411442,147.16911000000002,train,TA
796,2970,7248,Opposite 63 Holbrook St ,-41.427133700000006,147.1347274,train,TA
797,3354,7250,Opposite 150 York St ,-41.43937029,147.1382607,train,TA
798,3552,7250,123 Abbott St ,-41.445436,147.156095,train,TA
799,4440,7250,CITY TERMINUS E-F-H ,-41.43872291,147.139461,train,TA
800,3374,7250,68 Outram St ,-41.461803,147.125251,train,TA
801,3495,7250,No.10 Connaught Cr ,-41.45111513,147.1377634,train,TA
802,8704,7250,BLACKSTONE RD IN ,-41.47016384,147.0883232,train,TA
803,3584,7249,45 Meredith Cres ,-41.45471565,147.15110090000002,train,TA
804,3146,7250,74 Elphin Rd ,-41.43380164,147.1528602,train,TA
805,3296,7250,No.49 Penrith Street ,-41.41577324,147.0963007,train,TA
806,3369,7250,110 Hardwicke St ,-41.46950538,147.1221869,train,TA
807,2864,7248,Hargrave Cr / Gregory St ,-41.38579896,147.13300139999998,train,TA
808,3521,7249,7 Punchbowl Rd ,-41.45972686,147.1569583,train,TA
809,4111,7250,Queechy High School ,-41.45196532,147.17604730000002,train,TA
810,3284,7250,Pitt Ave near Rankine St ,-41.42767361,147.1036478,train,TA
811,3132,7250,Opposite 77 Norwood Ave ,-41.45926119,147.1720644,train,TA
812,3718,7250,37 Willow Ln ,-41.4736755,147.1215604,train,TA
813,3541,7250,Opposite 6 York St ,-41.43368728,147.1466701,train,TA
814,4387,7250,145 Quarantine Rd ,-41.46861757,147.17966380000001,train,TA
815,3613,7250,Westbury Rd (Marketplace) ,-41.480267299999994,147.1264919,train,TA
816,3695,7250,Opposite 122 Panorama Rd ,-41.45216938,147.0772134,train,TA
817,3299,7250,No.109 Penrith Street ,-41.41395467,147.09820219999997,train,TA
818,3546,7250,Stop 4  6 York St,-41.43362201,147.1466993,train,TA
819,3672,7290,51 Main St ,-41.50632295,147.0625823,train,TA
820,3610,7250,No.63 Connaught Cr ,-41.45014759,147.1312694,train,TA
821,14102:1,7302,Main St / Saundridge Rd ,-41.689175,147.079557,train,TA
822,4425,7248,No. 180 Alanvale Rd ,-41.38371868,147.11149790000002,train,TA
823,3025,7249,Stop 18  No.244 Hobart Rd,-41.476949700000006,147.1653073,train,TA
824,2962,7248,Alanvale Rd / Tompsons Ln ,-41.38978922,147.1190373,train,TA
825,3255,7250,Opposite 59 Wildor Cres ,-41.41813889,147.1645913,train,TA
826,14125:1,7300,Opposite Devon Hills Rd ,-41.548401,147.16992199999999,train,TA
827,3193,7250,2 Bunbury St ,-41.43196795,147.18782209999998,train,TA
828,4382,7250,East Launceston Primary School ,-41.44186127,147.1528476,train,TA
829,3727,7250,23 Pitcher Pde ,-41.47600644,147.1026249,train,TA
830,3623,7249,opp.No.59 Normanstone Rd ,-41.46255335,147.15026980000002,train,TA
831,3577,7248,No.7 Waratah Rd ,-41.3735096,147.1372525,train,TA
832,3163,7250,Stop Closed ,-41.45234654,147.1935744,train,TA
833,3221,7250,Lambert St / Ravenswood Rd ,-41.42068909,147.1700646,train,TA
834,14075:1,7304,Sulllvans  17 West Pde,-41.523888299999996,146.65784299999999,train,TA
835,3635,7250,Stop A  St John Street,-41.43661516,147.1382767,train,TA
836,3564,7249,opposite 7 Punchbowl Rd ,-41.45983869,147.156821,train,TA
837,3140,7250,36 Penquite Rd ,-41.44580379,147.1628107,train,TA
838,3295,7250,No.9 Penrith Street ,-41.417615000000005,147.1004,train,TA
839,3660,7249,64 Westbury Rd ,-41.46150926,147.1461439,train,TA
840,4113,7250,Newstead College ,-41.43213077,147.1571586,train,TA
841,2931,7248,Stop 17  No.189 George Town Rd,-41.379096000000004,147.12701299999998,train,TA
