id,school_name,school_address,suburb,postcode,sector,school_type,school_lat,school_lon
1001,Abbotsford Public School,350 Great North Rd,Abbotsford ,2046,Goverment,Primary School,-33.852728000000006,151.131206
1002,Aberdeen Public School,Segenhoe St,Aberdeen,2336,Goverment,Primary School,-32.166098,150.888095
1003,Abermain Public School,Goulburn St,Abermain ,2326,Goverment,Primary School,-32.80892,151.426499
1007,Adaminaby Public School,9 Cosgrove Street,Adaminaby,2629,Goverment,Primary School,-35.993292,148.776721
1008,Adamstown Public School,Bryant St,Adamstown ,2289,Goverment,Primary School,-32.932213,151.73097099999998
1009,Adelong Public School,Gilmore St,Adelong ,2729,Goverment,Primary School,-35.312333,148.062802
1015,Albion Park Public School,Tongarra & Hamilton Rds,Albion Park ,2527,Goverment,Primary School,-34.570257,150.77262
1016,Timbumburi Public School,542 Kia Ora Lane,Timbumburi ,2340,Goverment,Primary School,-31.203781,150.915629
1017,Albury Public School,481 David St,Albury ,2640,Goverment,Primary School,-36.082454,146.919253
1019,Albury West Public School,Mott St,Albury ,2640,Goverment,Primary School,-36.07783,146.895548
1028,Alma Public School,Comstock St,Broken Hill ,2880,Goverment,Primary School,-31.982217,141.462443
1030,Alstonville Public School,Main St,Alstonville ,2477,Goverment,Primary School,-28.838471000000002,153.438172
1040,Anna Bay Public School,191 Gan Gan Rd,Anna Bay ,2316,Goverment,Primary School,-32.77637,152.089912
1041,Annandale Public School,25 Johnston St,Annandale ,2038,Goverment,Primary School,-33.885782,151.169599
1042,Annandale North Public School,206 Johnston St,Annandale ,2038,Goverment,Primary School,-33.877905,151.17183500000002
1045,Appin Public School,97 Appin Road,Appin,2560,Goverment,Primary School,-34.198417,150.78766000000002
1048,Arcadia Public School,140 Arcadia Road,Arcadia,2159,Goverment,Primary School,-33.623487,151.051031
1051,Ardlethan Central School,Mithul St,Ardlethan ,2665,Goverment,Central/Community School,-34.354098,146.90055700000002
1055,Ariah Park Central School,Reid St,Ariah Park ,2665,Goverment,Central/Community School,-34.346925,147.218018
1057,Armidale City Public School,Faulkner St,Armidale ,2350,Goverment,Primary School,-30.519501,151.66405600000002
1058,Drummond Memorial Public School,250 Rusden Street,Armidale,2350,Goverment,Primary School,-30.511469,151.650715
1061,Artarmon Public School,McMillan Rd,Artarmon ,2064,Goverment,Primary School,-33.811249,151.186001
1064,Ashbury Public School,Trevenar St,Ashbury,2193,Goverment,Primary School,-33.898833,151.11944
1065,Ashfield Public School,Liverpool Rd,Ashfield ,2131,Goverment,Primary School,-33.889723,151.12821
1066,Ashford Central School,Albury St,Ashford ,2361,Goverment,Central/Community School,-29.321262,151.09463799999997
1070,Asquith Public School,Dudley St,Asquith,2077,Goverment,Primary School,-33.685728999999995,151.112177
1071,Attunga Public School,Railway St,Attunga ,2345,Goverment,Primary School,-30.930445000000002,150.846575
1073,Auburn North Public School,100 Adderley St,Auburn ,2144,Goverment,Primary School,-33.841669,151.03861799999999
1075,Auburn West Public School,Chiswick Rd,Auburn ,2144,Goverment,Primary School,-33.860931,151.01976399999998
1076,Austinmer Public School,90 Lawrence Hargrave Drive,Austinmer ,2515,Goverment,Primary School,-34.305398,150.934991
1077,Austral Public School,219 Edmondson Avenue,Austral,2179,Goverment,Primary School,-33.934487,150.812638
1081,Avoca Public School,Sheepwash Rd,Avoca,2577,Goverment,Primary School,-34.612697,150.47976599999998
1082,Avoca Beach Public School,The Round Drive,Avoca Beach,2251,Goverment,Primary School,-33.471154,151.430745
1084,Awaba Public School,Mulbring Street,Awaba,2283,Goverment,Primary School,-33.010554,151.53806799999998
1085,Colo Vale Public School,Wattle St,Colo Vale ,2575,Goverment,Primary School,-34.401281,150.476178
1098,Bald Blair Public School,Ebor Rd,Guyra ,2365,Goverment,Primary School,-30.229893,151.785056
1104,Seaforth Public School,37 Kempbridge Avenue,Seaforth ,2092,Goverment,Primary School,-33.793262,151.251235
1106,Balgownie Public School,Balgownie Rd,Balgownie ,2519,Goverment,Primary School,-34.386984000000005,150.872076
1111,Ballimore Public School,Bomen St,Ballimore ,2830,Goverment,Primary School,-32.193596,148.899631
1112,Ballina Public School,48 Crane St,Ballina ,2478,Goverment,Primary School,-28.869723999999998,153.563707
1115,Balranald Central School,We St,Balranald,2715,Goverment,Central/Community School,-34.635575,143.56476899999998
1118,Bangalow Public School,Byron St,Bangalow ,2479,Goverment,Primary School,-28.685540000000003,153.525743
1121,Banksmeadow Public School,Trevelyan & Wiggins Sts,Botany ,2019,Goverment,Primary School,-33.953739,151.20661
1123,Greenacre Public School,Waterloo Rd,Greenacre,2190,Goverment,Primary School,-33.911161,151.057581
1124,Bankstown North Public School,322 Hume Hwy,Bankstown ,2200,Goverment,Primary School,-33.904888,151.038043
1129,Banora Point Public School,Pioneer Pde,Banora Point ,2486,Goverment,Primary School,-28.222421999999998,153.543702
1130,Baradine Central School,Narren St,Baradine,2396,Goverment,Central/Community School,-30.950736,149.070198
1131,Barellan Central School,Boree St,Barellan ,2665,Goverment,Central/Community School,-34.287799,146.571928
1134,Bargo Public School,Southern Rd,Bargo ,2574,Goverment,Primary School,-34.292889,150.58274
1135,Barham Public School,Wakool St,Barham,2732,Goverment,Primary School,-35.626915000000004,144.12797700000002
1136,Barkers Vale Public School,4501 Kyogle Rd,Wadeville ,2474,Goverment,Primary School,-28.549020000000002,153.14927
1137,Barmedman Public School,Robertson St,Barmedman ,2668,Goverment,Primary School,-34.148277,147.385078
1138,Barnsley Public School,Cliffbrook St,Barnsley ,2278,Goverment,Primary School,-32.933094,151.594552
1139,Barooga Public School,Hughes St,Barooga ,3644,Goverment,Primary School,-35.912963,145.695985
1140,Barraba Central School,Gotha St,Barraba ,2347,Goverment,Central/Community School,-30.38239,150.599478
1143,Barrington Public School,1 Kenmore St,Barrington ,2422,Goverment,Primary School,-31.971159000000004,151.911058
1146,Baryulgil Public School,7135 Clarence Way,Baryulgil ,2460,Goverment,Primary School,-29.2235,152.605615
1148,Bass Hill Public School,611 Hume Hwy,Bass Hill ,2197,Goverment,Primary School,-33.905902000000005,151.005779
1149,Batemans Bay Public School,Mundarra Way,Surfside,2536,Goverment,Primary School,-35.700051,150.18837299999998
1150,Bathurst Public School,George St,Bathurst ,2795,Goverment,Primary School,-33.420942,149.570615
1152,Batlow Technology School,Pioneer St,Batlow ,2730,Goverment,Central/Community School,-35.523007,148.146548
1160,Beckom Public School,Welman St,Beckom ,2665,Goverment,Primary School,-34.327211,146.962928
1164,Bedgerebong Public School,North Condobolin Rd,Bedgerebong ,2871,Goverment,Primary School,-33.361353,147.679318
1165,Beechwood Public School,614 Beechwood Road,Wauchope ,2446,Goverment,Primary School,-31.435534999999998,152.68094
1166,Beecroft Public School,98 Beecroft Rd,Beecroft ,2119,Goverment,Primary School,-33.752085,151.06462
1167,Beelbangera Public School,Rankins Springs Rd,Beelbangera ,2680,Goverment,Primary School,-34.252836,146.101067
1168,Bega Valley Public School,27 Auckland St,Bega ,2550,Goverment,Primary School,-36.670545000000004,149.839095
1175,Bellata Public School,Gurley St,Bellata ,2397,Goverment,Primary School,-29.918659,149.796216
1177,Bellbird Public School,Doyle St,Bellbird ,2325,Goverment,Primary School,-32.859421000000005,151.316705
1178,Bellbrook Public School,Main St,Bellbrook,2440,Goverment,Primary School,-30.819094,152.508698
1179,Bellevue Hill Public School,Victoria Rd,Bellevue Hill ,2023,Goverment,Primary School,-33.886986,151.25978500000002
1181,Bellingen Public School,William St,Bellingen ,2454,Goverment,Primary School,-30.453490000000002,152.891887
1182,Belltrees Public School,Moonan Flat Rd,Belltrees ,2337,Goverment,Primary School,-31.988753000000003,151.129487
1183,Belmont Public School,Livingstone St,Belmont ,2280,Goverment,Primary School,-33.030134000000004,151.662203
1185,Belmore North Public School,Burwood Rd,Belmore ,2192,Goverment,Primary School,-33.909884999999996,151.084885
1186,Belmore South Public School,Nelson Ave & Canterbury Rd,Belmore ,2192,Goverment,Primary School,-33.925734999999996,151.09198500000002
1189,Bemboka Public School,Kameruka St,Bemboka ,2550,Goverment,Primary School,-36.631309,149.571075
1191,Bendemeer Public School,Charles St,Bendemeer ,2355,Goverment,Primary School,-30.886984,151.150991
1196,Ben Lomond Public School,Inn Rd,Ben Lomond ,2365,Goverment,Primary School,-30.017024,151.66128700000002
1198,Ben Venue Public School,Erskine St,Armidale ,2350,Goverment,Primary School,-30.502884,151.67462
1199,Berala Public School,Harrow Rd,Berala,2141,Goverment,Primary School,-33.869714,151.028244
1201,Beresfield Public School,181-183 Anderson Dr (Cnr Lawson Ave),Beresfield,2322,Goverment,Primary School,-32.803964,151.65486299999998
1202,Berkeley Public School,George St,Berkeley ,2506,Goverment,Primary School,-34.480214000000004,150.856493
1203,Berkeley Vale Public School,Pindarri Ave,Berkeley Vale ,2259,Goverment,Primary School,-33.350515,151.43588799999998
1204,Bermagui Public School,George St,Bermagui ,2546,Goverment,Primary School,-36.420776000000004,150.063625
1205,Berowra Public School,Hillcrest Rd,Berowra ,2081,Goverment,Primary School,-33.618522,151.14899599999998
1206,Berridale Public School,Oliver St,Berridale ,2628,Goverment,Primary School,-36.371444,148.827209
1207,Berrigan Public School,25-29 Momalong St,Berrigan ,2712,Goverment,Primary School,-35.659667,145.815664
1209,Berrima Public School,Oxley St,Berrima ,2577,Goverment,Primary School,-34.485882000000004,150.340775
1211,Berry Public School,Victoria St,Berry ,2535,Goverment,Primary School,-34.778317,150.689706
1215,Beverly Hills Public School,Stoney Creek & King Georges Rds,Beverly Hills ,2209,Goverment,Primary School,-33.953449,151.08520900000002
1217,Bexhill Public School,12 Withers St,Bexhill,2480,Goverment,Primary School,-28.766026,153.34583500000002
1223,Bigga Public School,Blackman St,Bigga ,2583,Goverment,Primary School,-34.0847,149.144602
1224,Bilambil Public School,Bilambil Rd,Bilambil ,2486,Goverment,Primary School,-28.223741999999998,153.468431
1227,Ocean Shores Public School,166 Shara Boulevarde,Ocean Shores,2483,Goverment,Primary School,-28.491203000000002,153.54033700000002
1228,Bilpin Public School,Bells Line of Road,Bilpin ,2758,Goverment,Primary School,-33.497331,150.516765
1230,Binalong Public School,Dickinson Street,Binalong,2584,Goverment,Primary School,-34.670108,148.625718
1231,Binda Public School,Queen St,Binda ,2583,Goverment,Primary School,-34.331463,149.368114
1234,Bingara Central School,Finch St,Bingara ,2404,Goverment,Central/Community School,-29.866705,150.56725
1237,Binnaway Central School,David St,Binnaway,2395,Goverment,Central/Community School,-31.552792999999998,149.374951
1238,Binya Public School,16 Stephensons Rd,Binya,2665,Goverment,Primary School,-34.228678,146.353034
1240,Birchgrove Public School,Birchgrove Rd,Balmain ,2041,Goverment,Primary School,-33.853009,151.177045
1246,Blackheath Public School,Leichhardt St,Blackheath ,2785,Goverment,Primary School,-33.639284,150.285831
1247,Black Hill Public School,408 Black Hill Rd,Black Hill ,2322,Goverment,Primary School,-32.838522999999995,151.617131
1249,Black Mountain Public School,815 Black Mountain Rd,Black Mountain ,2365,Goverment,Primary School,-30.308489,151.65768799999998
1252,Blackville Public School,O'Neile St,Blackville ,2343,Goverment,Primary School,-31.64044,150.23748899999998
1254,Blakebrook Public School,Rosehill Rd,Blakebrook ,2480,Goverment,Primary School,-28.763426000000003,153.22999199999998
1255,Blakehurst Public School,Dewrang St,Blakehurst ,2221,Goverment,Primary School,-33.98298,151.115779
1256,Blandford Public School,New England Hwy,Blandford ,2338,Goverment,Primary School,-31.778584999999996,150.892725
1257,Blaxcell Street Public School,352 Blaxcell Street,Granville,2142,Goverment,Primary School,-33.858067999999996,151.006125
1258,Blaxland Public School,Baden Place,Blaxland,2774,Goverment,Primary School,-33.737103000000005,150.603489
1260,Blayney Public School,Lindsay St,Blayney ,2799,Goverment,Primary School,-33.528987,149.251583
1261,Blighty Public School,Blighty School Rd,Blighty ,2713,Goverment,Primary School,-35.580094,145.34927199999998
1266,Boambee Public School,30 Lindsays Rd,Boambee,2450,Goverment,Primary School,-30.334055,153.077009
1269,Bobin Public School,Bulga Rd,Bobin ,2429,Goverment,Primary School,-31.712682,152.28388
1271,Bobs Farm Public School,764 Marsh Rd,Bobs Farm,2316,Goverment,Primary School,-32.766796,152.010937
1272,Bodalla Public School,Potato Point Rd,Bodalla ,2545,Goverment,Primary School,-36.09938,150.053879
1274,Bogan Gate Public School,5 Bogan Street,Bogan Gate,2876,Goverment,Primary School,-33.104968,147.79785900000002
1275,Boggabilla Central School,South St,Boggabilla ,2409,Goverment,Central/Community School,-28.616585999999998,150.361593
1276,Boggabri Public School,Merton St,Boggabri ,2382,Goverment,Primary School,-30.705682,150.04305300000001
1286,Bolwarra Public School,Bolwarra Rd,Bolwarra ,2320,Goverment,Primary School,-32.706994,151.57300800000002
1287,Bomaderry Public School,Cambewarra Rd,Bomaderry ,2541,Goverment,Primary School,-34.847379,150.608269
1288,Bombala Public School,8 Bright St,Bombala,2632,Goverment,Primary School,-36.918986,149.233792
1290,Bonalbo Central School,Yabbra St,Bonalbo,2469,Goverment,Central/Community School,-28.735471999999998,152.623959
1292,Bondi Beach Public School,Campbell Pde,Bondi Beach ,2026,Goverment,Primary School,-33.8883,151.27682099999998
1293,Bongongo Public School,Adjungbilly Rd,Adjungbilly,2727,Goverment,Primary School,-35.08463,148.399517
1296,Bonshaw Public School,Texas St,Bonshaw ,2361,Goverment,Primary School,-29.046366,151.278092
1297,Bonville Public School,11 Gleniffer Rd,Bonville ,2441,Goverment,Primary School,-30.379782000000002,153.03231599999998
1302,Boolaroo Public School,Main Rd & Second St,Boolaroo ,2284,Goverment,Primary School,-32.951196,151.622765
1303,Booligal Public School,Harvey St,Booligal ,2711,Goverment,Primary School,-33.86704,144.886395
1307,Boomi Public School,Werrina Street,Boomi ,2405,Goverment,Primary School,-28.724128999999998,149.577268
1311,Booral Public School,2800 Bucketts Way,Booral ,2425,Goverment,Primary School,-32.471428,151.960736
1313,Boorowa Central School,Pudman St,Boorowa ,2586,Goverment,Central/Community School,-34.436712,148.726108
1318,Boree Creek Public School,Lockhart-Morundah Rd,Boree Creek ,2652,Goverment,Primary School,-35.105937,146.606338
1320,Boronia Park Public School,113 Pittwater Rd,Hunters Hill,2110,Goverment,Primary School,-33.821414000000004,151.135558
1321,Bossley Park Public School,Marconi Rd,Bossley Park ,2176,Goverment,Primary School,-33.858523999999996,150.883076
1323,Botany Public School,1076 Botany Rd,Botany ,2019,Goverment,Primary School,-33.94316,151.19468700000002
1326,Bourke Public School,19 Green Street,Bourke,2840,Goverment,Primary School,-30.09351,145.94968
1334,Bowning Public School,147 Bowning Road,Bowning ,2582,Goverment,Primary School,-34.769376,148.81153
1335,Bowral Public School,Bendooley Street,Bowral,2576,Goverment,Primary School,-34.481178,150.41919099999998
1336,Bowraville Central School,23 High Street,Bowraville,2449,Goverment,Central/Community School,-30.645289000000002,152.853898
1340,Braidwood Central School,Wilson St,Braidwood ,2622,Goverment,Central/Community School,-35.440595,149.79888799999998
1341,Branxton Public School,12 King Street,Branxton,2335,Goverment,Primary School,-32.659391,151.350682
1345,Breadalbane Public School,Collector Road,Breadalbane,2581,Goverment,Primary School,-34.790546,149.487576
1346,Colo Heights Public School,3018 Putty Road,Colo Heights,2756,Goverment,Primary School,-33.372972,150.739776
1347,Bredbo Public School,Monaro Hwy,Bredbo ,2626,Goverment,Primary School,-35.953990000000005,149.14797
1350,Brewarrina Central School,Bourke Street,Brewarrina,2839,Goverment,Central/Community School,-29.963669,146.85908799999999
1354,Bribbaree Public School,Weedallion St,Bribbaree ,2594,Goverment,Primary School,-34.12042,147.874699
1358,Brighton-Le-Sands Public School,35 Crawford Road,Brighton-Le-Sands,2216,Goverment,Primary School,-33.962357,151.148929
1360,Bringelly Public School,1205 The Northern Road,Bringelly,2556,Goverment,Primary School,-33.937909999999995,150.730266
1361,Broadwater Public School,Pacific Hwy,Broadwater ,2472,Goverment,Primary School,-29.002772999999998,153.437279
1363,Brocklesby Public School,65 Main St,Brocklesby,2642,Goverment,Primary School,-35.823910999999995,146.677989
1367,Broke Public School,Cochrane St,Broke ,2330,Goverment,Primary School,-32.744976,151.104334
1369,Broken Hill Public School,Mica St,Broken Hill ,2880,Goverment,Primary School,-31.956108,141.456502
1371,Broken Hill North Public School,Chapple St,Broken Hill ,2880,Goverment,Primary School,-31.944457,141.471518
1372,Bronte Public School,Hewlett St,Bronte ,2024,Goverment,Primary School,-33.900605,151.262011
1377,Brooklyn Public School,106 Brooklyn Rd,Brooklyn ,2083,Goverment,Primary School,-33.548414,151.214992
1379,Brookvale Public School,Old Pittwater Rd,Brookvale ,2100,Goverment,Primary School,-33.761678,151.270787
1387,Brungle Public School,2 Brungle School Rd,Brungle ,2722,Goverment,Primary School,-35.156755,148.233572
1389,Brunswick Heads Public School,Fingal St,Brunswick Heads ,2483,Goverment,Primary School,-28.541342999999998,153.550848
1402,Bulahdelah Central School,8 Meade Street,Bulahdelah ,2423,Goverment,Central/Community School,-32.413374,152.211848
1411,Bulli Public School,Haig Rd,Bulli ,2516,Goverment,Primary School,-34.326951,150.912703
1414,Bundanoon Public School,Church St,Bundanoon ,2578,Goverment,Primary School,-34.657878000000004,150.300442
1415,Bundarra Central School,Bowline Street,Bundarra,2359,Goverment,Central/Community School,-30.168353000000003,151.077625
1421,Bungendore Public School,Gibraltar St,Bungendore ,2621,Goverment,Primary School,-35.255619,149.444628
1424,Bungwahl Public School,56 Seal Rocks Road,Bungwahl,2423,Goverment,Primary School,-32.389144,152.44855800000002
1425,Bunnaloo Public School,Fitzroy St,Bunnaloo,2731,Goverment,Primary School,-35.786398999999996,144.597923
1432,Burke Ward Public School,Rakow St,Broken Hill ,2880,Goverment,Primary School,-31.960361,141.441054
1433,Burnside Public School,1 Masons Drive,North Parramatta ,2151,Goverment,Primary School,-33.79258,151.018316
1445,Burrawang Public School,Church St,Burrawang ,2577,Goverment,Primary School,-34.592222,150.51725
1447,Burren Junction Public School,Alma St,Burren Junction ,2386,Goverment,Primary School,-30.102686,148.96470300000001
1449,Burringbar Public School,59 Burringbar Road,Burringbar ,2483,Goverment,Primary School,-28.436645000000002,153.466738
1453,Burrumbuttock Public School,Howlong Rd,Burrumbuttock ,2642,Goverment,Primary School,-35.837489,146.800049
1455,Burwood Public School,1-3 Conder Street,Burwood,2134,Goverment,Primary School,-33.8768,151.09898700000002
1460,Buxton Public School,Hassall Rd,Buxton ,2571,Goverment,Primary School,-34.246971,150.544826
1470,Byron Bay Public School,17 Kingsley St,Byron Bay ,2481,Goverment,Primary School,-28.647415999999996,153.614826
1471,Cabbage Tree Island Public School,Cabbage Tree Island Rd,Cabbage Tree Island,2477,Goverment,Primary School,-28.98367,153.457788
1472,Cabramatta Public School,Levuka St,Cabramatta ,2166,Goverment,Primary School,-33.895823,150.942629
1481,Cambewarra Public School,Kalinga St,Cambewarra ,2540,Goverment,Primary School,-34.821537,150.556043
1482,Camden Public School,John St,Camden ,2570,Goverment,Primary School,-34.051998,150.693236
1483,Camdenville Public School,Laura St,Newtown ,2042,Goverment,Primary School,-33.906146,151.175741
1485,Cammeray Public School,Palmer St,Cammeray ,2062,Goverment,Primary School,-33.820422,151.21154199999998
1486,Campbelltown Public School,Lithgow St,Campbelltown ,2560,Goverment,Primary School,-34.070109,150.81563400000002
1488,Campsie Public School,Evaline St,Campsie,2194,Goverment,Primary School,-33.911863000000004,151.104846
1490,Candelo Public School,William St,Candelo ,2550,Goverment,Primary School,-36.768392,149.695674
1492,Caniaba Public School,Caniaba Rd,Lismore ,2480,Goverment,Primary School,-28.830799,153.231317
1494,Canley Vale Public School,Canley Vale Rd,Canley Vale ,2166,Goverment,Primary School,-33.886759999999995,150.937632
1495,Canobolas Public School,Canobolas Rd,Orange ,2800,Goverment,Primary School,-33.305942,149.04621
1497,Canterbury Public School,Church St,Canterbury ,2193,Goverment,Primary School,-33.908761,151.122306
1498,Brisbania Public School,1 High Street,Saratoga,2251,Goverment,Primary School,-33.478821999999994,151.357294
1499,Uranquinty Public School,Pearson Street,Uranquinty,2652,Goverment,Primary School,-35.188793,147.24948600000002
1501,Capertee Public School,Castlereagh Hwy,Capertee ,2846,Goverment,Primary School,-33.147073999999996,149.985922
1502,Captains Flat Public School,14 Montgomery St,Captains Flat,2623,Goverment,Primary School,-35.587192,149.450147
1503,Caragabal Public School,Marsden & Wheoga Sts,Caragabal ,2810,Goverment,Primary School,-33.84532,147.744452
1504,Carcoar Public School,Icely St,Carcoar ,2791,Goverment,Primary School,-33.612326,149.142432
1505,Cardiff Public School,Macquarie Rd,Cardiff ,2285,Goverment,Primary School,-32.945778999999995,151.657754
1506,Cargo Public School,Hutton St,Cargo ,2800,Goverment,Primary School,-33.427611999999996,148.807697
1507,Carinda Public School,Macnamara St,Carinda ,2831,Goverment,Primary School,-30.461882,147.687555
1508,Caringbah Public School,Port Hacking Rd,Caringbah ,2229,Goverment,Primary School,-34.053433,151.122988
1512,Carlton Public School,60 Cameron St,Bexley ,2207,Goverment,Primary School,-33.963496,151.12246000000002
1513,Carlton South Public School,Jubilee Ave,Carlton ,2218,Goverment,Primary School,-33.973045,151.128287
1515,Carool Public School,411 Carool Rd,Carool,2486,Goverment,Primary School,-28.229959,153.4293
1517,Carrathool Public School,Glover St,Carrathool,2711,Goverment,Primary School,-34.409166,145.431622
1518,Carrington Public School,Young St,Carrington ,2294,Goverment,Primary School,-32.912446,151.765328
1520,Carroll Public School,David St,Carroll ,2340,Goverment,Primary School,-30.986074,150.447096
1526,Casino Public School,31 Walker St,Casino ,2470,Goverment,Primary School,-28.867384,153.048053
1527,Cassilis Public School,Coolah Rd,Cassilis,2329,Goverment,Primary School,-32.004552000000004,149.978075
1529,Castle Hill Public School,Les Shore Place,Castle Hill ,2154,Goverment,Primary School,-33.727887,151.004663
1535,Cattai Public School,487 Cattai Rd,Cattai ,2756,Goverment,Primary School,-33.558762,150.906904
1537,Cawdor Public School,865 Cawdor Rd,Camden ,2570,Goverment,Primary School,-34.109711,150.673727
1542,Cessnock Public School,Rawson St,Cessnock ,2325,Goverment,Primary School,-32.840405,151.363808
1543,Cessnock East Public School,Old Maitland Rd,Cessnock ,2325,Goverment,Primary School,-32.827606,151.369746
1545,Cessnock West Public School,Wollombi & Campbell Sts,Cessnock ,2325,Goverment,Primary School,-32.838387,151.34486299999998
1547,Chandler Public School,Grafton Rd,Wollomombi,2350,Goverment,Primary School,-30.518553000000004,152.053551
1548,The Channon Public School,Standing St,The Channon ,2480,Goverment,Primary School,-28.675099,153.28028799999998
1550,Charlestown Public School,Frederick St,Charlestown ,2290,Goverment,Primary School,-32.965494,151.697486
1551,Pacific Palms Public School,Boomerang Drive,Boomerang Beach ,2428,Goverment,Primary School,-32.341023,152.539306
1553,Chatsworth Island Public School,Chatsworth Island Rd,Chatsworth,2469,Goverment,Primary School,-29.387953999999997,153.231645
1558,Chillingham Public School,1420 Numinbah Rd,Chillingham ,2484,Goverment,Primary School,-28.311937,153.275569
1560,Chipping Norton Public School,Central Ave,Chipping Norton ,2170,Goverment,Primary School,-33.909108,150.96085
1564,Clarence Town Public School,Queen St,Clarence Town ,2321,Goverment,Primary School,-32.588731,151.777207
1566,Clemton Park Public School,185 Bexley Rd,Earlwood,2206,Goverment,Primary School,-33.929708000000005,151.108423
1573,Clovelly Public School,Arden St,Waverley ,2024,Goverment,Primary School,-33.907431,151.26028
1574,Clunes Public School,Walker St,Clunes ,2480,Goverment,Primary School,-28.724778000000004,153.408852
1578,Cobar Public School,6-8 Blakey St,Cobar ,2835,Goverment,Primary School,-31.502198999999997,145.836609
1579,Cobargo Public School,Wandella Rd,Cobargo,2550,Goverment,Primary School,-36.386942,149.882818
1580,Cobbitty Public School,Cobbitty Rd,Cobbitty ,2570,Goverment,Primary School,-34.0159,150.685938
1583,Coffee Camp Public School,Nimbin Rd,Coffee Camp ,2480,Goverment,Primary School,-28.662664000000003,153.22063799999998
1584,Coffs Harbour Public School,7 Salamander Street,Coffs Harbour,2450,Goverment,Primary School,-30.301959999999998,153.120372
1587,Coledale Public School,Lawrence Hargrave Drive,Coledale ,2515,Goverment,Primary School,-34.289546,150.947366
1589,Collarenebri Central School,High St,Collarenebri,2833,Goverment,Central/Community School,-29.543823,148.578086
1590,Collector Public School,Lorn St,Collector,2581,Goverment,Primary School,-34.914221000000005,149.433144
1591,Collingullie Public School,Urana St,Collingullie ,2652,Goverment,Primary School,-35.09019,147.127156
1593,Collins Creek Public School,480 Collins Valley Road,Collins Creek ,2474,Goverment,Primary School,-28.489296999999997,153.022547
1596,Colyton Public School,Nelson St,Mount Druitt ,2770,Goverment,Primary School,-33.777198999999996,150.81316
1601,Comboyne Public School,Hill St,Comboyne ,2429,Goverment,Primary School,-31.605308,152.472736
1604,Comleroy Road Public School,McMahons Rd,Kurrajong,2758,Goverment,Primary School,-33.506475,150.69763
1605,Como Public School,Genoa St,Como ,2226,Goverment,Primary School,-34.001832,151.069127
1606,Conargo Public School,Deniliquin-Wagga Wagga Rd,Conargo ,2710,Goverment,Primary School,-35.305269,145.17886000000001
1607,Concord Public School,Burwood Rd,Concord ,2137,Goverment,Primary School,-33.863224,151.106944
1608,Concord West Public School,Concord Rd,Concord West ,2138,Goverment,Primary School,-33.839613,151.08731699999998
1609,Condobolin Public School,Molong Street,Condobolin,2877,Goverment,Primary School,-33.085514,147.149077
1611,Condong Public School,McLeod St,Condong ,2484,Goverment,Primary School,-28.309673999999998,153.434424
1612,Coniston Public School,Auburn St,Coniston ,2500,Goverment,Primary School,-34.439023,150.887435
1613,Connells Point Public School,Riverview Ave,South Hurstville,2221,Goverment,Primary School,-33.984689,151.10030600000002
1615,Cooerwull Public School,319 Main St,Lithgow ,2790,Goverment,Primary School,-33.484053,150.142093
1616,Coogee Public School,Byron St & Coogee Bay Rd,Coogee ,2034,Goverment,Primary School,-33.920819,151.249846
1621,Coolah Central School,Binnia St,Coolah ,2843,Goverment,Central/Community School,-31.821023999999998,149.723624
1624,Coolamon Central School,75 Methul St,Coolamon ,2701,Goverment,Central/Community School,-34.811904,147.201398
1625,Shoalhaven Heads Public School,47 Ravenscliffe Road,Shoalhaven Heads,2535,Goverment,Primary School,-34.853167,150.740088
1627,Coolongolook Public School,Pacific Hwy,Coolongolook ,2423,Goverment,Primary School,-32.222798,152.318838
1628,Cooma Public School,Commissioner St,Cooma ,2630,Goverment,Primary School,-36.237474,149.125034
1630,Coonabarabran Public School,Cnr John St & Newell Hwy,Coonabarabran ,2357,Goverment,Primary School,-31.280039000000002,149.282061
1631,Coonamble Public School,Bertram Street,Coonamble,2829,Goverment,Primary School,-30.958363000000002,148.387024
1632,Coopernook Public School,Macquarie St,Coopernook ,2426,Goverment,Primary School,-31.827512,152.607874
1634,Coorabell Public School,Mango Lane,Coorabell ,2479,Goverment,Primary School,-28.625696,153.487492
1635,Cooranbong Public School,Government Rd,Cooranbong ,2265,Goverment,Primary School,-33.0805,151.441793
1636,Cootamundra Public School,Cooper St,Cootamundra,2590,Goverment,Primary School,-34.638914,148.02680900000001
1642,Copmanhurst Public School,Prescott St,Copmanhurst ,2460,Goverment,Primary School,-29.584663,152.775537
1644,Coraki Public School,Adam St,Coraki ,2471,Goverment,Primary School,-28.992589000000002,153.28264099999998
1647,Coramba Public School,6 Short St,Coramba ,2450,Goverment,Primary School,-30.221578000000004,153.01151299999998
1654,Corindi Public School,Coral St,Corindi Beach ,2456,Goverment,Primary School,-30.021469,153.194234
1656,Corndale Public School,Corndale Rd,Corndale ,2480,Goverment,Primary School,-28.71315,153.36248899999998
1658,Corowa Public School,244 Honour Avenue,Corowa ,2646,Goverment,Primary School,-35.992545,146.3949
1659,Corowa South Public School,158 Hume St,Corowa ,2646,Goverment,Primary School,-36.020988,146.376176
1661,Corrimal Public School,Princes Hwy,Corrimal,2518,Goverment,Primary School,-34.367371,150.899022
1666,Coutts Crossing Public School,1570 Armidale Road,Coutts Crossing,2460,Goverment,Primary School,-29.832063,152.889484
1668,Cowan Public School,Chandler Ave,Cowan ,2081,Goverment,Primary School,-33.588808,151.16884299999998
1670,Cowper Public School,Clarence & Samuel Sts,Cowper ,2460,Goverment,Primary School,-29.56956,153.077731
1671,Cowra Public School,Vaux St,Cowra ,2794,Goverment,Primary School,-33.836028000000006,148.68992
1674,Crabbes Creek Public School,Crabbes Creek Rd,Crabbes Creek ,2483,Goverment,Primary School,-28.456003999999997,153.496575
1681,Crescent Head Public School,Pacific St,Crescent Head ,2440,Goverment,Primary School,-31.188089,152.970345
1682,Cronulla Public School,18-24 Burraneer Bay Rd,Cronulla ,2230,Goverment,Primary School,-34.054077,151.14773
1684,Crookwell Public School,Denison St,Crookwell ,2583,Goverment,Primary School,-34.459938,149.469806
1685,Crossmaglen Public School,384 Crossmaglen Rd,Crossmaglen,2441,Goverment,Primary School,-30.365945,152.98158600000002
1688,Buronga Public School,Chapman St,Buronga ,2739,Goverment,Primary School,-34.169471,142.18131499999998
1690,Crystal Creek Public School,RMB 321 Numinbah Road,Crystal Creek,2484,Goverment,Primary School,-28.312140000000003,153.32596
1695,Cudal Public School,Toogong St,Cudal ,2864,Goverment,Primary School,-33.287099,148.740307
1696,Cudgen Public School,11 Collier Street,Cudgen ,2487,Goverment,Primary School,-28.262591999999998,153.55541599999998
1698,Culcairn Public School,Balfour St,Culcairn ,2660,Goverment,Primary School,-35.668284,147.03999199999998
1700,Cullen Bullen Public School,15-23 Castlereagh Hwy,Cullen Bullen ,2790,Goverment,Primary School,-33.299877,150.032317
1707,Cumnock Public School,Railway Pde,Cumnock,2867,Goverment,Primary School,-32.931277,148.749492
1708,Cundletown Public School,High St,Cundletown ,2430,Goverment,Primary School,-31.899733,152.522008
1712,Curlewis Public School,Goran St,Curlewis ,2381,Goverment,Primary School,-31.117148999999998,150.263304
1714,Currabubula Public School,Bolton St,Currabubula ,2342,Goverment,Primary School,-31.262787,150.735709
1722,Dalgety Public School,Cooma St,Dalgety,2628,Goverment,Primary School,-36.502746,148.836675
1723,Dalton Public School,Jobson St,Dalton ,2581,Goverment,Primary School,-34.720369,149.17882
1727,Dapto Public School,48-66 Sierra Drive,Horsley,2530,Goverment,Primary School,-34.496128999999996,150.796948
1732,Dareton Public School,Matong St,Dareton ,2717,Goverment,Primary School,-34.091148,142.040358
1735,Darlington Public School,Golden Grove St,Chippendale ,2008,Goverment,Primary School,-33.892638,151.18939
1736,Darlington Point Public School,Hay Rd,Darlington Point ,2706,Goverment,Primary School,-34.572807,145.993878
1740,Leeville Public School,9375 Summerland Way,Leeville ,2470,Goverment,Primary School,-28.930843,153.00353700000002
1742,Deepwater Public School,Young St,Deepwater ,2371,Goverment,Primary School,-29.442908000000003,151.84808600000002
1744,Dee Why Public School,Regent St,Dee Why ,2099,Goverment,Primary School,-33.749025,151.285209
1745,Delegate Public School,Campbell St,Delegate ,2633,Goverment,Primary School,-37.041739,148.93721499999998
1747,Delungra Public School,Wallangra St,Delungra ,2403,Goverment,Primary School,-29.650935999999998,150.830977
1749,Denman Public School,Paxton St,Denman ,2328,Goverment,Primary School,-32.385734,150.686009
1760,Doonside Public School,Cnr Kildare Road and School Parade,Doonside,2767,Goverment,Primary School,-33.764557,150.870497
1762,Dora Creek Public School,Cooranbong Rd,Dora Creek ,2264,Goverment,Primary School,-33.07902,151.499217
1768,Double Bay Public School,William St,Double Bay ,2028,Goverment,Primary School,-33.874856,151.240894
1769,Doubtful Creek Public School,2436 Sextonville Rd,Doubtful Creek,2470,Goverment,Primary School,-28.724771,152.875958
1770,Douglas Park Public School,111 Camden Rd,Douglas Park ,2569,Goverment,Primary School,-34.179484,150.71303799999998
1771,Drake Public School,Allison Street,Drake,2469,Goverment,Primary School,-28.928797999999997,152.374099
1774,Drummoyne Public School,Rawson Ave,Drummoyne ,2047,Goverment,Primary School,-33.856072999999995,151.15303500000002
1775,Dubbo Public School,181 Darling St,Dubbo ,2830,Goverment,Primary School,-32.248749,148.60541
1776,Dubbo North Public School,Fitzroy St,Dubbo ,2830,Goverment,Primary School,-32.24168,148.615776
1778,Dudley Public School,Ocean & Boundary Sts,Dudley ,2290,Goverment,Primary School,-32.989387,151.716816
1780,Lismore Public School,Pound St,Lismore ,2480,Goverment,Primary School,-28.814289000000002,153.2909
1788,Dundurrabin Public School,70 Mount St,Dundurrabin,2453,Goverment,Primary School,-30.189493,152.542649
1789,Dunedoo Central School,Digilah St,Dunedoo ,2844,Goverment,Central/Community School,-32.018308000000005,149.392212
1791,Dungay Public School,305 Tomewin Rd,Dungay,2484,Goverment,Primary School,-28.289680999999998,153.382374
1792,Dungog Public School,9 Chapman St,Dungog ,2420,Goverment,Primary School,-32.405233,151.757709
1793,Dungowan Public School,137 Olgunbil Road,Dungowan,2340,Goverment,Primary School,-31.220126,151.13269
1797,Dunoon Public School,James St,Dunoon ,2480,Goverment,Primary School,-28.686735,153.315495
1799,Dural Public School,622 Old Northern Rd,Dural ,2158,Goverment,Primary School,-33.686057,151.02639399999998
1801,Duranbah Public School,105 Duranbah Rd,Duranbah ,2487,Goverment,Primary School,-28.289121,153.516888
1802,Duri Public School,Dungowan Rd,Duri ,2344,Goverment,Primary School,-31.221359000000003,150.829939
1803,Durrumbul Public School,Durrumbul Rd,Durrumbul ,2482,Goverment,Primary School,-28.523263,153.444576
1807,Earlwood Public School,Homer St,Earlwood ,2206,Goverment,Primary School,-33.928982,151.12238
1808,Eastern Creek Public School,200 Rooty Hill Road South,Eastern Creek,2766,Goverment,Primary School,-33.787013,150.852624
1809,Panania Public School,21 Lawler Street,Panania,2213,Goverment,Primary School,-33.965972,150.99946
1811,Dubbo South Public School,Fitzroy St,Dubbo ,2830,Goverment,Primary School,-32.263126,148.609749
1813,Ebenezer Public School,531 Sackville Rd,Ebenezer ,2756,Goverment,Primary School,-33.530916999999995,150.876774
1814,Ebor Public School,Ebor St,Ebor ,2453,Goverment,Primary School,-30.403292999999998,152.349882
1816,Eden Public School,Imlay St,Eden ,2551,Goverment,Primary School,-37.063271,149.906688
1822,Congewai Public School,605 Congewai Road,Congewai,2325,Goverment,Primary School,-32.958736,151.273875
1823,Eglinton Public School,Alexander St,Eglinton ,2795,Goverment,Primary School,-33.377520000000004,149.539343
1824,Elands Public School,Wingham-Ellenborough Rd,Elands ,2429,Goverment,Primary School,-31.619383000000003,152.29229099999998
1826,Ellalong Public School,Helena Street,Ellalong,2325,Goverment,Primary School,-32.914749,151.311974
1830,Ellerston Public School,School Road,Ellerston,2337,Goverment,Primary School,-31.817729999999997,151.304369
1835,Eltham Public School,Boatharbour Rd,Eltham ,2480,Goverment,Primary School,-28.763663,153.40854099999999
1838,Emmaville Central School,Park Rd,Emmaville ,2371,Goverment,Central/Community School,-29.446152,151.601669
1839,Empire Bay Public School,Empire Bay Drive,Empire Bay ,2256,Goverment,Primary School,-33.504315999999996,151.362889
1840,Empire Vale Public School,River Drive,Empire Vale ,2478,Goverment,Primary School,-28.915114000000003,153.50605900000002
1841,Emu Plains Public School,Emerald St,Emu Plains ,2750,Goverment,Primary School,-33.755617,150.657739
1844,Enfield Public School,Beaumaris St,Enfield ,2136,Goverment,Primary School,-33.888597999999995,151.094528
1845,Engadine Public School,Waratah Rd,Engadine ,2233,Goverment,Primary School,-34.06335,151.012431
1849,The Entrance Public School,Oakland Ave,The Entrance ,2261,Goverment,Primary School,-33.346740999999994,151.493009
1850,Epping Public School,2-16 Norfolk Road,Epping,2121,Goverment,Primary School,-33.770727,151.087878
1851,Epping West Public School,96 Carlingford Rd,Epping ,2121,Goverment,Primary School,-33.772789,151.068048
1856,Erina Heights Public School,Serpentine Rd,Erina Heights ,2260,Goverment,Primary School,-33.428028000000005,151.413585
1857,Woodport Public School,The Entrance Rd,Erina ,2250,Goverment,Primary School,-33.439347,151.37849
1860,Ermington Public School,Winbourne St,West Ryde ,2114,Goverment,Primary School,-33.804749,151.071574
1864,Ettalong Public School,Karingi St,Ettalong Beach ,2257,Goverment,Primary School,-33.513539,151.332702
1867,Euabalong West Public School,Euabba St,Euabalong West ,2877,Goverment,Primary School,-33.05583,146.397128
1869,Euchareena Public School,Walter St,Euchareena ,2866,Goverment,Primary School,-32.937204,149.091542
1870,Eugowra Public School,Hill St,Eugowra ,2806,Goverment,Primary School,-33.423082,148.36928600000002
1873,Eumungerie Public School,Wheaton St,Eumungerie ,2831,Goverment,Primary School,-31.951152,148.621075
1874,Eungai Public School,Main St,Eungai Creek ,2441,Goverment,Primary School,-30.832071000000003,152.87428400000002
1879,Eureka Public School,Lismore-Brunswick River Rd,Eureka ,2480,Goverment,Primary School,-28.687657,153.439223
1883,Eurongilly Public School,1323 Eurongilly Road,Eurongilly,2663,Goverment,Primary School,-34.91017,147.780957
1885,Euston Public School,Sturt Hwy,Euston ,2737,Goverment,Primary School,-34.575588,142.744248
1886,Evans River Community School,Cypress Street,Evans Head,2473,Goverment,Central/Community School,-29.113491999999997,153.42468300000002
1890,Excelsior Public School,Rondelay Drive,Castle Hill ,2154,Goverment,Primary School,-33.740444000000004,150.990408
1891,Exeter Public School,School Rd,Exeter ,2579,Goverment,Primary School,-34.61612,150.321828
1894,Fairfax Public School,Maules Creek,Maules Creek,2382,Goverment,Primary School,-30.493351,150.13126499999998
1895,Fairfield Public School,68-82 Smart St,Fairfield ,2165,Goverment,Primary School,-33.866847,150.955409
1896,Fairfield West Public School,Palmerston Rd,Fairfield West ,2165,Goverment,Primary School,-33.868037,150.92476200000002
1898,Fairy Meadow Public School,Princes Hwy,Fairy Meadow ,2519,Goverment,Primary School,-34.390469,150.892302
1901,Falls Creek Public School,26 Vidler St,Falls Creek ,2540,Goverment,Primary School,-34.965439,150.593403
1904,Fassifern Public School,9 Miller Road,Fassifern,2283,Goverment,Primary School,-32.983398,151.58276899999998
1915,Fingal Head Public School,100 Letitia Rd,Fingal Head ,2487,Goverment,Primary School,-28.196814,153.565122
1920,Five Dock Public School,Henry St,Five Dock ,2046,Goverment,Primary School,-33.866859000000005,151.127318
1921,Lord Howe Island Central School,Lagoon Rd,Lord Howe Island ,2898,Goverment,Central/Community School,-31.530071999999997,159.069032
1926,Forbes Public School,Lachlan St,Forbes,2871,Goverment,Primary School,-33.387948,148.00638500000002
1930,Forest Hill Public School,Sturt Hwy,Forest Hill,2651,Goverment,Primary School,-35.147875,147.467
1932,Forest Lodge Public School,Bridge Rd,Forest Lodge ,2037,Goverment,Primary School,-33.882169,151.181597
1936,Forster Public School,Head St,Forster ,2428,Goverment,Primary School,-32.18247,152.524246
1937,Fort Street Public School,Observatory Hill,Sydney ,2000,Goverment,Primary School,-33.860427,151.204871
1943,Frederickton Public School,Great North Rd,Frederickton ,2440,Goverment,Primary School,-31.033583,152.879353
1944,Freemans Reach Public School,395 Kurmond Road,Freemans Reach,2756,Goverment,Primary School,-33.558696999999995,150.79930900000002
1946,Frenchs Forest Public School,Ann St,Frenchs Forest ,2086,Goverment,Primary School,-33.751515999999995,151.224695
1952,Galston Public School,School Rd,Galston ,2159,Goverment,Primary School,-33.648196999999996,151.04516999999998
1954,Ganmain Public School,Langham St,Ganmain ,2702,Goverment,Primary School,-34.796923,147.04003400000002
1956,Garah Public School,Ashley & Benarba Sts,Garah ,2405,Goverment,Primary School,-29.077177000000002,149.634928
1969,Gerogery Public School,East Gerogery Rd,Gerogery ,2642,Goverment,Primary School,-35.83213,146.998143
1971,Gerringong Public School,Archibald Rd,Gerringong ,2534,Goverment,Primary School,-34.749384,150.821499
1972,Geurie Public School,Narragal Street,Geurie,2818,Goverment,Primary School,-32.3961,148.82945
1974,Sandy Hollow Public School,1581 Golden Highway,Sandy Hollow,2333,Goverment,Primary School,-32.336471,150.569007
1978,Gilgai Public School,Woodford Pl,Gilgai ,2360,Goverment,Primary School,-29.852694,151.115555
1979,Gilgandra Public School,Wrigley St,Gilgandra ,2827,Goverment,Primary School,-31.707981,148.66464
1982,Gillieston Public School,Cnr Gillieston & Ryan Roads,Gillieston Heights ,2321,Goverment,Primary School,-32.752320000000005,151.530713
1986,Girilambone Public School,Vega St,Girilambone ,2831,Goverment,Primary School,-31.249670000000002,146.908851
1988,Girraween Public School,Bando Rd,Girraween ,2145,Goverment,Primary School,-33.799711,150.950356
1990,Gladesville Public School,Victoria Rd,Gladesville ,2111,Goverment,Primary School,-33.832977,151.125699
1991,Gladstone Public School,13 Kinchela St,Gladstone ,2440,Goverment,Primary School,-31.026484999999997,152.946508
1992,Windang Public School,Oakland Ave,Windang ,2528,Goverment,Primary School,-34.531496000000004,150.86597
1994,Glenbrook Public School,Woodville St,Glenbrook ,2773,Goverment,Primary School,-33.765996,150.621286
2001,Glenfield Public School,Railway Pde,Glenfield ,2167,Goverment,Primary School,-33.971005,150.89658400000002
2003,Glenhaven Public School,Glenhaven Rd,Glenhaven ,2156,Goverment,Primary School,-33.700792,151.002882
2005,Glen Innes Public School,Church St,Glen Innes ,2370,Goverment,Primary School,-29.735142,151.74098899999998
2009,Glenmore Road Public School,Glenmore Rd,Paddington ,2021,Goverment,Primary School,-33.881384999999995,151.230233
2012,Glenorie Public School,Old Northern Rd,Glenorie ,2157,Goverment,Primary School,-33.599444,151.008082
2015,Glenquarry Public School,Tourist Rd,Glenquarry ,2576,Goverment,Primary School,-34.522335,150.48353899999998
2016,Glenreagh Public School,Bridge & George Sts,Glenreagh ,2450,Goverment,Primary School,-30.053582000000002,152.976339
2020,Glen William Public School,Glen William & Dungog Rds,Clarence Town ,2321,Goverment,Primary School,-32.525391,151.79793999999998
2021,Glossodia Public School,Golden Valley Drive,Glossodia ,2756,Goverment,Primary School,-33.530504,150.765471
2027,Gol Gol Public School,William St,Gol Gol ,2738,Goverment,Primary School,-34.179608,142.222652
2033,Goodooga Central School,Doyle St,Goodooga,2831,Goverment,Central/Community School,-29.115865000000003,147.455532
2035,Goolgowi Public School,Penney St,Goolgowi ,2652,Goverment,Primary School,-33.97571,145.70922099999999
2036,Goolma Public School,Gollan Rd,Goolma ,2852,Goverment,Primary School,-32.3688,149.26901
2037,Goolmangar Public School,Nimbin Rd,Goolmangar ,2480,Goverment,Primary School,-28.709746999999997,153.23169
2038,Gooloogong Public School,King St,Gooloogong ,2805,Goverment,Primary School,-33.617104,148.436422
2041,Goonellabah Public School,595 Ballina Road,Goonellabah,2480,Goverment,Primary School,-28.818329,153.322306
2042,Goonengerry Public School,Goonengerry Road,Goonengerry,2482,Goverment,Primary School,-28.609512,153.439753
2049,Gosford Public School,Faunce St West,West Gosford,2250,Goverment,Primary School,-33.42075,151.33449
2053,Goulburn Public School,Bourke St,Goulburn ,2580,Goverment,Primary School,-34.750563,149.717773
2054,Goulburn East Public School,Eleanor St,Goulburn ,2580,Goverment,Primary School,-34.7626,149.73038799999998
2055,Goulburn North Public School,Union St,Goulburn North ,2580,Goverment,Primary School,-34.744578999999995,149.735043
2056,Goulburn South Public School,Addison St,Goulburn ,2580,Goverment,Primary School,-34.760040000000004,149.712314
2060,Grafton Public School,Queen St,Grafton ,2460,Goverment,Primary School,-29.684990000000003,152.933325
2061,South Grafton Public School,Vere St,South Grafton ,2460,Goverment,Primary School,-29.709892,152.937126
2064,Granville Public School,Lena St,Granville ,2142,Goverment,Primary School,-33.834264000000005,151.004671
2066,Granville South Public School,Woodville Rd,Guildford ,2161,Goverment,Primary School,-33.848289,150.99588300000002
2068,Gravesend Public School,Gwydir St,Gravesend ,2401,Goverment,Primary School,-29.585366999999998,150.332417
2070,Greenethorpe Public School,Main St,Greenethorpe ,2809,Goverment,Primary School,-33.997714,148.400139
2071,Green Hill Public School,196 River Street,West Kempsey,2440,Goverment,Primary School,-31.059616,152.802757
2075,Green Valley Public School,Green Valley Rd,Green Valley ,2168,Goverment,Primary School,-33.90074,150.86897199999999
2076,Greenwich Public School,32 Kingslangley Rd,Greenwich,2065,Goverment,Primary School,-33.82587,151.183252
2082,Grenfell Public School,Melyra St,Grenfell ,2810,Goverment,Primary School,-33.892296,148.167544
2083,Gresford Public School,Durham Rd,Gresford ,2311,Goverment,Primary School,-32.427628000000006,151.53833500000002
2084,Greta Public School,2A Wyndham Street,Greta,2334,Goverment,Primary School,-32.680083,151.38721
2086,Greystanes Public School,Merrylands Rd,Greystanes ,2145,Goverment,Primary School,-33.828043,150.941111
2087,Griffith Public School,Coolah St,Griffith ,2680,Goverment,Primary School,-34.291396,146.036252
2093,Guildford Public School,Apia St,Guildford ,2161,Goverment,Primary School,-33.855821,150.981983
2094,Gulargambone Central School,Yalgogrin St,Gulargambone ,2828,Goverment,Central/Community School,-31.332240000000002,148.475758
2097,Gulgong Public School,Belmore St,Gulgong ,2852,Goverment,Primary School,-32.359746,149.537692
2099,Gulmarrad Public School,466 Brooms Head Road,Gulmarrad,2463,Goverment,Primary School,-29.489241999999997,153.233572
2100,Gum Flat Public School,958 Copeton Dam Rd,Gum Flat ,2360,Goverment,Primary School,-29.779563,150.979221
2102,Gundagai Public School,William St,Gundagai ,2722,Goverment,Primary School,-35.052146,148.109174
2103,Gundagai South Public School,Luke St,South Gundagai,2722,Goverment,Primary School,-35.080802,148.10308600000002
2104,Gundaroo Public School,Lot St,Gundaroo ,2620,Goverment,Primary School,-35.029909,149.267076
2109,Gunnedah Public School,Bloomfield St,Gunnedah ,2380,Goverment,Primary School,-30.977490999999997,150.256335
2111,Gunning Public School,Yass St,Gunning ,2581,Goverment,Primary School,-34.783525,149.265602
2114,Guyra Central School,Marne St,Guyra ,2365,Goverment,Central/Community School,-30.222577,151.677369
2115,Gwabegar Public School,Chauvel St,Gwabegar ,2356,Goverment,Primary School,-30.611489000000002,148.974999
2116,Gymea Bay Public School,205A Gymea Bay Road,Gymea Bay,2227,Goverment,Primary School,-34.046904999999995,151.082825
2117,Haberfield Public School,Denman Ave,Haberfield ,2045,Goverment,Primary School,-33.879467,151.134002
2128,Hammondville Public School,Walder Rd,Hammondville ,2170,Goverment,Primary School,-33.947272999999996,150.954525
2129,Hampton Public School,Jenolan Caves Rd,Hampton ,2790,Goverment,Primary School,-33.648478999999995,150.048925
2131,Hannam Vale Public School,Hannam Vale Rd,Hannam Vale ,2443,Goverment,Primary School,-31.712949,152.594024
2132,Hanwood Public School,School St,Hanwood ,2680,Goverment,Primary School,-34.329726,146.04237
2133,Harbord Public School,Wyadra Avenue,Freshwater,2096,Goverment,Primary School,-33.772164000000004,151.286531
2136,Hargraves Public School,Merinda St,Hargraves ,2850,Goverment,Primary School,-32.783336,149.461924
2139,Harrington Public School,High St,Harrington ,2427,Goverment,Primary School,-31.870234000000004,152.688803
2142,Harwood Island Public School,11 Morpeth St,Harwood,2465,Goverment,Primary School,-29.425604999999997,153.240299
2145,Hay Public School,201-217 Lachlan Street,Hay,2711,Goverment,Primary School,-34.506048,144.84541000000002
2149,Heathcote Public School,Oliver St,Heathcote ,2233,Goverment,Primary School,-34.086704,151.007321
2153,Helensburgh Public School,Lukin St,Helensburgh ,2508,Goverment,Primary School,-34.184207,150.988393
2154,Henty Public School,Sladen St,Henty ,2658,Goverment,Primary School,-35.517474,147.031248
2155,Hermidale Public School,Mouramba St,Hermidale ,2831,Goverment,Primary School,-31.551165,146.723373
2156,Hernani Public School,Armidale-Grafton Rd,Dorrigo ,2453,Goverment,Primary School,-30.294514000000003,152.422727
2157,Herons Creek Public School,Pacific Hwy,Herons Creek ,2443,Goverment,Primary School,-31.580394000000002,152.729988
2161,Hill End Public School,Tambaroora St,Hill End ,2850,Goverment,Primary School,-33.034572999999995,149.415886
2164,Hillside Public School,Cattai Ridge Rd,Glenorie ,2157,Goverment,Primary School,-33.601784,150.976151
2165,Hillston Central School,62-80 Moore St,Hillston ,2675,Goverment,Central/Community School,-33.479904,145.54026000000002
2166,Hill Top Public School,Linda St,Hill Top ,2575,Goverment,Primary School,-34.354826,150.491396
2167,Hinton Public School,Paterson St,Hinton ,2321,Goverment,Primary School,-32.716733000000005,151.650674
2170,Holbrook Public School,Albury St,Holbrook ,2644,Goverment,Primary School,-35.717853000000005,147.318953
2171,Holgate Public School,RMB 5255 Wattle Tree Rd,Holgate ,2250,Goverment,Primary School,-33.405105999999996,151.407722
2172,Holmwood Public School,Cowra-Carcoar Rd,Cowra ,2794,Goverment,Primary School,-33.810596999999994,148.756777
2173,Homebush Public School,Rochester St,Homebush ,2140,Goverment,Primary School,-33.867319,151.08523
2177,Telarah Public School,Raymond St,Maitland ,2320,Goverment,Primary School,-32.7252,151.532379
2182,Horsley Park Public School,The Horsley Drive,Horsley Park ,2164,Goverment,Primary School,-33.840414,150.852683
2186,Howlong Public School,Hawkins St,Howlong ,2643,Goverment,Primary School,-35.979939,146.636764
2187,Hoxton Park Public School,99 Pacific Palms Circuit,Hoxton Park,2171,Goverment,Primary School,-33.931881,150.849626
2188,Humula Public School,School St,Humula ,2652,Goverment,Primary School,-35.483339,147.760583
2189,Hunters Hill Public School,17 Alexandra St,Hunters Hill ,2110,Goverment,Primary School,-33.835121,151.151254
2190,Huntingdon Public School,2876 Oxley Highway,Wauchope ,2446,Goverment,Primary School,-31.478214,152.660607
2193,Rathmines Public School,Secret Corner Rd,Rathmines ,2283,Goverment,Primary School,-33.042628,151.5899
2197,Hurstville Public School,Forest Rd,Hurstville ,2220,Goverment,Primary School,-33.964695,151.110728
2198,Hurstville South Public School,Maher St,Hurstville ,2220,Goverment,Primary School,-33.972516,151.099252
2199,Huskisson Public School,Sydney St,Huskisson ,2540,Goverment,Primary School,-35.036821,150.668104
2201,Ilford Public School,Castlereagh Hwy,Ilford ,2850,Goverment,Primary School,-32.966702000000005,149.855478
2203,Illabo Public School,1 Layton Street,Illabo,2590,Goverment,Primary School,-34.814002,147.741165
2204,Iluka Public School,21-27 Charles Street,Iluka,2466,Goverment,Primary School,-29.404676000000002,153.34893799999998
2206,Ingleburn Public School,Oxford Rd,Ingleburn ,2565,Goverment,Primary School,-34.000332,150.866612
2209,Inverell Public School,Henderson St,Inverell ,2360,Goverment,Primary School,-29.773134999999996,151.12301599999998
2211,Iona Public School,860 Paterson Rd,Woodville,2321,Goverment,Primary School,-32.665063,151.604218
2212,Islington Public School,Hubbard St,Islington ,2296,Goverment,Primary School,-32.911412,151.744091
2213,Ivanhoe Central School,Columbus St,Ivanhoe ,2878,Goverment,Central/Community School,-32.898531,144.30097800000001
2214,Fernleigh Public School,451 Fernleigh Rd,Fernleigh ,2479,Goverment,Primary School,-28.76765,153.498399
2218,Jamberoo Public School,Churchill St,Jamberoo ,2533,Goverment,Primary School,-34.644622,150.77300300000002
2223,Jennings Public School,31 Brushabers Road,Jennings,4383,Goverment,Primary School,-28.927243,151.934357
2225,Jerangle Public School,2892 Jerangle Road,Jerangle,2630,Goverment,Primary School,-35.871132,149.36426799999998
2226,Jerilderie Public School,31 Bolton St,Jerilderie ,2716,Goverment,Primary School,-35.354597999999996,145.72886499999998
2231,Jerrys Plains Public School,Doyle St,Jerrys Plains ,2330,Goverment,Primary School,-32.49723,150.905944
2234,Jesmond Public School,Ralph St,Jesmond ,2299,Goverment,Primary School,-32.903841,151.695427
2235,Jiggi Public School,Jiggi-Nimbin Rd,Jiggi ,2480,Goverment,Primary School,-28.677985999999997,153.181368
2236,Jilliby Public School,Jilliby Rd,Wyong ,2259,Goverment,Primary School,-33.239937,151.380052
2237,Jindabyne Central School,Park Rd,Jindabyne ,2627,Goverment,Central/Community School,-36.416703000000005,148.618901
2239,Jindera Public School,Dight Street,Jindera ,2642,Goverment,Primary School,-35.959036,146.886741
2243,Johns River Public School,Station St,Johns River ,2443,Goverment,Primary School,-31.733013,152.696599
2245,Jugiong Public School,Flyde St,Jugiong ,2727,Goverment,Primary School,-34.820203,148.335447
2246,The Junction Public School,Union St,Merewether ,2291,Goverment,Primary School,-32.939964,151.758644
2247,Junee Public School,116 Lorne St,Junee,2663,Goverment,Primary School,-34.873488,147.584901
2248,Junee North Public School,Queen St,Junee ,2663,Goverment,Primary School,-34.855049,147.585376
2254,Kandos Public School,23-37 Dangar Street,Kandos,2848,Goverment,Primary School,-32.856242,149.97481299999998
2255,Kangaloon Public School,Robertson St,Kangaloon ,2576,Goverment,Primary School,-34.552607,150.52955500000002
2256,Kangaroo Valley Public School,Moss Vale-Nowra Rd,Kangaroo Valley ,2577,Goverment,Primary School,-34.73652,150.531996
2259,Kanwal Public School,Craigie Ave,Kanwal ,2259,Goverment,Primary School,-33.262456,151.48488400000002
2260,Karangi Public School,Coffs Harbour-Coramba Rd,Karangi ,2450,Goverment,Primary School,-30.252411,153.047767
2263,Karuah Public School,18 Bundabah St,Karuah ,2324,Goverment,Primary School,-32.654344,151.96659499999998
2267,Kearsley Public School,130 Caledonia Street,Kearsley,2325,Goverment,Primary School,-32.857248999999996,151.395921
2270,Kegworth Public School,60 Tebbutt St,Leichhardt ,2040,Goverment,Primary School,-33.886514,151.14693
2271,Keiraville Public School,Gipps Rd,Keiraville ,2500,Goverment,Primary School,-34.414114,150.87336399999998
2273,Kellys Plains Public School,45-47 Kelly's Plains School Rd,Armidale,2350,Goverment,Primary School,-30.571911,151.636504
2274,Kellyville Public School,35A Windsor Road,Kellyville,2155,Goverment,Primary School,-33.711052,150.957887
2275,Kelso Public School,19 Gilmour Street,Kelso ,2795,Goverment,Primary School,-33.416969,149.605156
2278,Kempsey East Public School,Innes St,Kempsey ,2440,Goverment,Primary School,-31.083703000000003,152.84686100000002
2279,Kempsey West Public School,Marsh St,West Kempsey,2440,Goverment,Primary School,-31.078377000000003,152.8301
2280,Kendall Public School,Logans Crossing Rd,Kendall ,2439,Goverment,Primary School,-31.627391999999997,152.702756
2283,Kensington Public School,77-79 Doncaster Avenue,Kensington,2033,Goverment,Primary School,-33.909603999999995,151.224965
2284,Kenthurst Public School,111 Kenthurst Road,Kenthurst,2156,Goverment,Primary School,-33.665603000000004,151.004575
2285,Kentlyn Public School,Georges River Rd,Campbelltown ,2560,Goverment,Primary School,-34.073132,150.858576
2286,Kentucky Public School,Noalimba Ave,Kentucky ,2354,Goverment,Primary School,-30.759618,151.449162
2293,Kiama Public School,67 Bong Bong Street,Kiama,2533,Goverment,Primary School,-34.669659,150.85056699999998
2303,Kinchela Public School,5 Right Bank Rd,Kinchela ,2440,Goverment,Primary School,-30.991064,152.995063
2304,Kincumber Public School,Avoca Drive,Kincumber ,2251,Goverment,Primary School,-33.468184,151.39435500000002
2307,Kingsgrove Public School,Kingsgrove Rd,Kingsgrove ,2208,Goverment,Primary School,-33.947821999999995,151.10156
2308,Bexley North Public School,116 Kingsland Rd,Bexley ,2207,Goverment,Primary School,-33.940838,151.120374
2310,Kingstown Public School,Bundarra-Bendemeer Rd,Kingstown ,2358,Goverment,Primary School,-30.506681,151.11640500000001
2312,Kingswood Public School,Second Ave,Kingswood ,2747,Goverment,Primary School,-33.765884,150.72650900000002
2314,Kirkton Public School,797 Standen Drive,Belford,2335,Goverment,Primary School,-32.609773,151.290092
2315,Kitchener Public School,38 Richmond Street,Kitchener,2325,Goverment,Primary School,-32.87782,151.369977
2319,Kogarah Public School,Gladstone St,Kogarah ,2217,Goverment,Primary School,-33.962028000000004,151.136618
2326,Koorawatha Public School,Crowther Street,Koorawatha,2807,Goverment,Primary School,-34.034936,148.559705
2327,Kootingal Public School,Denman Avenue,Kootingal,2352,Goverment,Primary School,-31.053487,151.053682
2330,Kororo Public School,3 Korora School Road,Korora,2450,Goverment,Primary School,-30.254553,153.131921
2333,Krambach Public School,3838 Bucketts Way,Krambach ,2429,Goverment,Primary School,-32.046146,152.272293
2334,Kulnura Public School,9 Williams Rd,Kulnura ,2250,Goverment,Primary School,-33.232582,151.216011
2340,Kurmond Public School,494 Bells Line of Road,Kurmond ,2757,Goverment,Primary School,-33.549715,150.692309
2341,Kurnell Public School,Dampier & Torres Sts,Kurnell ,2231,Goverment,Primary School,-34.010156,151.20377299999998
2342,Kurrajong Public School,1111 Grose Vale Rd,Kurrajong ,2758,Goverment,Primary School,-33.555196,150.662653
2343,Kurrajong East Public School,891 East Kurrajong Road,East Kurrajong,2758,Goverment,Primary School,-33.511171999999995,150.77726
2344,Kurrajong North Public School,Bells Line of Road,Kurrajong Hills ,2758,Goverment,Primary School,-33.541815,150.639446
2349,Kyogle Public School,192 Summerland Way,Kyogle ,2474,Goverment,Primary School,-28.625165000000003,153.003916
2353,Ladysmith Public School,Tywong St,Ladysmith ,2652,Goverment,Primary School,-35.208549,147.51096299999998
2354,Laggan Public School,Laggan Rd,Laggan ,2583,Goverment,Primary School,-34.406246,149.52772099999999
2356,Laguna Public School,3738 The Great North Road,Laguna,2325,Goverment,Primary School,-32.992121000000004,151.130526
2357,Lake Albert Public School,Main St,Lake Albert ,2650,Goverment,Primary School,-35.173563,147.37923999999998
2359,Lake Cargelligo Central School,65 Canada Street,Lake Cargelligo,2672,Goverment,Central/Community School,-33.294836,146.373966
2360,Lakemba Public School,Alice St,Lakemba ,2195,Goverment,Primary School,-33.923615000000005,151.070046
2362,Lake Munmorah Public School,Carters Rd,Lake Munmorah,2259,Goverment,Primary School,-33.1882,151.575559
2363,Lake Wyangan Public School,Boorga Rd,Lake Wyangan ,2680,Goverment,Primary School,-34.248183000000004,146.034238
2366,Lambton Public School,18-30 Croudace St,Lambton,2299,Goverment,Primary School,-32.911705,151.704134
2368,Lane Cove Public School,Austin St & Longueville Rd,Lane Cove ,2066,Goverment,Primary School,-33.816514,151.169134
2370,Lansdowne Public School,Cundle Rd & Macquarie St,Lansdowne,2430,Goverment,Primary School,-31.783944,152.532056
2372,Upper Lansdowne Public School,1399 Upper Lansdowne Rd,Upper Lansdowne ,2430,Goverment,Primary School,-31.705206,152.467389
2373,La Perouse Public School,Yarra Rd,La Perouse ,2036,Goverment,Primary School,-33.978352,151.235423
2374,Largs Public School,1-5 Hunter St,Largs ,2320,Goverment,Primary School,-32.700491,151.60564
2375,Larnook Public School,1282 Cawongla Road,Larnook,2480,Goverment,Primary School,-28.648612,153.11476499999998
2377,Laurieton Public School,Bold St,Laurieton ,2443,Goverment,Primary School,-31.651768,152.79749099999998
2378,Lavington Public School,497 Hague St,Lavington ,2641,Goverment,Primary School,-36.037411,146.92826499999998
2379,Lawrence Public School,High St,Lawrence ,2460,Goverment,Primary School,-29.491625,153.100368
2381,Lawson Public School,Adelaide Street,Lawson,2783,Goverment,Primary School,-33.721216999999996,150.42824299999998
2386,Leeton Public School,Mallee St,Leeton,2705,Goverment,Primary School,-34.546126,146.407232
2391,Leura Public School,Cnr Mount Hay Rd & Willow Park Ave,Leura,2780,Goverment,Primary School,-33.711151,150.336733
2394,Lidcombe Public School,Mills Street,Lidcombe ,2141,Goverment,Primary School,-33.861019,151.046926
2395,Lightning Ridge Central School,Kaolin Street,Lightning Ridge,2834,Goverment,Central/Community School,-29.425210999999997,147.978614
2403,Lindfield Public School,Pacific Hwy,Lindfield ,2070,Goverment,Primary School,-33.78075,151.168917
2404,Lindfield East Public School,Tryon Rd,East Lindfield,2070,Goverment,Primary School,-33.767478999999994,151.18429
2407,Lisarow Public School,17 MacDonalds Road,Lisarow,2250,Goverment,Primary School,-33.381283,151.376296
2409,Lismore South Public School,Phyllis St & Wilson St,South Lismore,2480,Goverment,Primary School,-28.809502000000002,153.262056
2410,Lithgow Public School,163 Mort St,Lithgow ,2790,Goverment,Primary School,-33.482092,150.160227
2413,Llandilo Public School,Seventh Ave,Llandilo,2760,Goverment,Primary School,-33.707237,150.75178300000002
2417,Lochinvar Public School,New England Hwy,Lochinvar ,2321,Goverment,Primary School,-32.700305,151.451988
2418,Lockhart Central School,Halliday St,Lockhart ,2656,Goverment,Central/Community School,-35.222753000000004,146.714747
2421,Londonderry Public School,Londonderry Rd,Londonderry ,2753,Goverment,Primary School,-33.647453999999996,150.736905
2423,Long Flat Public School,5077 Oxley Highway,Long Flat,2446,Goverment,Primary School,-31.437822999999998,152.48612
2428,Lowanna Public School,Coramba Rd,Lowanna ,2450,Goverment,Primary School,-30.20722,152.899923
2429,Lowesdale Public School,Riverina Hwy,Lowesdale ,2646,Goverment,Primary School,-35.856229,146.368662
2431,Luddenham Public School,24 Jamison Street,Luddenham,2745,Goverment,Primary School,-33.881331,150.691523
2432,Lue Public School,Swanston St,Lue,2850,Goverment,Primary School,-32.656339,149.844616
2436,Lyndhurst Public School,Marsden St,Lyndhurst ,2797,Goverment,Primary School,-33.673266,149.04491399999998
2439,Macdonald Valley Public School,1331 St Albans Road,Central Macdonald,2775,Goverment,Primary School,-33.321271,150.971993
2444,Macksville Public School,35a Wallace St,Macksville ,2447,Goverment,Primary School,-30.707763,152.917145
2448,Maimuru Public School,Jack Masling Dr,Maimuru ,2594,Goverment,Primary School,-34.243066,148.214319
2451,Maitland East Public School,William St,East Maitland,2323,Goverment,Primary School,-32.748991,151.58525600000002
2454,Malabar Public School,231-239 Franklin Street,Malabar,2036,Goverment,Primary School,-33.962214,151.248559
2460,Mandurama Public School,Loquat St,Mandurama ,2792,Goverment,Primary School,-33.65148,149.069495
2464,Manifold Public School,Lismore-Kyogle Rd,Bentley ,2480,Goverment,Primary School,-28.749066,153.077066
2465,Manildra Public School,2100 Packham Drive,Manildra,2865,Goverment,Primary School,-33.184214000000004,148.700122
2469,Manly West Public School,Griffith St,Balgowlah ,2093,Goverment,Primary School,-33.791875,151.268753
2472,Maraylya Public School,Neich Rd,Maraylya ,2765,Goverment,Primary School,-33.592681,150.91626399999998
2476,Pelican Flat Public School,Karog St,Pelican,2281,Goverment,Primary School,-33.074333,151.648248
2480,Maroota Public School,4540 Old Northern Road,Maroota,2756,Goverment,Primary School,-33.455283,150.99365
2482,Maroubra Bay Public School,Duncan St,Maroubra ,2035,Goverment,Primary School,-33.944236,151.253017
2485,Marrar Public School,Centenary Drive,Marrar ,2652,Goverment,Primary School,-34.828340999999995,147.355155
2489,Marsden Park Public School,363 Garfield Road West,Marsden Park,2765,Goverment,Primary School,-33.696425,150.833642
2492,Martindale Public School,670 Martindale Rd,Martindale,2328,Goverment,Primary School,-32.458834,150.66572299999999
2493,Martins Creek Public School,Cook St,Martins Creek ,2420,Goverment,Primary School,-32.565996000000005,151.623453
2494,Martins Gully Public School,Bona Vista Rd,Armidale ,2350,Goverment,Primary School,-30.523938,151.637256
2496,Marulan Public School,63 George St,Marulan ,2579,Goverment,Primary School,-34.713399,150.006603
2499,Mascot Public School,King St,Mascot ,2020,Goverment,Primary School,-33.928577000000004,151.192485
2500,Mathoura Public School,18-20 Frome Street,Mathoura,2710,Goverment,Primary School,-35.816078999999995,144.902097
2501,Matong Public School,5649 Canola Way,Matong,2652,Goverment,Primary School,-34.770061,146.927303
2502,Matraville Public School,310 Bunnerong Rd,Matraville ,2036,Goverment,Primary School,-33.955064,151.22911100000002
2506,Mayfield East Public School,32 Crebert Street,Mayfield East ,2304,Goverment,Primary School,-32.89536,151.748666
2507,Mayfield West Public School,Gregson Ave,Mayfield ,2304,Goverment,Primary School,-32.888697,151.73011599999998
2508,Mayrung Public School,Mayrung Rd,Deniliquin ,2710,Goverment,Primary School,-35.464317,145.30879
2509,Meadow Flat Public School,2630 Great Western Highway,Meadow Flat,2795,Goverment,Primary School,-33.433726,149.920456
2510,The Meadows Public School,Fuller St,Seven Hills ,2147,Goverment,Primary School,-33.781365,150.942567
2511,Medlow Public School,Taylors Arm Rd,Medlow ,2447,Goverment,Primary School,-30.779087,152.69016000000002
2512,Medowie Public School,Ferodale Rd,Medowie,2318,Goverment,Primary School,-32.738245,151.85406
2515,Megalong Public School,Megalong Valley,Megalong ,2785,Goverment,Primary School,-33.715301000000004,150.232582
2520,Menai Public School,4R Hall Drive,Menai ,2234,Goverment,Primary School,-34.01213,151.00658700000002
2522,Mendooran Central School,Brambil Street,Mendooran,2842,Goverment,Central/Community School,-31.818731,149.122445
2523,Menindee Central School,1 Bear St,Menindee,2879,Goverment,Central/Community School,-32.393368,142.41329
2525,Merewether Public School,6 Henry Street,Merewether,2291,Goverment,Primary School,-32.937546999999995,151.742152
2526,Merimbula Public School,47-55 Main Street,Merimbula,2548,Goverment,Primary School,-36.886525,149.916952
2528,Merriwa Central School,Bow Street,Merriwa,2329,Goverment,Central/Community School,-32.145113,150.352867
2531,Merrylands Public School,Fowler Rd,Merrylands ,2160,Goverment,Primary School,-33.840516,150.976047
2532,Bonnells Bay Public School,Morisset Park Rd,Bonnells Bay ,2264,Goverment,Primary School,-33.114489,151.516783
2540,Michelago Public School,20 Ryrie Street,Michelago,2620,Goverment,Primary School,-35.705975,149.16171599999998
2542,Middle Dural Public School,Old Northern Rd,Middle Dural ,2158,Goverment,Primary School,-33.64496,151.023178
2543,Middle Harbour Public School,8 Hale Rd,Mosman ,2088,Goverment,Primary School,-33.82282,151.2327
2550,Milbrodale Public School,2615 Putty Road,Milbrodale,2330,Goverment,Primary School,-32.696789,151.005819
2554,Millers Forest Public School,127 Martins Wharf Road,Millers Forest,2324,Goverment,Primary School,-32.752067,151.703724
2555,Millfield Public School,Wollombi Rd,Millfield ,2325,Goverment,Primary School,-32.889837,151.250774
2558,Millthorpe Public School,Park St,Millthorpe ,2798,Goverment,Primary School,-33.445146,149.185939
2560,Milperra Public School,Pozieres Ave,Milperra ,2214,Goverment,Primary School,-33.942077000000005,150.979779
2565,Milton Public School,Thomas St,Milton ,2538,Goverment,Primary School,-35.314149,150.435816
2571,Minmi Public School,Woodford St,Minmi ,2287,Goverment,Primary School,-32.876125,151.617471
2572,Minto Public School,Pembroke & Redfern Rds,Minto ,2566,Goverment,Primary School,-34.029979,150.847266
2574,Miranda Public School,3 Sylva Avenue,Miranda,2228,Goverment,Primary School,-34.034645000000005,151.097405
2580,Mitchells Island Public School,1222 Manning Point Rd,Mitchells Island,2430,Goverment,Primary School,-31.896762,152.614054
2581,Mittagong Public School,21 Pioneer St,Mittagong ,2575,Goverment,Primary School,-34.448044,150.44438
2584,Moama Public School,Simms St,Moama ,2731,Goverment,Primary School,-36.115314,144.762821
2585,Modanville Public School,Dunoon Rd,Lismore ,2480,Goverment,Primary School,-28.730203999999997,153.297192
2586,Mogo Public School,Princes Hwy,Mogo ,2536,Goverment,Primary School,-35.786091,150.140569
2590,Molong Central School,Phillip St,Molong ,2866,Goverment,Central/Community School,-33.098011,148.86389
2593,Mona Vale Public School,Waratah St,Mona Vale ,2103,Goverment,Primary School,-33.676998,151.30040400000001
2599,Monteagle Public School,Murringo St,Monteagle ,2594,Goverment,Primary School,-34.192994,148.34725
2608,Moonbi Public School,New England Hwy,Moonbi ,2353,Goverment,Primary School,-31.019752,151.073573
2616,Moorland Public School,15 Church Street,Moorland,2443,Goverment,Primary School,-31.769631,152.651174
2618,Moree Public School,Albert St,Moree ,2400,Goverment,Primary School,-29.466194,149.837564
2621,Morisset Public School,6 Terrigal Street,Morisset,2264,Goverment,Primary School,-33.103543,151.489583
2623,Morpeth Public School,High St,Morpeth ,2321,Goverment,Primary School,-32.725663,151.632128
2624,Mortdale Public School,Colebourne Ave,Mortdale ,2223,Goverment,Primary School,-33.972901,151.080995
2625,Mortlake Public School,Brays Rd,Concord,2137,Goverment,Primary School,-33.849829,151.10386100000002
2628,Moruya Public School,22 Evans St,Moruya ,2537,Goverment,Primary School,-35.912616,150.07645300000001
2631,Moss Vale Public School,Browley St,Moss Vale ,2577,Goverment,Primary School,-34.550639000000004,150.366434
2632,Moulamein Public School,Brougham St,Moulamein ,2733,Goverment,Primary School,-35.08927,144.032816
2637,Mount George Public School,Nowendoc Rd,Mount George ,2424,Goverment,Primary School,-31.880982,152.179633
2640,Mount Hunter Public School,165 Burragorang Rd,Camden ,2570,Goverment,Primary School,-34.07177,150.63643000000002
2641,Mount Kanwary Public School,753 Hinton Rd,Osterley,2324,Goverment,Primary School,-32.724187,151.69914599999998
2642,Mount Keira Public School,255 Mount Keira Rd,Mount Keira ,2500,Goverment,Primary School,-34.411383,150.856224
2643,Mount Kembla Public School,Cordeaux Rd,Mount Kembla ,2526,Goverment,Primary School,-34.432399,150.817114
2647,Mount Pleasant Public School,Goorangoola Rd,Singleton,2330,Goverment,Primary School,-32.408483000000004,151.188781
2648,Mount Pritchard Public School,Meadows Rd,Mount Pritchard ,2170,Goverment,Primary School,-33.899845,150.90000700000002
2652,Mount Victoria Public School,Great Western Hwy,Mount Victoria ,2786,Goverment,Primary School,-33.591334,150.253883
2656,Mudgee Public School,Perry St,Mudgee ,2850,Goverment,Primary School,-32.59594,149.58396399999998
2658,Mulbring Public School,Water St,Mulbring ,2323,Goverment,Primary School,-32.901303999999996,151.47856299999998
2659,Mulgoa Public School,Mulgoa Rd,Mulgoa ,2750,Goverment,Primary School,-33.836504999999995,150.650344
2660,Mullaley Public School,Nombi St,Mullaley ,2379,Goverment,Primary School,-31.098657,149.906668
2662,Mullengandra Public School,Hume Hwy,Mullengandra ,2644,Goverment,Primary School,-35.900061,147.164683
2664,Mullion Creek Public School,45 Long Point Rd,Mullion Creek,2800,Goverment,Primary School,-33.139031,149.120501
2665,Mullumbimby Public School,Morrison Ave,Mullumbimby ,2482,Goverment,Primary School,-28.552011,153.50593700000002
2667,Mulwala Public School,65 Melbourne Street,Mulwala,2647,Goverment,Primary School,-35.987094,146.006624
2668,Clergate Public School,Clergate Lane,Clergate ,2800,Goverment,Primary School,-33.192057,149.112293
2669,Mumbil Public School,Apsley Cres,Mumbil ,2820,Goverment,Primary School,-32.722371,149.052673
2671,Mummulgum Public School,Bruxner Hwy,Mummulgum,2469,Goverment,Primary School,-28.848015000000004,152.801645
2675,Mungindi Central School,Wirrah Street,Mungindi,2406,Goverment,Central/Community School,-28.9802,148.99085
2681,Murringo Public School,91 Murringo Gap Road,Murringo,2586,Goverment,Primary School,-34.297202,148.515471
2685,Murrumburrah Public School,Albury Street,Murrumburrah,2587,Goverment,Primary School,-34.550826,148.35986200000002
2686,Murrurundi Public School,135 Mayne Street,Murrurundi,2338,Goverment,Primary School,-31.762783000000002,150.832187
2687,Murwillumbah Public School,Prince St,Murwillumbah ,2484,Goverment,Primary School,-28.329886,153.39113899999998
2688,Muswellbrook Public School,Roger St,Muswellbrook ,2333,Goverment,Primary School,-32.25843,150.896369
2695,Nabiac Public School,Clarkson Street,Nabiac,2312,Goverment,Primary School,-32.097544,152.381902
2696,Nambucca Heads Public School,Ridge St,Nambucca Heads ,2448,Goverment,Primary School,-30.641695000000002,153.006338
2698,Nana Glen Public School,Coffs Harbour-Grafton Rd,Nana Glen ,2450,Goverment,Primary School,-30.135619000000002,153.006206
2699,Nangus Public School,Gundagai-Junee Rd,Nangus ,2722,Goverment,Primary School,-35.053902,147.909106
2701,Naradhan Public School,Kooba St,Naradhan ,2669,Goverment,Primary School,-33.615639,146.327405
2703,Narara Public School,Newling St,Lisarow ,2250,Goverment,Primary School,-33.387915,151.362616
2704,Narellan Public School,Camden Valley Way,Narellan,2567,Goverment,Primary School,-34.042764,150.733769
2706,Narrabeen Lakes Public School,1299 Pittwater Rd,Narrabeen ,2101,Goverment,Primary School,-33.720323,151.29741299999998
2708,Narrabri Public School,Barwan St,Narrabri ,2390,Goverment,Primary School,-30.324942,149.785252
2709,Narrabri West Public School,6 Cooma Rd,Narrabri ,2390,Goverment,Primary School,-30.344469,149.763906
2710,Narrandera Public School,Adam St,Narrandera ,2700,Goverment,Primary School,-34.744465999999996,146.547854
2713,Narromine Public School,Meryula St,Narromine ,2821,Goverment,Primary School,-32.229903,148.244421
2714,Nashdale Public School,Cargo Rd,Nashdale ,2800,Goverment,Primary School,-33.293794,149.013466
2723,Tomaree Public School,Salamander Way,Salamander Bay,2317,Goverment,Primary School,-32.737699,152.113091
2725,Nemingha Public School,145 Nundle Rd,Nemingha ,2340,Goverment,Primary School,-31.126524,151.004156
2730,Neutral Bay Public School,Ben Boyd Rd,Neutral Bay ,2089,Goverment,Primary School,-33.832609999999995,151.219605
2732,Neville Public School,Crouch St,Neville ,2799,Goverment,Primary School,-33.708658,149.21678400000002
2736,Newcastle East Public School,Tyrrell St,Newcastle ,2300,Goverment,Primary School,-32.930285,151.776915
2738,New Lambton Public School,Regent St,New Lambton ,2305,Goverment,Primary School,-32.922604,151.712784
2740,Newport Public School,Stuart St,Newport ,2106,Goverment,Primary School,-33.660561,151.312237
2741,Newrybar Public School,Pacific Hwy,Newrybar ,2479,Goverment,Primary School,-28.717114000000002,153.53305500000002
2744,Newtown North Public School,Carillon Ave,Newtown ,2042,Goverment,Primary School,-33.891821,151.18539199999998
2748,Niangala Public School,Foster Street,Niangala ,2354,Goverment,Primary School,-31.298040999999998,151.408619
2749,Nicholson Street Public School,Nicholson St,Balmain East ,2041,Goverment,Primary School,-33.855744,151.193188
2751,Nimbin Central School,23a Thorburn St,Nimbin ,2480,Goverment,Central/Community School,-28.595871000000002,153.220891
2752,Nimmitabel Public School,Wolfe Street,Nimmitabel,2631,Goverment,Primary School,-36.510937,149.289599
2758,Narooma Public School,7 Montague St,Narooma ,2546,Goverment,Primary School,-36.218595,150.137335
2759,Nords Wharf Public School,33 Marine Pde,Nords Wharf ,2281,Goverment,Primary School,-33.135816999999996,151.605087
2760,Normanhurst Public School,Normanhurst Rd,Normanhurst ,2076,Goverment,Primary School,-33.723332,151.098026
2761,Northbridge Public School,Sailors Bay Rd,Northbridge ,2063,Goverment,Primary School,-33.813034,151.218597
2763,Northmead Public School,Moxhams Rd,Northmead ,2152,Goverment,Primary School,-33.786511,150.990753
2764,North Rocks Public School,359 North Rocks Rd,North Rocks,2151,Goverment,Primary School,-33.768425,151.025148
2765,North Star Public School,Edward St,North Star ,2408,Goverment,Primary School,-28.926653,150.392891
2766,North Sydney Public School,Bay Rd,Waverton ,2060,Goverment,Primary School,-33.834819,151.203685
2768,Nowendoc Public School,6090 Brackendale Road,Nowendoc,2354,Goverment,Primary School,-31.48295,151.71536
2769,Nowra Public School,74 Plunkett Street,Nowra,2541,Goverment,Primary School,-34.879407,150.60052
2771,Nulkaba Public School,5 O'Connors Road,Nulkaba,2325,Goverment,Primary School,-32.810691,151.34781
2781,Nundle Public School,93-97 Jenkins Street,Nundle ,2340,Goverment,Primary School,-31.459684000000003,151.127429
2784,Nymboida Public School,Armidale Rd,Nymboida ,2460,Goverment,Primary School,-29.947482,152.727964
2785,Nyngan Public School,60 Cathundril St,Nyngan,2825,Goverment,Primary School,-31.568398,147.19525900000002
2789,Oakdale Public School,Burragorang Rd,Oakdale ,2570,Goverment,Primary School,-34.078907,150.508197
2791,Oaklands Central School,Coreen St,Oaklands,2646,Goverment,Central/Community School,-35.552669,146.171768
2793,The Oaks Public School,Burragorang St,The Oaks ,2570,Goverment,Primary School,-34.078385,150.571724
2794,Oakville Public School,46 Ogden Rd,Oakville,2765,Goverment,Primary School,-33.620452,150.87053999999998
2796,Oatley Public School,51-63 Letitia Street,Oatley,2223,Goverment,Primary School,-33.983740999999995,151.080332
2797,Oberon Public School,15 Dart St,Oberon,2787,Goverment,Primary School,-33.703254,149.864517
2798,O'Connell Public School,15 Black's Mill Lane,O'Connell ,2795,Goverment,Primary School,-33.524513,149.720076
2799,Old Bar Public School,David St,Old Bar ,2430,Goverment,Primary School,-31.972339,152.588536
2800,Old Bonalbo Public School,Duck Creek Rd,Old Bonalbo ,2470,Goverment,Primary School,-28.654621999999996,152.597413
2801,Old Guildford Public School,Woodville Rd,Guildford ,2161,Goverment,Primary School,-33.867484000000005,150.98650800000001
2811,Orange East Public School,45 Spring St,Orange ,2800,Goverment,Primary School,-33.282069,149.113698
2812,Orange Grove Public School,Perry St,Leichhardt ,2040,Goverment,Primary School,-33.872278,151.158678
2814,Orara Upper Public School,770 Upper Orara Road,Upper Orara,2450,Goverment,Primary School,-30.289005,153.01324
2815,Orchard Hills Public School,79-101 Kingswood Rd,Orchard Hills ,2748,Goverment,Primary School,-33.783029,150.721365
2818,Otford Public School,Station Rd,Otford ,2508,Goverment,Primary School,-34.212198,151.001507
2820,Ourimbah Public School,121 Pacific Hwy,Ourimbah ,2258,Goverment,Primary School,-33.354915999999996,151.368168
2823,Oxley Island Public School,74 Oxley Island Road,Oxley Island,2430,Goverment,Primary School,-31.912342,152.568571
2826,Padstow Park Public School,Segers Ave,Padstow,2211,Goverment,Primary School,-33.954955,151.03088200000002
2827,Pallamallawa Public School,Centre Street,Pallamallawa,2399,Goverment,Primary School,-29.473894,150.14146399999998
2829,Palmers Island Public School,Maclean-Yamba Rd,Palmers Island,2463,Goverment,Primary School,-29.419566999999997,153.28822
2831,Pambula Public School,25 Oregon St,Pambula ,2549,Goverment,Primary School,-36.925482,149.87181299999997
2835,Parkes Public School,77-85 Currajong St,Parkes ,2870,Goverment,Primary School,-33.132290000000005,148.176314
2838,Parklea Public School,Glenwood Park Drive,Glenwood,2768,Goverment,Primary School,-33.725885,150.93476
2840,Parramatta Public School,177 Macquarie Street,Parramatta,2150,Goverment,Primary School,-33.815709999999996,151.007732
2841,Wooli Public School,Main St,Wooli ,2462,Goverment,Primary School,-29.870922999999998,153.265781
2842,Parramatta North Public School,Albert St,North Parramatta,2151,Goverment,Primary School,-33.803951,151.004694
2843,Parramatta West Public School,Auburn & Young Sts,Parramatta ,2150,Goverment,Primary School,-33.824472,150.99096799999998
2844,Paterson Public School,Webbers Creek Rd,Paterson ,2421,Goverment,Primary School,-32.602294,151.61231899999999
2846,Paxton Public School,20 Anderson Ave,Paxton ,2325,Goverment,Primary School,-32.900993,151.284621
2848,Peak Hill Central School,Caswell St,Peak Hill ,2869,Goverment,Central/Community School,-32.728854999999996,148.192111
2849,Peakhurst Public School,Bonds Rd,Peakhurst,2210,Goverment,Primary School,-33.955402,151.062306
2852,Peats Ridge Public School,1231 Peats Ridge Road,Peats Ridge,2250,Goverment,Primary School,-33.325841,151.23275
2855,Pelaw Main Public School,Abermain St,Pelaw Main ,2327,Goverment,Primary School,-32.831922999999996,151.48474299999998
2857,Pennant Hills Public School,Ramsay & Weemala Rds,Pennant Hills ,2120,Goverment,Primary School,-33.7358,151.068058
2858,West Pennant Hills Public School,Church St,West Pennant Hills ,2125,Goverment,Primary School,-33.746075,151.050491
2859,Penrith Public School,51 High St,Penrith ,2750,Goverment,Primary School,-33.755926,150.70439
2860,Penrose Public School,Penrose Rd,Penrose,2579,Goverment,Primary School,-34.669731,150.221344
2861,Penshurst Public School,Arcadia St,Penshurst ,2222,Goverment,Primary School,-33.962635999999996,151.087702
2862,Perthville Public School,Rockley St,Perthville ,2795,Goverment,Primary School,-33.491052,149.550052
2867,Picton Public School,Lumsdaine St,Picton ,2571,Goverment,Primary School,-34.17624,150.609346
2870,Pilliga Public School,Dangar St,Pilliga ,2388,Goverment,Primary School,-30.352248,148.889152
2884,Pitt Town Public School,Buckingham St,Pitt Town ,2756,Goverment,Primary School,-33.583887,150.859638
2886,Pleasant Hills Public School,Crawford Street,Pleasant Hills,2658,Goverment,Primary School,-35.46651,146.79851200000002
2887,Plumpton Public School,Bottles Rd,Plumpton ,2761,Goverment,Primary School,-33.749158,150.838556
2890,The Pocket Public School,The Pocket Rd,The Pocket,2483,Goverment,Primary School,-28.505414000000002,153.47911200000001
2893,Pomona Public School,West Bank Darling River Pomona Rd,Pomona,2648,Goverment,Primary School,-34.025726,141.89493000000002
2896,Port Kembla Public School,Gloucester Boulevard,Port Kembla ,2505,Goverment,Primary School,-34.486090000000004,150.914724
2897,Portland Central School,14 Vale Street,Portland,2847,Goverment,Central/Community School,-33.354772,149.979653
2899,Port Macquarie Public School,Grant St,Port Macquarie ,2444,Goverment,Primary School,-31.429869,152.913872
2900,Premer Public School,Ellerslie St,Premer ,2381,Goverment,Primary School,-31.453553000000003,149.900481
2901,Prestons Public School,Kurrajong & Box Rds,Prestons ,2170,Goverment,Primary School,-33.94642,150.889961
2902,Pretty Beach Public School,4 Pretty Beach Road,Pretty Beach,2257,Goverment,Primary School,-33.528039,151.350019
2904,Primbee Public School,43 Illowra Cres,Primbee,2502,Goverment,Primary School,-34.501421,150.882302
2910,Punchbowl Public School,1333 Canterbury Road,Punchbowl,2196,Goverment,Primary School,-33.930613,151.055905
2913,Putney Public School,Morrison Rd,Ryde ,2112,Goverment,Primary School,-33.824562,151.110973
2917,Quaama Public School,48 Cobargo St,Quaama ,2550,Goverment,Primary School,-36.464226000000004,149.86705
2918,Quakers Hill Public School,Medlow Drive,Quakers Hill ,2763,Goverment,Primary School,-33.737466999999995,150.885265
2919,Quambone Public School,Mungi Mungi St,Quambone ,2831,Goverment,Primary School,-30.930706,147.872001
2920,Quandialla Public School,Third St,Quandialla ,2721,Goverment,Primary School,-34.010362,147.790454
2922,Queanbeyan Public School,Isabella St,Queanbeyan ,2620,Goverment,Primary School,-35.357526,149.236154
2926,Leppington Public School,Rickard Rd,Leppington,2179,Goverment,Primary School,-33.959269,150.810901
2927,Raglan Public School,Nelson St,Raglan ,2795,Goverment,Primary School,-33.428034000000004,149.648098
2930,Rainbow Street Public School,90-98 Rainbow Street,Randwick,2031,Goverment,Primary School,-33.924647,151.23716399999998
2931,Raleigh Public School,North St,Raleigh ,2454,Goverment,Primary School,-30.450064,153.012586
2933,Rand Public School,Cowal St,Rand ,2642,Goverment,Primary School,-35.596087,146.580442
2935,Rankins Springs Public School,Boree St,Rankins Springs ,2669,Goverment,Primary School,-33.83998,146.258245
2937,Rappville Public School,Lyons Street,Rappville,2469,Goverment,Primary School,-29.085815000000004,152.95533
2943,Raymond Terrace Public School,Adelaide St,Raymond Terrace ,2324,Goverment,Primary School,-32.767016,151.74001
2946,Redhead Public School,Hutchinson St,Redhead ,2290,Goverment,Primary School,-33.011646,151.711425
2948,Red Range Public School,Grafton Street,Red Range,2370,Goverment,Primary School,-29.776132,151.897373
2950,Regents Park Public School,1 Auburn Rd,Regents Park ,2143,Goverment,Primary School,-33.885518,151.02469299999998
2951,Regentville Public School,28-34 Schoolhouse Rd,Regentville ,2745,Goverment,Primary School,-33.77728,150.66831100000002
2955,Repton Public School,River St,Repton ,2454,Goverment,Primary School,-30.446021000000002,153.02903700000002
2958,Revesby Public School,Victoria St,Revesby ,2212,Goverment,Primary School,-33.944449,151.017145
2965,Richmond North Public School,Grose Vale Rd,North Richmond,2754,Goverment,Primary School,-33.580591,150.716871
2968,The Risk Public School,Kyogle-Woodenbong Rd,The Risk ,2474,Goverment,Primary School,-28.476943,152.93397
2970,Riverstone Public School,Elizabeth St,Riverstone,2765,Goverment,Primary School,-33.678387,150.871019
2971,Robertson Public School,(PO Box 3121)47-53 Hoddle Street,Robertson,2577,Goverment,Primary School,-34.589625,150.59248300000002
2973,Rockdale Public School,Lord St,Rockdale ,2216,Goverment,Primary School,-33.952626,151.141681
2974,Rockley Public School,Hill St,Rockley ,2795,Goverment,Primary School,-33.69193,149.562554
2976,The Rock Central School,Ford St,The Rock ,2655,Goverment,Central/Community School,-35.266335,147.115239
2980,Whian Whian Public School,Whian Whian Rd,Whian Whian ,2480,Goverment,Primary School,-28.638212,153.314317
2983,Rocky River Public School,Uralla-Bundarra Rd,Uralla ,2358,Goverment,Primary School,-30.612856,151.49178799999999
2985,Rollands Plains Upper Public School,719 Upper Rollands Plains Rd,Rollands Plains ,2441,Goverment,Primary School,-31.239302000000002,152.631805
2987,Rosebank Public School,Lismore-Mullumbimby Rd,Rosebank ,2480,Goverment,Primary School,-28.678335999999998,153.388262
2988,Rose Bay Public School,Albemarle Ave,Rose Bay ,2029,Goverment,Primary School,-33.873011,151.270962
2994,Roseville Public School,Archbold Rd,Roseville ,2069,Goverment,Primary School,-33.781883,151.18866599999998
2996,Rosewood Public School,Humula St,Rosewood ,2652,Goverment,Primary School,-35.670202,147.86083200000002
2997,Ross Hill Public School,Andrew St,Inverell,2360,Goverment,Primary School,-29.770176,151.10309099999998
2999,Rossmore Public School,Bringelly Rd,Rossmore ,2171,Goverment,Primary School,-33.946493,150.770857
3006,Rous Public School,Rous Mill Rd,Alstonville ,2477,Goverment,Primary School,-28.870683000000003,153.406624
3008,Rouse Hill Public School,Clower Ave,Rouse Hill ,2155,Goverment,Primary School,-33.679219,150.920985
3012,Rugby Public School,Boorowa-Crookwell Rd,Rugby ,2583,Goverment,Primary School,-34.392245,148.992695
3013,Rukenvale Public School,2303 Summerland Way,Rukenvale ,2474,Goverment,Primary School,-28.468321000000003,152.894396
3020,Rydalmere Public School,397 Victoria Road,Rydalmere,2116,Goverment,Primary School,-33.814316999999996,151.044705
3021,Ryde Public School,Pope St,Ryde,2112,Goverment,Primary School,-33.812552000000004,151.108015
3022,North Ryde Public School,Coxs Rd,North Ryde ,2113,Goverment,Primary School,-33.794765999999996,151.12004199999998
3023,West Ryde Public School,Endeavour St,West Ryde ,2114,Goverment,Primary School,-33.808363,151.085097
3024,Rye Park Public School,Dalton Rd,Rye Park ,2586,Goverment,Primary School,-34.521629,148.906651
3025,Rylstone Public School,25-27 Mudgee Street,Rylstone,2849,Goverment,Primary School,-32.795564,149.972877
3029,St Johns Park Public School,Sandringham St,St Johns Park ,2176,Goverment,Primary School,-33.887204,150.899278
3031,St Marys Public School,Princess Mary St,St Marys ,2760,Goverment,Primary School,-33.768364,150.770634
3032,St Peters Public School,Church St,St Peters ,2044,Goverment,Primary School,-33.912993,151.176696
3035,Salt Ash Public School,4 Salt Ash Avenue,Salt Ash,2318,Goverment,Primary School,-32.787841,151.903848
3038,Sans Souci Public School,Rocky Point Rd,Sans Souci ,2219,Goverment,Primary School,-33.99499,151.12923
3041,Savernake Public School,Riverina Hwy,Savernake,2646,Goverment,Primary School,-35.732197,146.04756899999998
3042,Sawtell Public School,32-36 Eleventh Ave,Sawtell ,2452,Goverment,Primary School,-30.363315999999998,153.09763999999998
3045,Scarborough Public School,Lawrence Hargrave Drive,Scarborough ,2515,Goverment,Primary School,-34.266182,150.966036
3046,Schofields Public School,St Albans Rd,Schofields ,2762,Goverment,Primary School,-33.693115,150.875247
3048,Seaham Public School,Still St,Seaham ,2324,Goverment,Primary School,-32.662095,151.729362
3053,Seven Hills North Public School,45 Beethoven St,Seven Hills ,2147,Goverment,Primary School,-33.759976,150.955041
3060,Shellharbour Public School,Mary St,Shellharbour ,2529,Goverment,Primary School,-34.578967999999996,150.86510900000002
3065,Shortland Public School,Sandgate Rd,Shortland ,2307,Goverment,Primary School,-32.881434999999996,151.69506299999998
3070,Singleton Public School,Hunter St,Singleton ,2330,Goverment,Primary School,-32.563134999999996,151.171752
3073,Smithfield Public School,O Connell St,Smithfield ,2164,Goverment,Primary School,-33.853583,150.933495
3075,Smithtown Public School,Cannane St,Smithtown ,2440,Goverment,Primary School,-31.018188000000002,152.941365
3077,Sofala Public School,Turon Terrace,Sofala ,2795,Goverment,Primary School,-33.082242,149.69517199999999
3078,Somersby Public School,Wisemans Ferry Rd,Gosford ,2250,Goverment,Primary School,-33.358368,151.291312
3079,Somerton Public School,Milkmaid St,Somerton ,2340,Goverment,Primary School,-30.938432000000002,150.641556
3083,South West Rocks Public School,Gregory Street,South West Rocks,2431,Goverment,Primary School,-30.891502000000003,153.039879
3089,Spring Hill Public School,Seaton Street,Spring Hill ,2800,Goverment,Primary School,-33.399574,149.151294
3091,Spring Ridge Public School,Darby Rd,Spring Ridge ,2343,Goverment,Primary School,-31.392398999999997,150.254649
3093,Spring Terrace Public School,573 Forest Rd,Spring Terrace,2798,Goverment,Primary School,-33.393976,149.097369
3095,Springwood Public School,Burns Rd,Springwood ,2777,Goverment,Primary School,-33.704613,150.573472
3103,Stanwell Park Public School,Stanwell Ave,Stanwell Park ,2508,Goverment,Primary School,-34.228715,150.98453600000002
3104,Warrawong Public School,127 Cowper Street,Warrawong,2502,Goverment,Primary School,-34.481367,150.877847
3109,Stockinbingal Public School,Britannia St,Stockinbingal ,2725,Goverment,Primary School,-34.497611,147.883065
3110,Stockton Public School,10 Clyde St,Stockton ,2295,Goverment,Primary School,-32.910956,151.781095
3112,Stokers Siding Public School,Old Pacific Hwy,Stokers Siding ,2484,Goverment,Primary School,-28.393822999999998,153.404371
3119,Stratford Public School,Bucketts Way,Stratford ,2422,Goverment,Primary School,-32.116884999999996,151.93922
3122,Stratheden Public School,710 Stratheden Rd,Stratheden ,2470,Goverment,Primary School,-28.755713,152.937222
3123,Strathfield North Public School,251 Concord Rd,North Strathfield ,2137,Goverment,Primary School,-33.854531,151.09204
3124,Strathfield South Public School,457 Liverpool Road,Strathfield,2135,Goverment,Primary School,-33.89078,151.084702
3125,Stroud Public School,Erin St,Stroud ,2425,Goverment,Primary School,-32.402533,151.964239
3126,Stroud Road Public School,Bucketts Way,Stroud Road ,2415,Goverment,Primary School,-32.347986,151.932369
3127,Stuart Town Public School,Burrendong Way,Stuart Town ,2820,Goverment,Primary School,-32.802566,149.068273
3129,Summer Hill Public School,Moonbie St,Summer Hill ,2130,Goverment,Primary School,-33.895815,151.135853
3136,Sutherland Public School,38-54 Eton Street,Sutherland,2232,Goverment,Primary School,-34.033001,151.059149
3137,Sutton Public School,Bywong St,Sutton ,2620,Goverment,Primary School,-35.165611,149.254979
3141,Swansea Public School,Rawson St,Swansea ,2281,Goverment,Primary School,-33.084061,151.636301
3143,Sylvania Public School,Princes Hwy,Sylvania ,2224,Goverment,Primary School,-34.008117999999996,151.112077
3145,Tabulam Public School,Clarence St,Tabulam,2469,Goverment,Primary School,-28.888648999999997,152.568703
3147,Tacoma Public School,Hillcrest Ave,Tacoma ,2259,Goverment,Primary School,-33.28298,151.45893600000002
3148,Tahmoor Public School,Bronzewing St,Tahmoor ,2573,Goverment,Primary School,-34.227663,150.588951
3153,Tallimba Public School,Kikoira St,Tallimba ,2669,Goverment,Primary School,-33.993586,146.877792
3154,Tallong Public School,Bumballa St,Tallong,2579,Goverment,Primary School,-34.721496,150.083341
3156,Tambar Springs Public School,Mullaley-Coolah Rd,Tambar Springs ,2381,Goverment,Primary School,-31.348351,149.827874
3157,Tamworth Public School,Napier St,Tamworth ,2340,Goverment,Primary School,-31.084712,150.935305
3158,Tamworth West Public School,Bridge St,West Tamworth ,2340,Goverment,Primary School,-31.09158,150.920563
3159,Tanja Public School,Barrabooka Rd,Tanja ,2550,Goverment,Primary School,-36.64029,149.97507199999998
3162,Tarago Public School,Goulburn-Braidwood Rd,Tarago ,2580,Goverment,Primary School,-35.067671000000004,149.654751
3163,Taralga Public School,Orchard St,Taralga ,2580,Goverment,Primary School,-34.397974,149.820962
3165,Tarcutta Public School,Centenary Ave,Tarcutta ,2652,Goverment,Primary School,-35.279294,147.738339
3167,Taree Public School,Albert St,Taree ,2430,Goverment,Primary School,-31.910904,152.46215800000002
3168,Taren Point Public School,93 Woodlands Rd,Taren Point,2229,Goverment,Primary School,-34.01808,151.12268999999998
3173,Tathra Public School,Bega St,Tathra ,2550,Goverment,Primary School,-36.732802,149.979602
3175,Tea Gardens Public School,Witt St,Tea Gardens ,2324,Goverment,Primary School,-32.667784999999995,152.15799099999998
3176,Telegraph Point Public School,Pacific Hwy,Telegraph Point ,2441,Goverment,Primary School,-31.334143,152.793129
3178,Temora Public School,De Boos St,Temora ,2666,Goverment,Primary School,-34.444843,147.53526499999998
3180,Tenambit Public School,Edward St,Tenambit ,2323,Goverment,Primary School,-32.742528,151.604859
3182,The Sir Henry Parkes Memorial Public School,75-79 Wood Street,Tenterfield,2372,Goverment,Primary School,-29.056081,152.026106
3183,Teralba Public School,York St,Teralba ,2284,Goverment,Primary School,-32.962493,151.605976
3185,Terara Public School,Millbank Rd,Terara ,2540,Goverment,Primary School,-34.866633,150.63038
3189,Terranora Public School,650 Terranora Rd,Terranora ,2486,Goverment,Primary School,-28.240247999999998,153.499272
3190,Terrey Hills Public School,Cooyong Rd,Terrey Hills ,2084,Goverment,Primary School,-33.685722999999996,151.22261899999998
3191,Terrigal Public School,Havenview Rd,Terrigal ,2260,Goverment,Primary School,-33.442448999999996,151.438197
3195,Tharbogang Public School,75 Braithwaite Rd,Tharbogang ,2680,Goverment,Primary School,-34.26162,145.98492199999998
3200,Thirlmere Public School,Oaks Rd,Thirlmere ,2572,Goverment,Primary School,-34.204832,150.569311
3201,Thirroul Public School,Roxburgh Ave,Thirroul,2515,Goverment,Primary School,-34.31521,150.918701
3204,Thornton Public School,Government Rd,Thornton ,2322,Goverment,Primary School,-32.779381,151.639454
3208,Thurgoona Public School,Bottlebrush St,Thurgoona ,2640,Goverment,Primary School,-36.047283,146.98328899999998
3211,Tibooburra Outback Public School,Briscoe St,Tibooburra ,2880,Goverment,Primary School,-29.432133,142.010166
3213,Tighes Hill Public School,Elizabeth St,Tighes Hill ,2297,Goverment,Primary School,-32.908099,151.75125400000002
3214,Central Tilba Public School,89 Corkhill Drive,Central Tilba ,2546,Goverment,Primary School,-36.315664,150.07193999999998
3218,Tingha Public School,54 Ruby St,Tingha ,2369,Goverment,Primary School,-29.959145,151.213606
3219,Tinonee Public School,Manchester St,Tinonee ,2430,Goverment,Primary School,-31.932855,152.413577
3221,Tintinhull Public School,85 Tintinhull Road,Kootingal ,2352,Goverment,Primary School,-31.085665000000002,151.008427
3222,Tirranna Public School,Goulburn-Braidwood Rd,Goulburn ,2580,Goverment,Primary School,-34.821486,149.682068
3225,Tocumwal Public School,18-20 Morris St,Tocumwal,2714,Goverment,Primary School,-35.813862,145.56885
3226,Tomerong Public School,355 Hawkens Rd,Tomerong ,2540,Goverment,Primary School,-35.054973,150.587182
3235,Tooleybuc Central School,Murray St,Tooleybuc ,2736,Goverment,Central/Community School,-35.026575,143.33805800000002
3236,Main Arm Upper Public School,1129 Main Arm Rd,Upper Main Arm,2482,Goverment,Primary School,-28.498479,153.41241000000002
3239,Toomelah Public School,off Old Bruxner Hwy,Boggabilla ,2409,Goverment,Primary School,-28.670903000000003,150.478952
3240,Toongabbie Public School,Fitzwilliam Rd,Toongabbie ,2146,Goverment,Primary School,-33.787181,150.966667
3242,Tooraweenah Public School,Bridge St,Tooraweenah ,2831,Goverment,Primary School,-31.434763,148.912216
3247,Toronto Public School,Renwick St,Toronto ,2283,Goverment,Primary School,-33.00826,151.594778
3249,Tottenham Central School,Merilba St,Tottenham ,2873,Goverment,Central/Community School,-32.245635,147.3521
3250,Toukley Public School,Main Rd,Toukley ,2263,Goverment,Primary School,-33.267795,151.550307
3252,Towamba Public School,Towamba St,Towamba ,2550,Goverment,Primary School,-37.084209,149.69515800000002
3254,Trangie Central School,Derribong St,Trangie ,2823,Goverment,Central/Community School,-32.032544,147.979305
3255,Tregeagle Public School,808 Tregeagle Road,Tregeagle,2480,Goverment,Primary School,-28.854095,153.35441200000002
3259,Trundle Central School,Croft St,Trundle ,2875,Goverment,Central/Community School,-32.925365,147.709198
3260,Trunkey Public School,Carlyle Street,Trunkey Creek,2795,Goverment,Primary School,-33.816497999999996,149.326253
3263,Tucabia Public School,Mookin St,Tucabia ,2462,Goverment,Primary School,-29.666697999999997,153.106575
3269,Tuggerah Public School,1 Pacific Hwy,Tuggerah,2259,Goverment,Primary School,-33.312999,151.415571
3270,Tullamore Central School,Hinkler Street,Tullamore,2874,Goverment,Central/Community School,-32.636788,147.565993
3272,Tullibigeal Central School,Kurrajong St,Tullibigeal ,2669,Goverment,Central/Community School,-33.422886,146.722678
3275,Tumbarumba Public School,Murray St,Tumbarumba ,2653,Goverment,Primary School,-35.77635,148.013814
3277,Tumbulgum Public School,Fawcett St,Tumbulgum ,2490,Goverment,Primary School,-28.273996999999998,153.463358
3278,Tumut Public School,175-181 Wynyard St,Tumut,2720,Goverment,Primary School,-35.302393,148.218556
