id,school_name,school_address,suburb,postcode,school_lat,school_lon,Category,Subtype,school_type,sector
102,East Murray Area School,1182 East Murray Area School Road,Mindarie,5309,-34.815955,140.216073,SCHL,AREA,Area Schools,DEPT
104,Coromandel Valley Primary School,339 Main Road,Coromandel Valley,5051,-35.033562,138.626758,SCHL,PS,Primary Schools,DEPT
105,Glossop High School Senior Campus,50 Burgess Drive,Berri,5343,-34.27940174,140.61287958,SCHL,HIGH,High/Secondary Schools,DEPT
106,Cowandilla Primary School,21 Jenkins Street,Cowandilla,5033,-34.934543,138.558874,SCHL,PS,Primary Schools,DEPT
107,Crafers Primary School,55 Piccadilly Road,Crafers,5152,-34.993387,138.71348,SCHL,PS,Primary Schools,DEPT
111,Crystal Brook Primary School,7 Mitchell Street,Crystal Brook,5523,-33.352948,138.213543,SCHL,PS,Primary Schools,DEPT
114,Curramulka Primary School,Sixth Street,Curramulka,5580,-34.695502,137.713697,SCHL,PS,Primary Schools,DEPT
116,Murray Bridge Special School,1 North Terrace,Murray Bridge,5253,-35.115681,139.269869,SCHL,SPPRM,Primary Special Schools,DEPT
120,Gilles Street Primary School,91 Gilles Street,Adelaide,5000,-34.93449,138.604464,SCHL,PS,Primary Schools,DEPT
123,Echunga Primary School,802 Echunga Road,Echunga,5153,-35.097706,138.79085,SCHL,PS,Primary Schools,DEPT
124,Eden Hills Primary School,78 Wilpena Street,Eden Hills,5050,-35.020546,138.595317,SCHL,PS,Primary Schools,DEPT
127,Edwardstown Primary School,Maria Street,Melrose Park,5039,-34.978729,138.57801,SCHL,PS,Primary Schools,DEPT
128,Elliston Area School,Flinders Highway,Elliston,5670,-33.644153,134.892451,SCHL,AREA,Area Schools,DEPT
131,Norwood Primary School,37 Osmond Terrace,Norwood,5067,-34.91953508,138.63164129,SCHL,PS,Primary Schools,DEPT
135,Flinders Park Primary School,70 Holbrooks Road,Flinders Park,5025,-34.911103,138.54754,SCHL,PS,Primary Schools,DEPT
136,Lenswood Primary School,1554 Lobethal Road,Lenswood,5240,-34.921667,138.824005,SCHL,PS,Primary Schools,DEPT
138,Frances Primary School,23 Barrett Road,Frances,5262,-36.708483,140.956465,SCHL,PS,Primary Schools,DEPT
139,Freeling Primary School,Coulls Street,Freeling,5372,-34.457881,138.811701,SCHL,PS,Primary Schools,DEPT
141,Gawler Primary School,School Road,Gawler,5118,-34.597541,138.740692,SCHL,PS,Primary Schools,DEPT
142,Evanston Gardens Primary School,71 Angle Vale Road,Evanston Gardens,5116,-34.623986,138.720025,SCHL,PS,Primary Schools,DEPT
145,Geranium Primary School,1-3 Geranium Terrace,Geranium,5301,-35.378728,140.160067,SCHL,PS,Primary Schools,DEPT
146,Windsor Gardens B-12 Beatty Ave Camp,Beatty Avenue,Hillcrest,5086,-34.858428,138.651763,SCHL,PS,Primary Schools,DEPT
147,Gladstone Primary School,2 West Terrace,Gladstone,5473,-33.266137,138.350584,SCHL,PS,Primary Schools,DEPT
148,Glenburnie Primary School,36 Kromelite Road,Glenburnie,5291,-37.84041,140.863876,SCHL,PS,Primary Schools,DEPT
152,Glen Osmond Primary School,5 Fisher Street,Myrtle Bank,5064,-34.957051,138.637255,SCHL,PS,Primary Schools,DEPT
153,Glossop Primary Community School K-7,Mitchell Terrace,Glossop,5344,-34.271342,140.524768,SCHL,PS,Primary Schools,DEPT
156,Goodwood Primary School,140 Goodwood Road,Goodwood,5034,-34.951434,138.588694,SCHL,PS,Primary Schools,DEPT
157,Goolwa Primary School,Gardiner Street,Goolwa,5214,-35.497553,138.780252,SCHL,PS,Primary Schools,DEPT
160,Greenock Primary School,Bevan Street,Greenock,5360,-34.459939,138.921793,SCHL,PS,Primary Schools,DEPT
162,Gumeracha Primary School,Albert Street,Gumeracha,5233,-34.824981,138.880956,SCHL,PS,Primary Schools,DEPT
163,Hahndorf Primary School,12 Church Street,Hahndorf,5245,-35.027625,138.810629,SCHL,PS,Primary Schools,DEPT
167,Hamley Bridge Primary School,13 Florence Street,Hamley Bridge,5401,-34.354549,138.684929,SCHL,PS,Primary Schools,DEPT
169,Rose Park Primary School,54 Alexandra Avenue,Rose Park,5067,-34.93161,138.628893,SCHL,PS,Primary Schools,DEPT
171,Happy Valley Primary School,18 Education Road,Happy Valley,5159,-35.087062,138.583603,SCHL,PS,Primary Schools,DEPT
175,Hawker Area School,Arkaba Street,Hawker,5434,-31.89042,138.427892,SCHL,AREA,Area Schools,DEPT
176,Heathfield Primary School,201 Longwood Road,Heathfield,5153,-35.03002,138.727311,SCHL,PS,Primary Schools,DEPT
177,Henley Beach Primary School,38 Hazel Terrace,Henley Beach South,5022,-34.929734,138.499429,SCHL,PS,Primary Schools,DEPT
179,North Adelaide Primary School,62-80 Tynte Street,North Adelaide,5006,-34.905096,138.597558,SCHL,PS,Primary Schools,DEPT
194,Jervois Primary School,Rayson Street,Jervois,5259,-35.266177,139.437094,SCHL,PS,Primary Schools,DEPT
195,Youth Education Centre,26-56 Goldsborough Road,Cavan,5094,-34.828265,138.60253,SCHL,ALTSC,Alternative Prim/Sec Schools,DEPT
197,Kalangadoo Primary School,48B Kangaroo Flat Road,Kalangadoo,5278,-37.564684,140.695568,SCHL,PS,Primary Schools,DEPT
198,Kangarilla Primary School,33-35 McLaren Flat Road,Kangarilla,5157,-35.147815,138.659484,SCHL,PS,Primary Schools,DEPT
200,Kapunda Primary School,Mildred Street,Kapunda,5373,-34.337951,138.918029,SCHL,PS,Primary Schools,DEPT
202,Alberton Primary School,14 Broad Street,Queenstown,5014,-34.862675,138.51264,SCHL,PS,Primary Schools,DEPT
204,Kersbrook Primary School,Bowden Street,Kersbrook,5231,-34.782306,138.849719,SCHL,PS,Primary Schools,DEPT
205,Keyneton Primary School,Henschke Road,Keyneton,5353,-34.554333,139.1338,SCHL,PS,Primary Schools,DEPT
207,Kilkenny Primary School,Jane Street,West Croydon,5008,-34.890764,138.552731,SCHL,PS,Primary Schools,DEPT
209,Kingston-on-Murray Primary School,East Terrace,Kingston on Murray,5331,-34.222619,140.346866,SCHL,PS,Primary Schools,DEPT
210,Aldgate Primary School,3 Fairview Road,Aldgate,5154,-35.019502,138.748939,SCHL,PS,Primary Schools,DEPT
211,Kongorong Primary School,34 School Road,Kongorong,5291,-37.902241,140.560875,SCHL,PS,Primary Schools,DEPT
212,Koolunga Primary School,N/A,Koolunga,5464,-33.580835,138.335026,SCHL,PS,Primary Schools,DEPT
214,Mid North Education Centre,David Street,Port Pirie,5540,-33.17503,138.005415,SCHL,SPPS,Primary/Secondary Special Schools,DEPT
218,Eastern Fleur Langhorne Creek Campus,Wellington Road,Langhorne Creek,5255,-35.296945,139.035993,SCHL,PS,Primary Schools,DEPT
219,Largs Bay School,215 Fletcher Road,Largs Bay,5016,-34.823557,138.49427,SCHL,PS,Primary Schools,DEPT
220,Laura Primary School,East Terrace,Laura,5480,-33.187073,138.303714,SCHL,PS,Primary Schools,DEPT
221,Le Fevre Peninsula Primary School,Shorney Street,Birkenhead,5015,-34.840072,138.495412,SCHL,PS,Primary Schools,DEPT
222,Aldinga Beach B-7 School,Quinliven Road,Aldinga,5173,-35.268942,138.461849,SCHL,PS,Primary Schools,DEPT
223,Light Pass Primary School,395 Light Pass Road,Light Pass,5355,-34.46919,139.025019,SCHL,PS,Primary Schools,DEPT
225,Littlehampton Primary School,16-30 Baker Street,Littlehampton,5250,-35.049605,138.868025,SCHL,PS,Primary Schools,DEPT
227,Lobethal Primary School,1 School Road,Lobethal,5241,-34.90169,138.871723,SCHL,PS,Primary Schools,DEPT
230,Lock Area School,West Terrace,Lock,5633,-33.567909,135.753344,SCHL,AREA,Area Schools,DEPT
231,Lockleys Primary School,29 Elston Street,Brooklyn Park,5032,-34.930203,138.535095,SCHL,PS,Primary Schools,DEPT
237,Lyndoch Primary School,Margaret Street,Lyndoch,5351,-34.60554,138.885678,SCHL,PS,Primary Schools,DEPT
239,Macclesfield Primary School,Luck Street,Macclesfield,5153,-35.171357,138.838503,SCHL,PS,Primary Schools,DEPT
241,Mallala Primary School,28 Owen Road,Mallala,5502,-34.434716,138.510526,SCHL,PS,Primary Schools,DEPT
242,Angaston Primary School,5 Moculta Road,Angaston,5353,-34.499092,139.050833,SCHL,PS,Primary Schools,DEPT
245,Manoora Primary School,3 Weymouth Street,Manoora,5414,-34.006284,138.814121,SCHL,PS,Primary Schools,DEPT
248,Marree Aboriginal School,First Street,Marree,5733,-29.649196,138.061033,SCHL,ABSCH,Aboriginal Schools,DEPT
249,Marryatville Primary School,Dankel Avenue,Kensington,5068,-34.924542,138.649185,SCHL,PS,Primary Schools,DEPT
250,McLaren Flat Primary School,49 Main Road,McLaren Flat,5171,-35.206109,138.587206,SCHL,PS,Primary Schools,DEPT
251,McLaren Vale Primary School,Caffrey Street,McLaren Vale,5171,-35.211634,138.531402,SCHL,PS,Primary Schools,DEPT
252,Meadows Primary School,Mawson Road,Meadows,5201,-35.180498,138.761924,SCHL,PS,Primary Schools,DEPT
253,Melrose Primary School,29 Stuart Street,Melrose,5483,-32.823832,138.187995,SCHL,PS,Primary Schools,DEPT
255,Angle Vale Primary School,Heaslip Road,Angle Vale,5117,-34.643388,138.647377,SCHL,PS,Primary Schools,DEPT
262,Eastern Fleurieu Milang Campus,Cnr Coxe & Rivers Streets,Milang,5256,-35.405862,138.973123,SCHL,PS,Primary Schools,DEPT
265,Mil Lel Primary School,465 Kennedy Avenue,Mil-Lel,5291,-37.781125,140.825631,SCHL,PS,Primary Schools,DEPT
270,Mitcham Primary School,Hillview Road,Kingswood,5062,-34.972879,138.616131,SCHL,PS,Primary Schools,DEPT
272,Modbury School Preschool to Year 7,2-18 Golden Grove Road,Modbury North,5092,-34.825905,138.692227,SCHL,PS,Primary Schools,DEPT
274,Monash Primary School,22 Jackson Street,Monash,5342,-34.236306,140.559419,SCHL,PS,Primary Schools,DEPT
279,Moorak Primary School,171 Yells Road,Moorak,5291,-37.86465,140.736981,SCHL,PS,Primary Schools,DEPT
280,Moorook Primary School,Wachtel Rd,Moorook,5332,-34.276231,140.351142,SCHL,PS,Primary Schools,DEPT
282,Morgan Primary School,Fourth Street,Morgan,5320,-34.029492,139.670335,SCHL,PS,Primary Schools,DEPT
285,Mount Barker Primary School,2A Dumas Street,Mount Barker,5251,-35.067641,138.853522,SCHL,PS,Primary Schools,DEPT
288,Mount Burr Primary School,Thomas Drive,Mount Burr,5279,-37.54095,140.459314,SCHL,PS,Primary Schools,DEPT
289,Mount Compass Area School,School Road,Mount Compass,5210,-35.350201,138.619759,SCHL,AREA,Area Schools,DEPT
290,Reidy Park Primary School,O'Halloran Terrace,Mount Gambier,5290,-37.834544,140.771765,SCHL,PS,Primary Schools,DEPT
293,Mount Pleasant Primary School,22 Hospital Road,Mount Pleasant,5235,-34.774395,139.053867,SCHL,PS,Primary Schools,DEPT
297,Mundulla Primary School,Kennedy Street,Mundulla,5270,-36.357628,140.693069,SCHL,PS,Primary Schools,DEPT
299,Murray Bridge North School,1 North Terrace,Murray Bridge,5253,-35.115804,139.269327,SCHL,PS,Primary Schools,DEPT
301,Mylor Primary School,220 Strathalbyn Road,Mylor,5153,-35.040969,138.760093,SCHL,PS,Primary Schools,DEPT
302,Mypolonga Primary School,Williams Street,Mypolonga,5254,-35.040591,139.357523,SCHL,PS,Primary Schools,DEPT
303,Myponga Primary School,Hutchinson Street,Myponga,5202,-35.392694,138.464452,SCHL,PS,Primary Schools,DEPT
305,Nailsworth Primary School,2 Balfour Street,Nailsworth,5083,-34.88242,138.603752,SCHL,PS,Primary Schools,DEPT
306,Nairne Primary School,5 Saleyard Road,Nairne,5252,-35.03837,138.903539,SCHL,PS,Primary Schools,DEPT
308,Napperby Primary School,Oaks Road,Napperby,5540,-33.153603,138.11349,SCHL,PS,Primary Schools,DEPT
309,Naracoorte Primary School,Park Terrace,Naracoorte,5271,-36.951082,140.738119,SCHL,PS,Primary Schools,DEPT
313,Old Noarlunga Primary School,Malpas Street,Old Noarlunga,5168,-35.182997,138.500633,SCHL,PS,Primary Schools,DEPT
314,Northfield Primary School,North Avenue,Northfield,5085,-34.849012,138.61972,SCHL,PS,Primary Schools,DEPT
316,Norton Summit Primary School,15 Crescent Drive,Norton Summit,5136,-34.92734233,138.72831656,SCHL,PS,Primary Schools,DEPT
318,Nuriootpa Primary School,15 Buna Terrace,Nuriootpa,5355,-34.472908,139.001322,SCHL,PS,Primary Schools,DEPT
322,One Tree Hill Primary School,"One Tree Hill Primary School, McGilp Road",One Tree Hill,5114,-34.713101,138.766547,SCHL,PS,Primary Schools,DEPT
323,Coorara Primary School,Taylors Avenue,Morphett Vale,5162,-35.131326,138.542009,SCHL,PS,Primary Schools,DEPT
324,Oodnadatta Aboriginal School,Kutaya Tce,Oodnadatta,5734,-27.548914,135.445834,SCHL,ABSCH,Aboriginal Schools,DEPT
325,Owen Primary School,Fourth Street,Owen,5460,-34.271796,138.542669,SCHL,PS,Primary Schools,DEPT
326,Palmer Primary School,Olive Grove Avenue,Palmer,5237,-34.853574,139.161721,SCHL,PS,Primary Schools,DEPT
327,Paracombe Primary School,4 Harvey Road,Paracombe,5132,-34.851674,138.781984,SCHL,PS,Primary Schools,DEPT
328,Parkside Primary School,12 Robsart Street,Parkside,5063,-34.944657,138.620087,SCHL,PS,Primary Schools,DEPT
329,Glossop High School Middle Campus,535 Old Sturt Highway,Glossop,5344,-34.274808,140.534942,SCHL,HIGH,High/Secondary Schools,DEPT
332,Disability Unit Pasadena High School,241-277 Daws Road,Pasadena,5042,-34.993333,138.590102,NONS,SPDIS,Disability Units,DEPT
336,Penneshaw Campus,Howard Drive,Penneshaw,5222,-35.720872,137.931836,SCHL,AREA,Area Schools,DEPT
337,Pennington School R-7,Butler Avenue,Pennington,5013,-34.857487,138.532493,SCHL,PS,Primary Schools,DEPT
338,Penong Primary School,Eyre Highway,Penong,5690,-31.92861,133.005426,SCHL,PS,Primary Schools,DEPT
339,Peterborough Primary School,75 Bridges Street,Peterborough,5422,-32.971085,138.832375,SCHL,PS,Primary Schools,DEPT
340,Ascot Park Primary School,1-37 Pildappa Avenue,Park Holme,5043,-34.990774,138.554376,SCHL,PS,Primary Schools,DEPT
342,Eastern Fleurieu Ashbourne Campus,14 Ashbourne Road,Ashbourne,5157,-35.288765,138.765705,SCHL,PS,Primary Schools,DEPT
346,Plympton Primary School,19 Owen Street,Plympton,5038,-34.9612,138.556819,SCHL,PS,Primary Schools,DEPT
351,Poonindie Community Learning Centre,1-25 Hirschausen Road,Poonindie,5607,-34.580807,135.881095,SCHL,PS,Primary Schools,DEPT
352,Pooraka Primary School,11 South Terrace,Pooraka,5095,-34.833519,138.613108,SCHL,PS,Primary Schools,DEPT
355,Port Augusta West Primary School,46 Mildred Street,Port Augusta West,5700,-32.483205,137.754202,SCHL,PS,Primary Schools,DEPT
356,Port Elliot Primary School,4 Cameron Street,Port Elliot,5212,-35.5234781,138.6774938,SCHL,PS,Primary Schools,DEPT
359,Port Lincoln Primary School,Lincoln Place,Port Lincoln,5606,-34.723909,135.857158,SCHL,PS,Primary Schools,DEPT
361,Port Neill Primary School,Wallis Street,Port Neill,5604,-34.116548,136.342001,SCHL,PS,Primary Schools,DEPT
362,Port Noarlunga Primary School,10 James Avenue,Port Noarlunga,5167,-35.143859,138.473037,SCHL,PS,Primary Schools,DEPT
363,Port Pirie West Primary School,214 The Terrace,Port Pirie,5540,-33.181868,138.002596,SCHL,PS,Primary Schools,DEPT
366,Port Wakefield Primary School,22 Mine Street,Port Wakefield,5550,-34.187379,138.149302,SCHL,PS,Primary Schools,DEPT
368,Prospect Primary School,27 Gladstone Road,Prospect,5082,-34.884916,138.59012,SCHL,PS,Primary Schools,DEPT
372,Ramco Primary School,N/A,Ramco,5322,-34.169777,139.933102,SCHL,PS,Primary Schools,DEPT
375,Rendelsham Primary School,Nilsson Street,Rendelsham,5280,-37.551464,140.225149,SCHL,PS,Primary Schools,DEPT
376,Renmark Primary School,58 Murtho Street,Renmark,5341,-34.17430625,140.74294413001,SCHL,PS,Primary Schools,DEPT
377,Renmark North Primary School,Warrego Street,Renmark North,5341,-34.126289,140.711409,SCHL,PS,Primary Schools,DEPT
378,Renmark West Primary School,Tarcoola Street,Renmark,5341,-34.166258,140.710394,SCHL,PS,Primary Schools,DEPT
379,Reynella Primary School,55-63 Concord Drive,Old Reynella,5161,-35.100928,138.537502,SCHL,PS,Primary Schools,DEPT
381,Richmond Primary School,8 Surrey Road,Keswick,5035,-34.943391,138.571798,SCHL,PS,Primary Schools,DEPT
383,Riverton Primary School,21 Swinden Street,Riverton,5412,-34.15606,138.744199,SCHL,PS,Primary Schools,DEPT
384,Robe Primary School,Union Street,Robe,5276,-37.16374,139.761657,SCHL,PS,Primary Schools,DEPT
385,Robertstown Primary School,Corey Street,Robertstown,5381,-33.98999,139.084262,SCHL,PS,Primary Schools,DEPT
387,Roseworthy Primary School,Gartrell Street,Roseworthy,5371,-34.53392,138.748218,SCHL,PS,Primary Schools,DEPT
389,Saddleworth Primary School,7 Saddle Road,Saddleworth,5413,-34.080565,138.783159,SCHL,PS,Primary Schools,DEPT
391,St Leonards Primary School,Jervois Street,Glenelg North,5045,-34.972261,138.519785,SCHL,PS,Primary Schools,DEPT
395,Sandy Creek Primary School,Davies Road,Cockatoo Valley,5351,-34.610068,138.829663,SCHL,PS,Primary Schools,DEPT
396,Scott Creek Primary School,519 Scott Creek Road,Scott Creek,5153,-35.056668,138.706377,SCHL,PS,Primary Schools,DEPT
397,Seaton Park Primary School,80 Balcombe Avenue,Seaton,5023,-34.895535,138.519943,SCHL,PS,Primary Schools,DEPT
406,Solomontown Primary School,79 Three Chain Road,Port Pirie,5540,-33.18994,138.019589,SCHL,PS,Primary Schools,DEPT
407,Spalding Primary School,Edgeware Avenue,Spalding,5454,-33.496312,138.611066,SCHL,PS,Primary Schools,DEPT
408,Springton Primary School,N/A,Springton,5235,-34.706581,139.088713,SCHL,PS,Primary Schools,DEPT
411,Stansbury Primary School,North Terrace,Stansbury,5582,-34.907661,137.794614,SCHL,PS,Primary Schools,DEPT
413,Stirling East Primary School,51 Braeside Road,Stirling,5152,-35.002222,138.734746,SCHL,PS,Primary Schools,DEPT
418,Eastern Fleurieu Strath R-6 Campus,34 East Terrace,Strathalbyn,5255,-35.256204,138.898587,SCHL,PS,Primary Schools,DEPT
419,Athelstone School,8A Brookside Road,Athelstone,5076,-34.867631,138.699613,SCHL,PS,Primary Schools,DEPT
422,Suttontown Primary School,Pine Hall Avenue,Suttontown,5291,-37.797141,140.76955,SCHL,PS,Primary Schools,DEPT
423,Swan Reach Area School,Showground Road,Swan Reach,5354,-34.571572,139.604009,SCHL,AREA,Area Schools,DEPT
424,Tailem Bend Primary School,1 Murray Street,Tailem Bend,5260,-35.259104,139.457249,SCHL,PS,Primary Schools,DEPT
425,Auburn Primary School,St Vincent Street,Auburn,5451,-34.026172,138.683695,SCHL,PS,Primary Schools,DEPT
426,Tantanoola Primary School,Randall Street,Tantanoola,5280,-37.698965,140.454535,SCHL,PS,Primary Schools,DEPT
427,Tanunda Primary School,Research Road,Tanunda,5352,-34.526253,138.959337,SCHL,PS,Primary Schools,DEPT
430,Tarlee Primary School,38-42 Craig Street,Tarlee,5411,-34.269925,138.772668,SCHL,PS,Primary Schools,DEPT
432,Tea Tree Gully Primary School,11/13 Neale Street,Tea Tree Gully,5091,-34.822942,138.727177,SCHL,PS,Primary Schools,DEPT
438,Tintinara Area School,37 Wendt Terrace,Tintinara,5266,-35.882498,140.060951,SCHL,AREA,Area Schools,DEPT
442,Truro Primary School,1 Burr Street,Truro,5356,-34.4112,139.12638,SCHL,PS,Primary Schools,DEPT
444,Two Wells Primary School,Gawler Road,Two Wells,5501,-34.591316,138.516996,SCHL,PS,Primary Schools,DEPT
446,Ungarra Primary School,Ashman Terrace,Ungarra,5607,-34.18083,136.047417,SCHL,PS,Primary Schools,DEPT
447,Unley Primary School,222 Wattle Street,Unley,5061,-34.953509,138.61001,SCHL,PS,Primary Schools,DEPT
448,Upper Sturt Primary School,118 Upper Sturt Road,Upper Sturt,5156,-35.018986,138.683375,SCHL,PS,Primary Schools,DEPT
449,Uraidla Primary School,17 Kidney Street,Uraidla,5142,-34.959029,138.743391,SCHL,PS,Primary Schools,DEPT
453,Victor Harbor R-7 School,The Parkway,Victor Harbor,5211,-35.540745,138.624353,SCHL,PS,Primary Schools,DEPT
455,Virginia Primary School,Park Road,Virginia,5120,-34.664481,138.555693,SCHL,PS,Primary Schools,DEPT
456,Waikerie Primary School,23 Coombe Terrace,Waikerie,5330,-34.181117,139.981115,SCHL,PS,Primary Schools,DEPT
457,Walkerville Primary School,159 Stephen Terrace,Walkerville,5081,-34.895194,138.613241,SCHL,PS,Primary Schools,DEPT
459,Wallaroo Primary School,Hughes Street,Wallaroo,5556,-33.932746,137.624271,SCHL,PS,Primary Schools,DEPT
460,Wallaroo Mines Primary School,Lipson Avenue,Kadina,5554,-33.965894,137.69872,SCHL,PS,Primary Schools,DEPT
467,Warooka Primary School,47 Main Street,Warooka,5577,-34.990788,137.399042,SCHL,PS,Primary Schools,DEPT
469,Wasleys Primary School,Annie Terrace,Wasleys,5400,-34.471428,138.680561,SCHL,PS,Primary Schools,DEPT
470,Watervale Primary School,27 Main North Road,Watervale,5452,-33.960982,138.644648,SCHL,PS,Primary Schools,DEPT
473,Allenby Gardens Primary School,Barham Street,Allenby Gardens,5009,-34.90181,138.554862,SCHL,PS,Primary Schools,DEPT
474,Trinity Gardens Primary School,160 Portrush Road,Trinity Gardens,5068,-34.907992,138.641783,SCHL,PS,Primary Schools,DEPT
475,Westbourne Park Primary School,2 Marlborough Road,Westbourne Park,5041,-34.969224,138.591941,SCHL,PS,Primary Schools,DEPT
476,Adelaide North Special School,135 Douglas Drive,Munno Para,5115,-34.663544,138.684826,SCHL,SPPS,Primary/Secondary Special Schools,DEPT
477,Balaklava Primary School,Wallace Street,Balaklava,5461,-34.151438,138.416488,SCHL,PS,Primary Schools,DEPT
478,Whyalla Town Primary School,3-9 Walls Street,Whyalla,5600,-33.035531,137.583641,SCHL,PS,Primary Schools,DEPT
479,Memorial Oval Primary School,Bradford Street,Whyalla,5600,-33.033445,137.568711,SCHL,PS,Primary Schools,DEPT
482,Williamstown Primary School,15 Margaret Street,Williamstown,5351,-34.667928,138.890491,SCHL,PS,Primary Schools,DEPT
483,Wilmington Primary School,12 Beauval Street,Wilmington,5485,-32.651173,138.101868,SCHL,PS,Primary Schools,DEPT
487,Wirrabara Primary School,East Terrace,Wirrabara,5481,-33.036284,138.273277,SCHL,PS,Primary Schools,DEPT
495,Woodside Primary School,23 Moffett Street,Woodside,5244,-34.952342,138.879672,SCHL,PS,Primary Schools,DEPT
497,Woodville Primary School,Evans Street,Woodville South,5011,-34.880569,138.532716,SCHL,PS,Primary Schools,DEPT
501,Yahl Primary School,10 Lange Road,Yahl,5291,-37.87919,140.831985,SCHL,PS,Primary Schools,DEPT
506,Barmera Primary School,1 Rumbold Drive,Barmera,5345,-34.25159,140.478058,SCHL,PS,Primary Schools,DEPT
509,Andamooka Primary School,N/A,Andamooka,5722,-30.44907,137.167451,SCHL,PS,Primary Schools,DEPT
511,Basket Range Primary School,16 Cramond Road,Basket Range,5138,-34.938262,138.766577,SCHL,PS,Primary Schools,DEPT
519,Beachport Primary School,Golf Course Road,Beachport,5280,-37.475436,140.009715,SCHL,PS,Primary Schools,DEPT
524,Belair Primary School,45-83 Main Road,Belair,5052,-35.004748,138.625784,SCHL,PS,Primary Schools,DEPT
532,Berri Primary School,11 Sultana Street,Berri,5343,-34.279661,140.594112,SCHL,PS,Primary Schools,DEPT
533,Wynn Vale R-7 School,17-19 Sunnybrook Drive,Wynn Vale,5127,-34.800674,138.687256,SCHL,PS,Primary Schools,DEPT
536,Aberfoyle Hub R-7 School,29 Jeanette Crescent,Aberfoyle Park,5159,-35.078139,138.595142,SCHL,PS,Primary Schools,DEPT
537,Parafield Gardens R-7 School,23 Shepherdson Road,Parafield Gardens,5107,-34.785192,138.616383,SCHL,PS,Primary Schools,DEPT
547,Birdwood Primary School,Shannon Street,Birdwood,5234,-34.821057,138.960319,SCHL,PS,Primary Schools,DEPT
548,Black Forest Primary School,679 South Road,Black Forest,5035,-34.960471,138.573756,SCHL,PS,Primary Schools,DEPT
559,Whyalla Special Education Centre,Russell Street,Whyalla Norrie,5608,-33.028888,137.549699,SCHL,SPPS,Primary/Secondary Special Schools,DEPT
563,Lake Wangary Primary School,Third Street,Wangary,5607,-34.550294,135.479343,SCHL,PS,Primary Schools,DEPT
565,Blackwood Primary School,4 Seymour Street,Eden Hills,5050,-35.024715,138.607738,SCHL,PS,Primary Schools,DEPT
570,Prospect North Primary School,30 Stuart Road,Prospect,5082,-34.874397,138.596495,SCHL,PS,Primary Schools,DEPT
571,Blanchetown Primary School,Godley Street,Blanchetown,5357,-34.35059,139.610574,SCHL,PS,Primary Schools,DEPT
574,Para Hills High School,90 Beafield Road,Para Hills West,5096,-34.799266,138.650711,SCHL,HIGH,High/Secondary Schools,DEPT
583,Marden Senior College,1-37 Marden Road,Marden,5070,-34.891197,138.634517,SCHL,HIGH,High/Secondary Schools,DEPT
586,Blyth Primary School,August Street,Blyth,5462,-33.843766,138.490696,SCHL,PS,Primary Schools,DEPT
592,Nangwarry Primary School,Whitford Crescent,Nangwarry,5277,-37.541463,140.818486,SCHL,PS,Primary Schools,DEPT
593,Padthaway Primary School,Vogelsang Road,Padthaway,5271,-36.593126,140.496854,SCHL,PS,Primary Schools,DEPT
596,Highbury Primary School,Cnr Honeysuckle Drive & Payne St,Hope Valley,5090,-34.848154,138.710133,SCHL,PS,Primary Schools,DEPT
600,Booborowie Primary School,South Terrace,Booborowie,5417,-33.56631,138.759777,SCHL,PS,Primary Schools,DEPT
605,Millicent North Primary School,Second Street,Millicent,5280,-37.592968,140.343376,SCHL,PS,Primary Schools,DEPT
625,Whyalla Stuart Campus R-7,Bastyan Crescent,Whyalla Stuart,5608,-33.026989,137.526132,SCHL,PS,Primary Schools,DEPT
632,Keller Road Primary School,Keller Road,Salisbury East,5109,-34.792341,138.656283,SCHL,PS,Primary Schools,DEPT
636,Bridgewater Primary School,46 Morella Grove,Bridgewater,5155,-35.004283,138.762749,SCHL,PS,Primary Schools,DEPT
637,Brighton Primary School,1 Highet Avenue,Brighton,5048,-35.015974,138.526228,SCHL,PS,Primary Schools,DEPT
638,Wirreanda Secondary School,105 Richards Drive,Morphett Vale,5162,-35.127607,138.533815,SCHL,HIGH,High/Secondary Schools,DEPT
640,Hallett Cove School,2-32 Gledsdale Road,Hallett Cove,5158,-35.075965,138.511116,SCHL,PSS,Primary/Secondary Schools,DEPT
641,Seaford Secondary College,Lynton Terrace,Seaford,5169,-35.187173,138.482221,SCHL,PSS,Primary/Secondary Schools,DEPT
644,Peterborough PS - Yunta,Railway Terrace,Yunta,5440,-32.579123,139.562252,SCHL,PS,Primary Schools,DEPT
646,Brompton Primary School,Napier Street,Renown Park,5008,-34.893989,138.581272,SCHL,PS,Primary Schools,DEPT
647,Linden Park Primary School,14 Hay Road,Linden Park,5065,-34.9478,138.646019,SCHL,PS,Primary Schools,DEPT
649,Madison Park School,19 Lincoln Avenue,Salisbury East,5109,-34.783863,138.662355,SCHL,PS,Primary Schools,DEPT
650,Rapid Bay Primary School,Essington Lewis Drive,Rapid Bay,5204,-35.526676,138.193855,SCHL,PS,Primary Schools,DEPT
651,Parndana Campus,Wedgewood Road,Parndana,5220,-35.786767,137.263093,SCHL,AREA,Area Schools,DEPT
658,Forbes Primary School,80 Thomas Street,South Plympton,5038,-34.978139,138.557598,SCHL,PS,Primary Schools,DEPT
660,Enfield Primary School,Clarice Avenue,Enfield,5085,-34.865172,138.603431,SCHL,PS,Primary Schools,DEPT
664,Salisbury North R-7 School,38 Bagster Road,Salisbury North,5108,-34.753263,138.635426,SCHL,PS,Primary Schools,DEPT
665,Hillcrest Primary School,Condamine Street,Hillcrest,5086,-34.866383,138.638678,SCHL,PS,Primary Schools,DEPT
666,Darlington Primary School,9-11 White Crescent,Seacombe Gardens,5047,-35.027204,138.546916,SCHL,PS,Primary Schools,DEPT
668,Paringa Park Primary School,21 Bowker Street,North Brighton,5048,-35.002543,138.525628,SCHL,PS,Primary Schools,DEPT
670,Hendon Primary School,Cedar Avenue,Royal Park,5014,-34.878622,138.510533,SCHL,PS,Primary Schools,DEPT
677,Nicolson Avenue Primary School,Nicolson Avenue,Whyalla Norrie,5608,-33.028888,137.549699,SCHL,PS,Primary Schools,DEPT
678,Loxton North Primary School,Balfour-Ogilvy Road,Loxton North,5333,-34.413133,140.624328,SCHL,PS,Primary Schools,DEPT
679,Willsden Primary School,Elizabeth Terrace,Port Augusta,5700,-32.506303,137.780351,SCHL,PS,Primary Schools,DEPT
685,Risdon Park Primary School,Kingston Road,Port Pirie,5540,-33.203247,138.008071,SCHL,PS,Primary Schools,DEPT
688,Elizabeth South Primary School,Chivell Street,Elizabeth South,5112,-34.73111,138.66211,SCHL,PS,Primary Schools,DEPT
689,Hampstead Primary School,38-56 Muller Road,Greenacres,5086,-34.870813,138.625981,SCHL,PS,Primary Schools,DEPT
699,Burnside Primary School,11 High Street,Burnside,5066,-34.935601,138.661574,SCHL,PS,Primary Schools,DEPT
702,Bute Primary School,Third Street,Bute,5560,-33.864926,138.003827,SCHL,PS,Primary Schools,DEPT
704,Cadell Primary School,415 Cadell Valley Road,Cadell,5321,-34.0565056,139.7717306,SCHL,PS,Primary Schools,DEPT
705,Callington Primary School,North Terrace,Callington,5254,-35.114221,139.038981,SCHL,PS,Primary Schools,DEPT
714,Challa Gardens Primary School,Humphries Terrace,Kilkenny,5009,-34.877305,138.555678,SCHL,PS,Primary Schools,DEPT
719,Clare Primary School,137 Main North Road,Clare,5453,-33.840746,138.618052,SCHL,PS,Primary Schools,DEPT
720,Clarendon Primary School,Potter Road,Clarendon,5157,-35.110275,138.632175,SCHL,PS,Primary Schools,DEPT
721,Cobdogla Primary School,Dolan Street,Cobdogla,5346,-34.242439,140.406113,SCHL,PS,Primary Schools,DEPT
723,Colonel Light Gardens Primary School,Windsor Avenue,Colonel Light Gardens,5041,-34.986809,138.59544,SCHL,PS,Primary Schools,DEPT
724,Compton Primary School,13 Compton Hall Road,Suttontown,5291,-37.801357,140.728606,SCHL,PS,Primary Schools,DEPT
729,Coomandook Area School,Dukes Highway,Coomandook,5261,-35.476023,139.70898,SCHL,AREA,Area Schools,DEPT
730,Coonalpyn Primary School,4 Coombe Terrace,Coonalpyn,5265,-35.698735,139.852091,SCHL,PS,Primary Schools,DEPT
731,Coorabie RS-Annexe of Penong PS,N/A,Coorabie,5690,-31.900534,132.295455,SCHL,RS,Rural Schools,DEPT
732,Ardrossan Area School,14 Second Street,Ardrossan,5571,-34.423756,137.91592,SCHL,AREA,Area Schools,DEPT
733,Bordertown Primary School,South Terrace,Bordertown,5268,-36.315105,140.765108,SCHL,PS,Primary Schools,DEPT
734,Ceduna Area School,6 May Crescent,Ceduna,5690,-32.137676,133.671396,SCHL,AREA,Area Schools,DEPT
735,Cowell Area School,42 Story Street,Cowell,5602,-33.682729,136.918442,SCHL,AREA,Area Schools,DEPT
736,Kimba Area School,69 West Terrace,Kimba,5641,-33.135605,136.419417,SCHL,AREA,Area Schools,DEPT
737,Kingston Community School,46 East Terrace,Kingston SE,5275,-36.836179,139.857605,SCHL,AREA,Area Schools,DEPT
740,Orroroo Area School,West Terrace,Orroroo,5431,-32.728505,138.612211,SCHL,AREA,Area Schools,DEPT
741,Port Broughton Area School,12 East Terrace,Port Broughton,5522,-33.604039,137.933111,SCHL,AREA,Area Schools,DEPT
742,Snowtown Primary School,31 Glen Davidson Drive,Snowtown,5520,-33.783548,138.221653,SCHL,PS,Primary Schools,DEPT
743,Tumby Bay Area School,West Terrace,Tumby Bay,5605,-34.37575,136.099182,SCHL,AREA,Area Schools,DEPT
744,Willunga Primary School,247 Main Road,Willunga,5172,-35.269384,138.552628,SCHL,PS,Primary Schools,DEPT
745,Streaky Bay Area School,109 Wells Street,Streaky Bay,5680,-32.798217,134.201213,SCHL,AREA,Area Schools,DEPT
746,Woomera Area School,Dewrang Avenue,Woomera,5720,-31.195174,136.826289,SCHL,AREA,Area Schools,DEPT
747,Cambrai Primary School,Main Road,Cambrai,5353,-34.653408,139.280554,SCHL,PS,Primary Schools,DEPT
748,Leigh Creek Area School,Blackoak Drive,Leigh Creek,5731,-30.592696,138.401257,SCHL,AREA,Area Schools,DEPT
749,Lucindale Area School,14 Fairview Road,Lucindale,5272,-36.964206,140.370633,SCHL,AREA,Area Schools,DEPT
750,Meningie Area School,1 North Terrace,Meningie,5264,-35.682635,139.342158,SCHL,AREA,Area Schools,DEPT
751,Allendale East Area School,Bay Road,Allendale East,5291,-38.002461,140.711361,SCHL,AREA,Area Schools,DEPT
752,Brinkworth Primary School,Main Street,Brinkworth,5464,-33.687102,138.404569,SCHL,PS,Primary Schools,DEPT
753,Cleve Area School,Second Street,Cleve,5640,-33.699447,136.497984,SCHL,AREA,Area Schools,DEPT
754,Cummins Area School,McFarlane Street,Cummins,5631,-34.263297,135.722276,SCHL,AREA,Area Schools,DEPT
755,Eudunda Area School,2 Reserve Road,Eudunda,5374,-34.181155,139.091271,SCHL,AREA,Area Schools,DEPT
756,Karoonda Area School,North Terrace,Karoonda,5307,-35.092105,139.894702,SCHL,AREA,Area Schools,DEPT
757,Keith Area School,Tolmer Terrace,Keith,5267,-36.099661,140.351182,SCHL,AREA,Area Schools,DEPT
758,Kingscote Campus,5 Centenary Avenue,Kingscote,5223,-35.650387,137.633343,SCHL,AREA,Area Schools,DEPT
759,Lameroo Regional Community School,1 Bews Terrace,Lameroo,5302,-35.331434,140.522579,SCHL,AREA,Area Schools,DEPT
760,Loxton Primary School,Pyap Street,Loxton,5333,-34.451324,140.567155,SCHL,PS,Primary Schools,DEPT
761,Central Yorke School,Junction Road,Maitland,5573,-34.368261,137.673481,SCHL,AREA,Area Schools,DEPT
762,Oakbank Area School,154 Onkaparinga Valley Road,Oakbank,5243,-34.988726,138.837232,SCHL,AREA,Area Schools,DEPT
763,Penola Primary School,Riddoch Street,Penola,5277,-37.379147,140.833229,SCHL,PS,Primary Schools,DEPT
764,Pinnaroo Primary School,Bundey Terrace,Pinnaroo,5304,-35.255862,140.907922,SCHL,PS,Primary Schools,DEPT
765,Wudinna Area School,Medley Terrace,Wudinna,5652,-33.044573,135.462851,SCHL,AREA,Area Schools,DEPT
766,Yankalilla Area School,207 Main South Road,Yankalilla,5203,-35.453257,138.333062,SCHL,AREA,Area Schools,DEPT
767,Yorketown Area School,Stansbury Road,Yorketown,5576,-35.015376,137.615442,SCHL,AREA,Area Schools,DEPT
768,Adelaide High School,West Terrace,Adelaide,5000,-34.925733,138.586678,SCHL,HIGH,High/Secondary Schools,DEPT
769,Balaklava High School,14 Gwy Terrace,Balaklava,5461,-34.1503,138.41511,SCHL,HIGH,High/Secondary Schools,DEPT
770,Birdwood High School,Shannon Street,Birdwood,5234,-34.822129,138.957682,SCHL,HIGH,High/Secondary Schools,DEPT
771,Booleroo Centre District School,2-10 Stephen Street,Booleroo Centre,5482,-32.877326,138.349525,SCHL,AREA,Area Schools,DEPT
773,Clare High School,Elliot Street,Clare,5453,-33.822384,138.596522,SCHL,PSS,Primary/Secondary Schools,DEPT
774,Gawler and District College B-12,Barnet Road,Evanston,5116,-34.619476,138.736184,SCHL,PSS,Primary/Secondary Schools,DEPT
775,Gladstone High School,Main North Road,Gladstone,5473,-33.275577,138.35211,SCHL,HIGH,High/Secondary Schools,DEPT
776,Glossop High School,535 Old Sturt Highway,Glossop,5344,-34.274792,140.535354,SCHL,HIGH,High/Secondary Schools,DEPT
777,Jamestown Community School,Humphris Terrace,Jamestown,5491,-33.204904,138.609566,SCHL,AREA,Area Schools,DEPT
778,Kadina Memorial School,5 Doswell Terrace,Kadina,5554,-33.96001728,137.71018267,SCHL,PSS,Primary/Secondary Schools,DEPT
779,Kapunda High School,West Terrace,Kapunda,5373,-34.332945,138.910495,SCHL,HIGH,High/Secondary Schools,DEPT
780,Millicent High School,Mount Burr Road,Millicent,5280,-37.591479,140.359255,SCHL,HIGH,High/Secondary Schools,DEPT
781,Minlaton District School,2 North Terrace,Minlaton,5575,-34.765873,137.593581,SCHL,AREA,Area Schools,DEPT
783,Mount Barker High School,2 Wellington Road,Mount Barker,5251,-35.074991,138.85705,SCHL,HIGH,High/Secondary Schools,DEPT
784,Mount Gambier High School,Brownes Road,Mount Gambier,5290,-37.826147,140.765689,SCHL,HIGH,High/Secondary Schools,DEPT
785,Murray Bridge High School,Lohmann Street,Murray Bridge,5253,-35.135051,139.285294,SCHL,HIGH,High/Secondary Schools,DEPT
786,Naracoorte High School,Stewart Terrace,Naracoorte,5271,-36.948548,140.726873,SCHL,HIGH,High/Secondary Schools,DEPT
787,Norwood Morialta High School,505 The Parade,Magill,5072,-34.917934,138.672196,SCHL,HIGH,High/Secondary Schools,DEPT
788,Nuriootpa High School,Penrice Road,Nuriootpa,5355,-34.466434,139.000529,SCHL,HIGH,High/Secondary Schools,DEPT
789,Peterborough High School,Queen Street,Peterborough,5422,-32.978852,138.836939,SCHL,HIGH,High/Secondary Schools,DEPT
790,Port Augusta Secondary School,3 Stirling Road,Port Augusta,5700,-32.493679,137.768693,SCHL,HIGH,High/Secondary Schools,DEPT
791,Port Lincoln High School,Ruskin Road,Port Lincoln,5606,-34.723847,135.853942,SCHL,HIGH,High/Secondary Schools,DEPT
792,John Pirie Secondary School,40 Mary Elie Street,Port Pirie,5540,-33.183024,138.010153,SCHL,HIGH,High/Secondary Schools,DEPT
793,Quorn Area School,Stokes Road,Quorn,5433,-32.348904,138.036572,SCHL,AREA,Area Schools,DEPT
794,Renmark High School,Thurk Street,Renmark,5341,-34.172088,140.741263,SCHL,HIGH,High/Secondary Schools,DEPT
795,Riverton and District High School,Oxford Terrace,Riverton,5412,-34.156173,138.749643,SCHL,HIGH,High/Secondary Schools,DEPT
796,Eastern Fleurieu Strath 7-12 Campus,11 Callington Road,Strathalbyn,5255,-35.258179,138.903269,SCHL,PSS,Primary/Secondary Schools,DEPT
797,Unley High School,Kitchener Street,Netherby,5062,-34.970162,138.620336,SCHL,HIGH,High/Secondary Schools,DEPT
798,Urrbrae Agricultural High School,505 Fullarton Road,Netherby,5062,-34.966994,138.621443,SCHL,HIGH,High/Secondary Schools,DEPT
799,Victor Harbor High School,George Main Road,Victor Harbor,5211,-35.556148,138.611226,SCHL,HIGH,High/Secondary Schools,DEPT
800,Waikerie High School,24 Blake Road,Waikerie,5330,-34.184584,139.973102,SCHL,HIGH,High/Secondary Schools,DEPT
801,Woodville High School,11 Actil Avenue,St Clair,5011,-34.872943,138.540808,SCHL,HIGH,High/Secondary Schools,DEPT
803,Brighton Secondary School,305 Brighton Road,North Brighton,5048,-35.003619,138.519676,SCHL,HIGH,High/Secondary Schools,DEPT
805,Findon High School,Drummond Avenue,Findon,5023,-34.898332,138.526613,SCHL,HIGH,High/Secondary Schools,DEPT
809,Henley High School,Cudmore Terrace,Henley Beach,5022,-34.923383,138.500356,SCHL,HIGH,High/Secondary Schools,DEPT
810,Thebarton Senior College,Ashley Street,Torrensville,5031,-34.917275,138.562772,SCHL,HIGH,High/Secondary Schools,DEPT
814,Le Fevre High School,90 Hart Street,Semaphore South,5019,-34.845622,138.484995,SCHL,HIGH,High/Secondary Schools,DEPT
817,Marryatville High School,170 Kensington Road,Marryatville,5068,-34.9291,138.645443,SCHL,HIGH,High/Secondary Schools,DEPT
822,Whyalla High School,Broadbent Terrace,Whyalla,5600,-33.038453,137.58087,SCHL,HIGH,High/Secondary Schools,DEPT
823,Hamilton Secondary College,815 Marion Road,Mitchell Park,5043,-34.99837,138.560781,SCHL,HIGH,High/Secondary Schools,DEPT
825,Elizabeth North Primary School,141 Woodford Road,Elizabeth North,5113,-34.703178,138.673909,SCHL,PS,Primary Schools,DEPT
838,Hospital School SA - W&CH,72 King William Road,North Adelaide,5006,-34.91151518,138.59996547,NONS,SPHES,Hospital Education Services,DEPT
842,Cavan Education Centre,1 Jonal Drive,Cavan,5094,-34.821668,138.600663,SCHL,ALTSC,Alternative Prim/Sec Schools,DEPT
844,The Grove Education Centre,39 Leslie Street West,Woodville,5011,-34.873425,138.544354,SCHL,SPPS,Primary/Secondary Special Schools,DEPT
845,Raukkan Aboriginal School,Taplin Street,Raukkan,5259,-35.508165,139.131565,SCHL,ABSCH,Aboriginal Schools,DEPT
846,Central Yorke School - Point Pearce,Parrys Avenue,Point Pearce,5573,-34.415187,137.501269,SCHL,ABSCH,Aboriginal Schools,DEPT
849,Open Access College,1-37 Marden Road,Marden,5070,-34.89271,138.635942,SCHL,OPACC,Open Access College,DEPT
892,Salisbury High School,14 Farley Grove,Salisbury North,5108,-34.755983,138.640772,SCHL,HIGH,High/Secondary Schools,DEPT
893,Seaview High School,78-124 Seacombe Road,Seacombe Heights,5047,-35.030039,138.547313,SCHL,HIGH,High/Secondary Schools,DEPT
894,Bordertown High School,South Terrace,Bordertown,5268,-36.313741,140.767724,SCHL,HIGH,High/Secondary Schools,DEPT
895,Loxton High School,1889 Bookpurnong Road,Loxton,5333,-34.443732,140.584808,SCHL,HIGH,High/Secondary Schools,DEPT
897,Elizabeth Grove Primary School,20 Haynes Street,Elizabeth Grove,5112,-34.73233,138.669527,SCHL,PS,Primary Schools,DEPT
898,Klemzig Primary School,2 Hay Street,Klemzig,5087,-34.877176,138.637665,SCHL,PS,Primary Schools,DEPT
899,Kirton Point Primary School,Matthew Place,Port Lincoln,5606,-34.731891,135.868237,SCHL,PS,Primary Schools,DEPT
903,Mitcham Girls High School,Kyre Avenue,Kingswood,5062,-34.969865,138.610036,SCHL,HIGH,High/Secondary Schools,DEPT
905,Blackwood High School,4 Seymour Street,Eden Hills,5050,-35.026849,138.605897,SCHL,HIGH,High/Secondary Schools,DEPT
906,Windsor Gardens B-12,McKay Avenue,Windsor Gardens,5087,-34.860757,138.657925,SCHL,PSS,Primary/Secondary Schools,DEPT
907,Plympton International College,21A Errington Street,Plympton,5038,-34.964442,138.547829,SCHL,PSS,Primary/Secondary Schools,DEPT
908,Ocean View P-12 College,Gedville Road,Taperoo,5017,-34.803361,138.493484,SCHL,PSS,Primary/Secondary Schools,DEPT
909,Willunga High School,239 Main Road,Willunga,5172,-35.263056,138.555471,SCHL,HIGH,High/Secondary Schools,DEPT
910,Playford International College,Philip Highway,Elizabeth,5112,-34.723738,138.665902,SCHL,HIGH,High/Secondary Schools,DEPT
911,Lockleys North Primary School,55 Malurus Avenue,Lockleys,5032,-34.920591,138.537668,SCHL,PS,Primary Schools,DEPT
913,Seacliff Primary School,Barwell Avenue,Seacliff,5049,-35.037266,138.523556,SCHL,PS,Primary Schools,DEPT
920,Coober Pedy Area School,Paxton Road,Coober Pedy,5723,-29.012377,134.751882,SCHL,AREA,Area Schools,DEPT
921,Christies Beach Primary School,46 Maturin Avenue,Christies Beach,5165,-35.138009,138.479076,SCHL,PS,Primary Schools,DEPT
923,Stradbroke School,73 Koonga Avenue,Rostrevor,5073,-34.893467,138.68405,SCHL,PS,Primary Schools,DEPT
925,Ingle Farm East Primary School,18 Halidon Street,Ingle Farm,5098,-34.833816,138.651885,SCHL,PS,Primary Schools,DEPT
926,Heathfield High School,99 Longwood Road,Heathfield,5153,-35.020536,138.712609,SCHL,HIGH,High/Secondary Schools,DEPT
927,Glenunga International High School,99 L'Estrange Street,Glenunga,5064,-34.949336,138.635192,SCHL,HIGH,High/Secondary Schools,DEPT
928,Grant High School,Hosking Avenue,Mount Gambier,5290,-37.84719,140.796014,SCHL,HIGH,High/Secondary Schools,DEPT
931,Penola High School,43 Cameron Street,Penola,5277,-37.373662,140.843789,SCHL,HIGH,High/Secondary Schools,DEPT
932,Clovelly Park Primary School,1 Renown Place,Clovelly Park,5042,-34.998429,138.565416,SCHL,PS,Primary Schools,DEPT
933,Warradale Primary School,Keynes Avenue,Warradale,5046,-35.004,138.537907,SCHL,PS,Primary Schools,DEPT
934,Fulham Gardens Primary School,Mitton Avenue,Henley Beach,5022,-34.912392,138.503289,SCHL,PS,Primary Schools,DEPT
935,Para Hills School P-7,2 Frances Avenue,Para Hills,5096,-34.812448,138.652114,SCHL,PS,Primary Schools,DEPT
936,Naracoorte South Primary School,Cedar Avenue,Naracoorte,5271,-36.97269,140.746742,SCHL,PS,Primary Schools,DEPT
938,Hincks Avenue Primary School,Schulz Avenue,Whyalla Norrie,5608,-33.018515,137.544825,SCHL,PS,Primary Schools,DEPT
941,Seaton High School,Glenburnie Street,Seaton,5023,-34.886112,138.505556,SCHL,HIGH,High/Secondary Schools,DEPT
943,Elizabeth East Primary School,15 Dolphin Street,Elizabeth East,5112,-34.725069,138.677471,SCHL,PS,Primary Schools,DEPT
947,Elizabeth Downs Primary School,Heard Street,Elizabeth Downs,5113,-34.698589,138.694874,SCHL,PS,Primary Schools,DEPT
948,Elizabeth Park Primary School,15 Turner Road,Elizabeth Park,5113,-34.712939,138.684874,SCHL,PS,Primary Schools,DEPT
949,Elizabeth Vale Primary School,Rollison Road,Elizabeth Vale,5112,-34.745801,138.669262,SCHL,PS,Primary Schools,DEPT
950,Murray Bridge South Primary School,54 Joyce Street,Murray Bridge,5253,-35.132254,139.282374,SCHL,PS,Primary Schools,DEPT
952,Clapham Primary School,Barretts Road,Clapham,5062,-34.993358,138.603502,SCHL,PS,Primary Schools,DEPT
953,Mount Gambier North Primary School,Heath Street,Mount Gambier,5290,-37.81683,140.775534,SCHL,PS,Primary Schools,DEPT
957,Kangaroo Inn Area School,2329 Beachport-Penola Road,Kangaroo Inn,5280,-37.337684,140.244317,SCHL,AREA,Area Schools,DEPT
962,Riverland Special School,50a Burgess Drive,Berri,5343,-34.28165,140.604217,SCHL,SPPS,Primary/Secondary Special Schools,DEPT
964,Modbury High School,62 Pompoota Road,Modbury,5092,-34.836789,138.697008,SCHL,HIGH,High/Secondary Schools,DEPT
965,Underdale High School,19 Garden Terrace,Underdale,5032,-34.918948,138.544174,SCHL,HIGH,High/Secondary Schools,DEPT
967,Vale Park Primary School,40-56 Ascot Avenue,Vale Park,5081,-34.885256,138.626323,SCHL,PS,Primary Schools,DEPT
968,Fisk Street Primary School,Pattinson Close,Whyalla Norrie,5608,-33.016958,137.533218,SCHL,PS,Primary Schools,DEPT
970,Newbery Park Primary School,Bridges Street,Millicent,5280,-37.608624,140.363491,SCHL,PS,Primary Schools,DEPT
971,East Torrens Primary School,12 Robson Road,Hectorville,5073,-34.889769,138.666119,SCHL,PS,Primary Schools,DEPT
972,Hawthorndene Primary School,Suffolk Road,Hawthorndene,5051,-35.020774,138.636088,SCHL,PS,Primary Schools,DEPT
973,Paradise Primary School,100 George Street,Paradise,5075,-34.870802,138.68457,SCHL,PS,Primary Schools,DEPT
975,Pasadena High School,241-277 Daws Road,Pasadena,5042,-34.993333,138.590102,SCHL,HIGH,High/Secondary Schools,DEPT
976,Craigmore High School,2 Jamieson Road,Blakeview,5114,-34.69116,138.701176,SCHL,HIGH,High/Secondary Schools,DEPT
980,Airdale Primary School,Anzac Road,Port Pirie,5540,-33.200564,137.99046,SCHL,PS,Primary Schools,DEPT
981,Carlton School,Rupert Street,Port Augusta,5700,-32.48769,137.776631,SCHL,ABSCH,Aboriginal Schools,DEPT
982,Dernancourt School R-7,29 Parsons Road,Dernancourt,5075,-34.861119,138.673464,SCHL,PS,Primary Schools,DEPT
983,Brahma Lodge Primary School,20 Mortess Street,Brahma Lodge,5109,-34.775528,138.650326,SCHL,PS,Primary Schools,DEPT
984,Seaview Downs Primary School,26-44 Ross Street,Seaview Downs,5049,-35.041379,138.536114,SCHL,PS,Primary Schools,DEPT
987,Mawson Lakes School,Garden Terrace,Mawson Lakes,5095,-34.809191,138.614357,SCHL,PS,Primary Schools,DEPT
990,Augusta Park Primary School,59 Power Crescent,Port Augusta,5700,-32.494983,137.784266,SCHL,PS,Primary Schools,DEPT
993,Marion Primary School,2-22 Malcolm Avenue,Marion,5043,-35.00386,138.555218,SCHL,PS,Primary Schools,DEPT
994,Wandana Primary School,2-12 Cowra Avenue,Gilles Plains,5086,-34.848907,138.661291,SCHL,PS,Primary Schools,DEPT
996,Kidman Park Primary School,1 Dean Avenue,Kidman Park,5025,-34.911672,138.523797,SCHL,PS,Primary Schools,DEPT
997,Adelaide East Education Centre,31 Campbell Road,Paradise,5075,-34.873042,138.672971,SCHL,SPSEC,Secondary Special Schools,DEPT
999,Yalata Anangu School,N/A,Yalata,5690,-31.508309,131.82595,SCHL,ANSCH,Anangu Schools,DEPT
1001,Amata Anangu School,N/A,Amata,872,-26.152169,131.137746,SCHL,ANSCH,Anangu Schools,DEPT
1003,Koonibba Aboriginal School,N/A,Koonibba,5690,-31.902744,133.425975,SCHL,ABSCH,Aboriginal Schools,DEPT
1004,West Beach Primary School,3 Woodhead Street,West Beach,5024,-34.937821,138.508809,SCHL,PS,Primary Schools,DEPT
1008,Gawler East Primary School,Finch Road,Gawler East,5118,-34.598085,138.761294,SCHL,PS,Primary Schools,DEPT
1009,Oak Valley Aboriginal School,N/A,Oak Valley,5690,-29.402891,130.738974,SCHL,ABSCH,Aboriginal Schools,DEPT
1011,Salisbury East High School,50 Smith Road,Salisbury East,5109,-34.775903,138.667185,SCHL,HIGH,High/Secondary Schools,DEPT
1012,Northern Adelaide Senior College,Woodford Road,Elizabeth,5112,-34.713319,138.669144,SCHL,HIGH,High/Secondary Schools,DEPT
1013,Christies Beach HS & Sth Voc College,Morton Road,Christie Downs,5164,-35.136982,138.497694,SCHL,HIGH,High/Secondary Schools,DEPT
1014,SA School for Vision Impaired,1B Duncan Avenue,Park Holme,5043,-34.990774,138.554376,SCHL,SPPS,Primary/Secondary Special Schools,DEPT
1015,Banksia Park School R-7,1-5 Cottenham Road,Banksia Park,5091,-34.808854,138.72609,SCHL,PS,Primary Schools,DEPT
1016,Hospital School South Australia,72 King William Road,North Adelaide,5006,-34.91151518,138.59996547,NONS,SPHES,Hospital Education Services,DEPT
1017,Glenelg Primary School,Diagonal Road,Glenelg East,5045,-34.984862,138.521718,SCHL,PS,Primary Schools,DEPT
1018,Flagstaff Hill R-7 School,145 Black Road,Flagstaff Hill,5159,-35.049771,138.589633,SCHL,PS,Primary Schools,DEPT
1019,Christie Downs Primary School,Elizabeth Road,Christie Downs,5164,-35.13252,138.494457,SCHL,PS,Primary Schools,DEPT
1020,Melaleuca Park Primary School,Boandik Terrace,Mount Gambier,5290,-37.839912,140.794491,SCHL,PS,Primary Schools,DEPT
1021,McDonald Park School,57 North Terrace,Mount Gambier,5290,-37.825912,140.793059,SCHL,PS,Primary Schools,DEPT
1022,Grange Primary School,39C Jetty Street,Grange,5022,-34.903696,138.49717,SCHL,PS,Primary Schools,DEPT
1028,Charles Campbell College,3 Campbell Road,Paradise,5075,-34.87403,138.674133,SCHL,PSS,Primary/Secondary Schools,DEPT
1030,Edward John Eyre High School,Grundel Street,Whyalla Norrie,5608,-33.026208,137.540961,SCHL,HIGH,High/Secondary Schools,DEPT
1034,Ernabella Anangu School,N/A,Ernabella,872,-26.266359,132.14184,SCHL,ANSCH,Anangu Schools,DEPT
1036,East Adelaide School,57-59 Second Avenue,St Peters,5069,-34.9048,138.627596,SCHL,PS,Primary Schools,DEPT
1038,South Downs Primary School,Mavros Road,Elizabeth Downs,5113,-34.706102,138.685487,SCHL,PS,Primary Schools,DEPT
1041,Salisbury Primary School,10 Compuda Street,Salisbury,5108,-34.767152,138.647255,SCHL,PS,Primary Schools,DEPT
1043,East Marden Primary School,43 James Street,Campbelltown,5074,-34.881964,138.65353,SCHL,PS,Primary Schools,DEPT
1044,Reynella South Primary School,119-135 Sherriffs Road,Reynella,5161,-35.103462,138.524358,SCHL,PS,Primary Schools,DEPT
1045,Para Hills West Primary School,21 Balkara Road,Para Hills West,5096,-34.799894,138.653038,SCHL,PS,Primary Schools,DEPT
1047,Modbury South Primary School,Dampier Avenue,Hope Valley,5090,-34.839319,138.69719,SCHL,PS,Primary Schools,DEPT
1048,Para Vista Primary School,351 Montague Road,Para Vista,5093,-34.830231,138.663164,SCHL,PS,Primary Schools,DEPT
1051,Ridgehaven Primary School,479 Milne Road,Ridgehaven,5097,-34.818559,138.710323,SCHL,PS,Primary Schools,DEPT
1053,Hallett Cove East Primary School,Quailo Avenue,Hallett Cove,5158,-35.071138,138.517181,SCHL,PS,Primary Schools,DEPT
1054,Hallett Cove South Primary School,Livonia Street,Hallett Cove,5158,-35.08256,138.503926,SCHL,PS,Primary Schools,DEPT
1056,Woodend Primary School,Edward Beck Drive,Sheidow Park,5158,-35.079393,138.53383,SCHL,PS,Primary Schools,DEPT
1059,Pimpala Primary School,24 Vanstone Avenue,Morphett Vale,5162,-35.112846,138.530333,SCHL,PS,Primary Schools,DEPT
1060,O'Sullivan Beach Primary School,51 Galloway Road,O'Sullivan Beach,5166,-35.125417,138.479656,SCHL,PS,Primary Schools,DEPT
1062,Swallowcliffe School P-7,cnr Oldford St & Swallowcliffe Rd,Davoren Park,5113,-34.696671,138.662941,SCHL,PS,Primary Schools,DEPT
1063,Highgate School,4 Hampstead Avenue,Highgate,5063,-34.962788,138.622561,SCHL,PS,Primary Schools,DEPT
1066,Hackham East Primary School,Collins Parade,Hackham,5163,-35.140202,138.53528,SCHL,PS,Primary Schools,DEPT
1067,Huntfield Heights Primary School,78 Melsetter Road,Huntfield Heights,5163,-35.152857,138.517965,SCHL,PS,Primary Schools,DEPT
1068,Noarlunga Downs Primary School,Canterbury Crescent,Noarlunga Downs,5168,-35.150074,138.496349,SCHL,PS,Primary Schools,DEPT
1071,Moana Primary School,Schooner Road,Seaford,5169,-35.192128,138.474988,SCHL,PS,Primary Schools,DEPT
1090,Redwood Park Primary School,2-10 Lokan Street,Redwood Park,5097,-34.814868,138.700743,SCHL,PS,Primary Schools,DEPT
1091,St Agnes Primary School,250 Smart Road,St Agnes,5097,-34.831012,138.718284,SCHL,PS,Primary Schools,DEPT
1098,Lonsdale Heights Primary School,25 Sunningdale Drive,Christie Downs,5164,-35.124659,138.501235,SCHL,PS,Primary Schools,DEPT
1099,Paralowie School,Whites Road,Paralowie,5108,-34.753406,138.621394,SCHL,PSS,Primary/Secondary Schools,DEPT
1100,Surrey Downs R-7 School,16-24 Vine Street,Surrey Downs,5126,-34.800032,138.711462,SCHL,PS,Primary Schools,DEPT
1103,Fairview Park Primary School,Nepondi Court,Fairview Park,5126,-34.79778,138.731422,SCHL,PS,Primary Schools,DEPT
1117,Banksia Park International HS,610 Milne Road,Banksia Park,5091,-34.814401,138.726168,SCHL,HIGH,High/Secondary Schools,DEPT
1121,Miltaburra Area School,3493 Miltaburra Road,Wirrulla,5661,-32.375617,134.33113,SCHL,AREA,Area Schools,DEPT
1123,Karcultaby Area School,Philips Road,Karcultaby,5654,-32.760531,134.966099,SCHL,AREA,Area Schools,DEPT
1131,Hackham West R-7 School,50 Glynville Drive,Hackham West,5163,-35.144166,138.518017,SCHL,PS,Primary Schools,DEPT
1133,Long Street Primary School,Eyre Avenue,Whyalla Norrie,5608,-33.038921,137.533009,SCHL,PS,Primary Schools,DEPT
1134,East Para Primary School,12 Caroona Avenue,Para Hills,5096,-34.81765,138.666078,SCHL,PS,Primary Schools,DEPT
1135,Karrendi Primary School,15 Bradman Road,Parafield Gardens,5107,-34.790544,138.618502,SCHL,PS,Primary Schools,DEPT
1136,Bellevue Heights Primary School,7-19 Vaucluse Crescent,Bellevue Heights,5050,-35.028955,138.588869,SCHL,PS,Primary Schools,DEPT
1137,Parafield Gardens High School,15 Shepherdson Road,Parafield Gardens,5107,-34.786022,138.618914,SCHL,HIGH,High/Secondary Schools,DEPT
1140,Salisbury Park Primary School,66 Goddard Drive,Salisbury Park,5109,-34.759701,138.668718,SCHL,PS,Primary Schools,DEPT
1142,Flaxmill School P-7,80 Flaxmill Road,Morphett Vale,5162,-35.127467,138.519246,SCHL,PS,Primary Schools,DEPT
1154,Thorndon Park Primary School,71 Stradbroke Road,Athelstone,5076,-34.884101,138.693245,SCHL,PS,Primary Schools,DEPT
1158,Lincoln Gardens Primary School,Barley Road,Port Lincoln,5606,-34.742145,135.847469,SCHL,PS,Primary Schools,DEPT
1162,Ingle Farm Primary School,2 Belalie Road,Ingle Farm,5098,-34.827631,138.643207,SCHL,PS,Primary Schools,DEPT
1163,Braeview School R-7,1A Montana Drive,Happy Valley,5159,-35.081009,138.554104,SCHL,PS,Primary Schools,DEPT
1166,Fulham North Primary School,Cheadle Street,Henley Beach,5022,-34.91956,138.505096,SCHL,PS,Primary Schools,DEPT
1170,Mannum Community College,Walker Avenue,Mannum,5238,-34.912544,139.303495,SCHL,AREA,Area Schools,DEPT
1174,Indulkana Anangu School,N/A,Indulkana,872,-26.964511,133.30096,SCHL,ANSCH,Anangu Schools,DEPT
1177,Salisbury Heights Primary School,9 Ward Street,Salisbury Heights,5109,-34.758812,138.678136,SCHL,PS,Primary Schools,DEPT
1183,North Ingle School,7 Rothwell Avenue,Ingle Farm,5098,-34.819515,138.644612,SCHL,PS,Primary Schools,DEPT
1184,Valley View Secondary School,240 Wright Road,Para Vista,5093,-34.83428,138.656585,SCHL,HIGH,High/Secondary Schools,DEPT
1188,Morphett Vale East School R-7,Monarch Street,Morphett Vale,5162,-35.121869,138.530944,SCHL,PS,Primary Schools,DEPT
1194,Salisbury Downs Primary School,39 Paramount Road,Salisbury Downs,5108,-34.771193,138.622667,SCHL,PS,Primary Schools,DEPT
1195,Stuart High School,Bastyan Crescent,Whyalla Stuart,5608,-33.015064,137.517105,SCHL,HIGH,High/Secondary Schools,DEPT
1196,Fregon Anangu School,N/A,Fregon,872,-26.771079,132.028877,SCHL,ANSCH,Anangu Schools,DEPT
1201,Gulfview Heights Primary School,39 Kiekebusch Road,Gulfview Heights,5096,-34.792078,138.668666,SCHL,PS,Primary Schools,DEPT
1203,Westport Primary School,53 West Street,Semaphore Park,5019,-34.855142,138.491357,SCHL,PS,Primary Schools,DEPT
1205,Woodville Gardens School B-7 Chn Ctr,Ridley Grove,Woodville Gardens,5012,-34.863319,138.55068,PRESC,CCEN,Children's Centres,DEPT
1206,Blair Athol North School B-7 Chn Ctr,Marmion Avenue,Blair Athol,5084,-34.853585,138.598933,PRESC,CCEN,Children's Centres,DEPT
1207,Seaford K-7 Birth-Y7 Campus,39 Jane Street,Port Noarlunga South,5167,-35.175541,138.471755,SCHL,PS,Primary Schools,DEPT
1209,Middle Campus - Norwood Morialta,Morialta Road West,Rostrevor,5073,-34.901635,138.676988,SCHL,HIGH,High/Secondary Schools,DEPT
1210,Modbury West School,450-474 Wright Road,Modbury,5092,-34.833255,138.67648,SCHL,PS,Primary Schools,DEPT
1213,Magill School,Adelaide Street,Magill,5072,-34.913797,138.676799,SCHL,PS,Primary Schools,DEPT
1217,Glencoe Central Primary School,135 Kirrup Road,Glencoe,5291,-37.669641,140.594383,SCHL,PS,Primary Schools,DEPT
1226,Craigburn Primary School,15 Murrays Hill Road,Flagstaff Hill,5159,-35.056187,138.615495,SCHL,PS,Primary Schools,DEPT
1228,Felixstow Community School,5-11 Briar Road,Felixstow,5070,-34.892508,138.644305,SCHL,PS,Primary Schools,DEPT
1246,West Lakes Shore School R-7,Edwin Street,West Lakes Shore,5020,-34.863484,138.481851,SCHL,PS,Primary Schools,DEPT
1253,Disability Unit Mt Barker HS,2 Wellington Road,Mount Barker,5251,-35.074991,138.85705,NONS,SPDIS,Disability Units,DEPT
1277,Port Lincoln Junior Primary School,Adelaide Place,Port Lincoln,5606,-34.724303,135.857806,SCHL,JPS,Junior Primary Schools,DEPT
1285,Torrensville Primary School,Hayward Avenue,Torrensville,5031,-34.919368,138.556719,SCHL,PS,Primary Schools,DEPT
1294,Brighton Centre for Hearing Impaired,1 Highet Avenue,Brighton,5048,-35.015974,138.526228,NONS,SPHR,Hospital Education Services,DEPT
1317,Klemzig Centre for Hearing Impaired,2 Hay Street,Klemzig,5087,-34.877176,138.637665,NONS,SPHR,Hospital Education Services,DEPT
1364,Warriappendi School,1 John Street,Marleston,5033,-34.942677,138.570592,SCHL,ALTSC,Alternative Prim/Sec Schools,DEPT
1372,Kilparrin Tch & Assessment Sch & Ser,1C Duncan Avenue,Park Holme,5043,-34.990774,138.554376,SCHL,SPPS,Primary/Secondary Special Schools,DEPT
1375,North Haven School,Tapping Crescent,North Haven,5018,-34.790581,138.497559,SCHL,PS,Primary Schools,DEPT
1382,Fraser Park Primary School,25-27 Burdekin Avenue,Murray Bridge,5253,-35.140168,139.281358,SCHL,PS,Primary Schools,DEPT
1388,Prospect Centre,114 Main North Road,Prospect,5082,-34.8892221,138.60268763,NONS,TRANS,Statewide Transition Centres,DEPT
1389,OAC Marden Campus,1-37 Marden Road,Marden,5070,-34.89271,138.635942,SCHL,OPACC,Open Access College,DEPT
1390,Zoos SA - Education,Frome Road,Adelaide,5000,-34.913853,138.606226,NONS,AEE,Ancillary Education Establishments,DEPT
1396,Flinders View Primary School,Chinnery Street,Port Augusta West,5700,-32.472921,137.753501,SCHL,PS,Primary Schools,DEPT
1399,Port Augusta Special School,McSporran Crescent,Port Augusta West,5700,-32.472817,137.752159,SCHL,SPPS,Primary/Secondary Special Schools,DEPT
1404,Lake Windemere B-7 Children's Centre,17 Uraidla Avenue,Salisbury North,5108,-34.740607,138.620474,PRESC,CCEN,Children's Centres,DEPT
1405,Modbury Special School,Dampier Avenue,Hope Valley,5090,-34.841544,138.697476,SCHL,SPPS,Primary/Secondary Special Schools,DEPT
1409,Special Education Resource Unit,72A Marlborough Street,Henley Beach,5022,-34.91167,138.50125,NONS,SPSER,Special ED Resource Services,DEPT
1414,Adelaide West Special Education Ctr,12-20 Moldavia Walk,Taperoo,5017,-34.8012875,138.49426855,SCHL,SPPS,Primary/Secondary Special Schools,DEPT
1415,Errington Special Education Centre,21B Errington Street,Plympton,5038,-34.962236,138.547561,SCHL,SPPS,Primary/Secondary Special Schools,DEPT
1417,The Briars Special ELC,5 Briar Road,Felixstow,5070,-34.89319,138.644718,PRESC,SPPRE,Special Preschools,DEPT
1418,Bowden Brompton Community School,85A Torrens Road,Brompton,5007,-34.895043,138.580071,SCHL,ALTPS,Alternative Prim/Sec Schools,DEPT
1423,John Hartley B-7 Children's Centre,199 Peachey Road,Smithfield Plains,5114,-34.679553,138.672641,PRESC,CCEN,Children's Centres,DEPT
1426,Arbury Park Outdoor School,Arbury Park Road,Bridgewater,5155,-35.002916,138.749546,NONS,AEE,Ancillary Education Establishments,DEPT
1427,Riverdale Primary School,15 de Mille Street,Salisbury Downs,5108,-34.766448,138.613754,SCHL,PS,Primary Schools,DEPT
1430,The Heights School,Brunel Drive,Modbury Heights,5092,-34.81146,138.682448,SCHL,PSS,Primary/Secondary Schools,DEPT
1432,Burra Community School,7 Bridge Terrace,Burra,5417,-33.676848,138.93781,SCHL,AREA,Area Schools,DEPT
1435,Botanic Gdns of Adelaide - Ed Serv,North Terrace,Adelaide,5000,-34.917356,138.613256,NONS,AEE,Ancillary Education Establishments,DEPT
1448,Mark Oliphant College Children's Ctr,99 Douglas Drive,Munno Para,5115,-34.665475,138.683575,PRESC,CCEN,Children's Centres,DEPT
1449,Craigmore South Primary School,Turner Drive,Craigmore,5114,-34.709798,138.706953,SCHL,PS,Primary Schools,DEPT
1450,Renown Park Preschool,132 West Street,Brompton,5007,-34.895533,138.579755,PRESC,CSC,Children's Services Centres,DEPT
1475,Daws Road Centre,141 Daws Road,St Marys,5042,-34.99819,138.57568,NONS,TRANS,Statewide Transition Centres,DEPT
1481,Stirling North Primary School,Beckman Street,Stirling North,5710,-32.513732,137.837712,SCHL,PS,Primary Schools,DEPT
1482,Munno Para Primary School,Maltarra Road,Munno Para,5115,-34.669727,138.699713,SCHL,PS,Primary Schools,DEPT
1485,Windsor Gdns Cen for Hearing Impair,McKay Avenue,Windsor Gardens,5087,-34.860757,138.657925,NONS,SPHR,Hospital Education Services,DEPT
1486,Hospital School SA - FMC,"Pediatric Unit, Flinders Medical Centre, Flinders Drive",Bedford Park,5042,-35.022072,138.568997,NONS,SPHES,Hospital Education Services,DEPT
1488,Moonta Area School,Blanche Terrace,Moonta,5558,-34.07044,137.591704,SCHL,AREA,Area Schools,DEPT
1526,Pipalyatjara Anangu School,N/A,Pipalyatjara,872,-26.162277,129.171997,SCHL,ANSCH,Anangu Schools,DEPT
1527,Mimili Anangu School,N/A,Mimili,872,-27.006274,132.708713,SCHL,ANSCH,Anangu Schools,DEPT
1532,Commnctn & Language Disorder Sup Ser,72A Marlborough Street,Henley Beach,5022,-34.91167,138.50125,NONS,SPSER,Special ED Resource Services,DEPT
1537,Sheidow Park Primary School,21-43 Adams Road,Sheidow Park,5158,-35.071074,138.533052,SCHL,PS,Primary Schools,DEPT
1539,Mount Barker South Primary School,33-45 Princes Road,Mount Barker,5251,-35.080093,138.859874,SCHL,PS,Primary Schools,DEPT
1540,Ardtornish Primary School,2 Saarinen Avenue,St Agnes,5097,-34.833595,138.704599,SCHL,PS,Primary Schools,DEPT
1551,Wiltja Program,11 Actil Avenue,St Clair,5011,-34.872943,138.540808,NONS,AEE,Ancillary Education Establishments,DEPT
1555,Alberton Preschool,14 Broad Street,Queenstown,5014,-34.862686,138.512656,PRESC,CPC,Child Parent Centres,DEPT
1556,Amata Preschool,N/A,Amata,872,-26.152169,131.137746,PRESC,ANPRE,Anangu Preschools,DEPT
1557,Andamooka Playcentre,Government Road,Andamooka,5722,-30.450885,137.167482,PRESC,PLCEN,Playcentres,DEPT
1559,Beachport Preschool,Golf Course Road,Beachport,5280,-37.475436,140.009715,PRESC,CPC,Child Parent Centres,DEPT
1561,Napperby Preschool,Oaks Road,Napperby,5540,-33.153622,138.113946,PRESC,CPC,Child Parent Centres,DEPT
1563,Campbelltown Preschool,163A Montacute Road,Newton,5074,-34.887647,138.677366,PRESC,CSC,Children's Services Centres,DEPT
1564,Cambrai Preschool,Main Road,Cambrai,5353,-34.652367,139.281378,PRESC,CPC,Child Parent Centres,DEPT
1566,Coober Pedy Child Parent Centre,Paxton Road,Coober Pedy,5723,-29.012508,134.752059,PRESC,CPC,Child Parent Centres,DEPT
1567,Cowandilla Children's Centre,21 Jenkins Street,Cowandilla,5033,-34.933968,138.560378,PRESC,CCEN,Children's Centres,DEPT
1569,Cummins Child Parent Centre,McFarlane Street,Cummins,5631,-34.263414,135.722383,PRESC,CPC,Child Parent Centres,DEPT
1570,Echunga Child Parent Centre,802 Echunga Road,Echunga,5153,-35.097706,138.79085,PRESC,CPC,Child Parent Centres,DEPT
1571,Elizabeth Downs Child Parent Centre,Heard Street,Elizabeth Downs,5113,-34.698977,138.694605,PRESC,CPC,Child Parent Centres,DEPT
1572,Elizabeth Park Child Parent Centre,15 Turner Road,Elizabeth Park,5113,-34.712953,138.684923,PRESC,CPC,Child Parent Centres,DEPT
1573,Elizabeth Vale Preschool,Rollison Road,Elizabeth Vale,5112,-34.746434,138.669012,PRESC,CPC,Child Parent Centres,DEPT
1574,Swallowcliffe Preschool,cnr Oldford St & Swallowcliffe Rd,Davoren Park,5113,-34.69719,138.664287,PRESC,CPC,Child Parent Centres,DEPT
1576,Fairview Park Child Parent Centre,Nepondi Court,Fairview Park,5126,-34.797808,138.73227,PRESC,CPC,Child Parent Centres,DEPT
1578,Flaxmill Preschool,80 Flaxmill Road,Morphett Vale,5162,-35.127425,138.519363,PRESC,CPC,Child Parent Centres,DEPT
1579,Fraser Park Child Parent Centre,25-27 Burdekin Avenue,Murray Bridge,5253,-35.140639,139.281692,PRESC,CPC,Child Parent Centres,DEPT
1580,Fregon Child Parent Centre,N/A,Fregon,872,-26.771091,132.028917,PRESC,ANPRE,Anangu Preschools,DEPT
1581,Gerard/Winkie Preschool,Mitchell Terrace,Glossop,5344,-34.271342,140.524768,PRESC,CPC,Child Parent Centres,DEPT
1582,Gilles Plains Children's Centre,Beatty Avenue,Hillcrest,5086,-34.858428,138.651763,PRESC,CCEN,Children's Centres,DEPT
1583,Goodwood Preschool,140 Goodwood Road,Goodwood,5034,-34.951565,138.589328,PRESC,CPC,Child Parent Centres,DEPT
1584,Hallett Cove South Preschool,Livonia Street,Hallett Cove,5158,-35.082601,138.50398,PRESC,CPC,Child Parent Centres,DEPT
1585,Hendon Preschool,Cedar Avenue,Royal Park,5014,-34.877025,138.511238,PRESC,CPC,Child Parent Centres,DEPT
1586,Indulkana Child Parent Centre,N/A,Indulkana,872,-26.964511,133.30096,PRESC,ANPRE,Anangu Preschools,DEPT
1589,Karoonda Preschool,North Terrace,Karoonda,5307,-35.092228,139.893738,PRESC,CPC,Child Parent Centres,DEPT
1590,Disability Unit Nuriootpa HS,Penrice Road,Nuriootpa,5355,-34.466434,139.000529,NONS,SPDIS,Disability Units,DEPT
1592,Kilkenny Preschool,Jane Street,West Croydon,5008,-34.891098,138.553319,PRESC,CPC,Child Parent Centres,DEPT
1593,Kongorong Child Parent Centre,34 School Road,Kongorong,5291,-37.902252,140.56142,PRESC,CPC,Child Parent Centres,DEPT
1594,Koonibba Child Parent Centre,N/A,Koonibba,5690,-31.902744,133.425975,PRESC,ABPRE,Aboriginal Preschools,DEPT
1595,Lonsdale Heights Preschool,25 Sunningdale Drive,Christie Downs,5164,-35.124884,138.501876,PRESC,CPC,Child Parent Centres,DEPT
1597,Marree Preschool,First Street,Marree,5733,-29.649173,138.061074,PRESC,ABPRE,Aboriginal Preschools,DEPT
1598,Modbury Child Parent Centre,2-18 Golden Grove Road,Modbury North,5092,-34.825797,138.692386,PRESC,CPC,Child Parent Centres,DEPT
1599,Modbury South Preschool,Dampier Avenue,Hope Valley,5090,-34.83988,138.696634,PRESC,CPC,Child Parent Centres,DEPT
1600,The Heights Preschool,Brunel Drive,Modbury Heights,5092,-34.810509,138.683278,PRESC,CPC,Child Parent Centres,DEPT
1601,Moorak Child Parent Centre,171 Yells Road,Moorak,5291,-37.864757,140.736898,PRESC,CPC,Child Parent Centres,DEPT
1602,Mount Burr Child Parent Centre,Thomas Drive,Mount Burr,5279,-37.541435,140.458885,PRESC,CPC,Child Parent Centres,DEPT
1604,Nairne Child Parent Centre,5 Saleyard Road,Nairne,5252,-35.03837,138.903539,PRESC,CPC,Child Parent Centres,DEPT
1605,Nangwarry Child Parent Centre,Whitford Crescent,Nangwarry,5277,-37.541539,140.818169,PRESC,CPC,Child Parent Centres,DEPT
1607,Oodnadatta Child Parent Centre,Kutaya Tce,Oodnadatta,5734,-27.54809,135.445794,PRESC,ABPRE,Aboriginal Preschools,DEPT
1608,Para Hills Child Parent Centre,26 Wilkinson Road,Para Hills,5096,-34.812141,138.651277,PRESC,CPC,Child Parent Centres,DEPT
1609,Para Vista Child Parent Centre,351 Montague Road,Para Vista,5093,-34.830072,138.662358,PRESC,CPC,Child Parent Centres,DEPT
1610,KICE - Parndana Campus Preschool,Wedgewood Road,Parndana,5220,-35.786827,137.263281,PRESC,CPC,Child Parent Centres,DEPT
1611,Raukkan Child Parent Centre,Taplin Street,Raukkan,5259,-35.508165,139.131565,PRESC,ABPRE,Aboriginal Preschools,DEPT
1612,Point Pearce Child Parent Centre,Parrys Avenue,Point Pearce,5573,-34.440523,137.50862,PRESC,ABPRE,Aboriginal Preschools,DEPT
1615,Reynella South Preschool,119-135 Sherriffs Road,Reynella,5161,-35.104138,138.524655,PRESC,CPC,Child Parent Centres,DEPT
1616,Disability Unit Golden Grove HS,1 Adey Place,Golden Grove,5125,-34.792874,138.696789,NONS,SPDIS,Disability Units,DEPT
1617,Ridgehaven Child Parent Centre,479 Milne Road,Ridgehaven,5097,-34.816874,138.710125,PRESC,CPC,Child Parent Centres,DEPT
1619,Westport Preschool,53 West Street,Semaphore Park,5019,-34.854601,138.490559,PRESC,CPC,Child Parent Centres,DEPT
1620,St Agnes Preschool,250 Smart Road,St Agnes,5097,-34.831106,138.718371,PRESC,CPC,Child Parent Centres,DEPT
1621,Wandana Child Parent Centre,2-12 Cowra Avenue,Gilles Plains,5086,-34.849337,138.66173,PRESC,CPC,Child Parent Centres,DEPT
1622,Tantanoola Playcentre,Randall Street,Tantanoola,5280,-37.698699,140.454088,PRESC,PLCEN,Playcentres,DEPT
1624,Tintinara Preschool,37 Wendt Terrace,Tintinara,5266,-35.883076,140.06243,PRESC,CPC,Child Parent Centres,DEPT
1625,Trinity Gardens Children's Centre,160 Portrush Road,Trinity Gardens,5068,-34.90918,138.640595,PRESC,CCEN,Children's Centres,DEPT
1626,Virginia Preschool,Park Road,Virginia,5120,-34.665004,138.556484,PRESC,CPC,Child Parent Centres,DEPT
1628,Williamstown School-Based Preschool,15 Margaret Street,Williamstown,5351,-34.667801,138.890401,PRESC,CPC,Child Parent Centres,DEPT
1629,Yalata Child Parent Centre,N/A,Yalata,5690,-31.508231,131.855273,PRESC,ANPRE,Anangu Preschools,DEPT
1630,Padthaway Child Parent Centre,Vogelsang Road,Padthaway,5271,-36.593079,140.496907,PRESC,CPC,Child Parent Centres,DEPT
1631,Redwood Park Preschool,2-10 Lokan Street,Redwood Park,5097,-34.815317,138.701731,PRESC,CPC,Child Parent Centres,DEPT
1634,North Ingle Preschool,7 Rothwell Avenue,Ingle Farm,5098,-34.818994,138.645728,PRESC,CPC,Child Parent Centres,DEPT
1645,Gordon Education Centre,18 Brownes Road,Mount Gambier,5290,-37.825123,140.768224,SCHL,SPPS,Primary/Secondary Special Schools,DEPT
1647,Allenby Gardens Child Parent Centre,Barham Street,Allenby Gardens,5009,-34.902216,138.554414,PRESC,CPC,Child Parent Centres,DEPT
1648,Disability Unit Tanunda PS,Research Road,Tanunda,5352,-34.526253,138.959337,NONS,SPDIS,Disability Units,DEPT
1649,Adelaide Festival Centre-Ed Service,King William Road,Adelaide,5000,-34.919668,138.598093,NONS,AEE,Ancillary Education Establishments,DEPT
1650,Mulga Street Primary School,Mulga Street,Mount Gambier,5290,-37.811585,140.759668,SCHL,PS,Primary Schools,DEPT
1655,Reynella East Preschool,63 Malbeck Drive,Reynella East,5161,-35.090786,138.555426,PRESC,CPC,Child Parent Centres,DEPT
1664,Thiele Primary School,2 Campus Drive,Aberfoyle Park,5159,-35.066587,138.594817,SCHL,PS,Primary Schools,DEPT
1672,OAC Port Augusta School of the Air,59 Power Crescent,Port Augusta,5700,-32.494682,137.783814,SCHL,OPACC,Open Access College,DEPT
1673,Aberfoyle Park High School,Taylors Road East,Aberfoyle Park,5159,-35.074007,138.594181,SCHL,HIGH,High/Secondary Schools,DEPT
1683,Hahndorf Preschool,12 Church Street,Hahndorf,5245,-35.027171,138.810771,PRESC,CPC,Child Parent Centres,DEPT
1685,Kangaroo Inn Preschool,2329 Beachport-Penola Road,Kangaroo Inn,5280,-37.337684,140.244317,PRESC,CPC,Child Parent Centres,DEPT
1686,Adelaide Secondary School of English,253 Torrens Road,West Croydon,5008,-34.886834,138.565419,SCHL,LANGS,Language Schools,DEPT
1696,Kenmore Park Anangu School,N/A,Kenmore Park,872,-26.327195,132.446228,SCHL,ANSCH,Anangu Schools,DEPT
1698,Mount Gambier Children's Centre,Mulga Street,Mount Gambier,5290,-37.811741,140.760307,PRESC,CCEN,Children's Centres,DEPT
1699,Beafield EC McKay Avenue Campus,McKay Avenue,Windsor Gardens,5087,-34.860757,138.657925,NONS,BSSER,Behaviour Support Services,DEPT
1715,Huntfield Heights CPC,78 Melsetter Road,Huntfield Heights,5163,-35.154545,138.518125,PRESC,CPC,Child Parent Centres,DEPT
1716,Challa Gardens Child Parent Centre,Humphries Terrace,Kilkenny,5009,-34.877819,138.554485,PRESC,CPC,Child Parent Centres,DEPT
1732,Elizabeth North Preschool,141 Woodford Road,Elizabeth North,5113,-34.703667,138.674651,PRESC,CPC,Child Parent Centres,DEPT
1734,Mallala Preschool,28 Owen Road,Mallala,5502,-34.434403,138.510525,PRESC,CPC,Child Parent Centres,DEPT
1776,Woodcroft Primary School,1-23 Investigator Drive,Woodcroft,5162,-35.10505,138.556331,SCHL,PS,Primary Schools,DEPT
1777,The Pines School,42 Andrew Smith Drive,Parafield Gardens,5107,-34.773316,138.607722,SCHL,PS,Primary Schools,DEPT
1778,Northfield Child Parent Centre,North Avenue,Northfield,5085,-34.848938,138.620003,PRESC,CPC,Child Parent Centres,DEPT
1782,East Murray Preschool,1182 East Murray Area School Road,Mindarie,5309,-34.815955,140.216073,PRESC,CPC,Child Parent Centres,DEPT
1783,Flinders View Child Parent Centre,Chinnery Street,Port Augusta West,5700,-32.472765,137.754341,PRESC,CPC,Child Parent Centres,DEPT
1784,Freeling Preschool,Coulls Street,Freeling,5372,-34.457776,138.810725,PRESC,CPC,Child Parent Centres,DEPT
1785,One Tree Hill Preschool,"One Tree Hill Primary School, McGilp Road",One Tree Hill,5114,-34.713577,138.766457,PRESC,CPC,Child Parent Centres,DEPT
1786,Renmark North Preschool,Warrego Street,Renmark North,5341,-34.126424,140.711668,PRESC,CPC,Child Parent Centres,DEPT
1787,Warooka Child Parent Centre,47 Main Street,Warooka,5577,-34.990339,137.398998,PRESC,CPC,Child Parent Centres,DEPT
1789,The Pines Child Parent Centre,42 Andrew Smith Drive,Parafield Gardens,5107,-34.772737,138.607689,PRESC,CPC,Child Parent Centres,DEPT
1790,Pipalyatjara Anangu Preschool,N/A,Pipalyatjara,872,-26.162277,129.171997,PRESC,ANPRE,Anangu Preschools,DEPT
1792,Kaurna Plains School,85 Ridley Road,Elizabeth,5112,-34.725684,138.66456,SCHL,ABSCH,Aboriginal Schools,DEPT
1794,Mintabie Area School,Airport Road,Mintabie,5724,-27.315532,133.290422,SCHL,AREA,Area Schools,DEPT
1798,Ernabella Anangu Child Parent Centre,N/A,Ernabella,872,-26.266359,132.14184,PRESC,ANPRE,Anangu Preschools,DEPT
1800,Australian Science & Mathematics Sch,Sturt Road,Bedford Park,5042,-35.025081,138.573489,SCHL,HIGH,High/Secondary Schools,DEPT
1801,Port Lincoln Special School,Barley Road,Port Lincoln,5606,-34.741941,135.846117,SCHL,SPPS,Primary/Secondary Special Schools,DEPT
1802,School of Languages,255 Torrens Road,West Croydon,5008,-34.88711019,138.56537714,NONS,LOTE,Specialist Language (LOTE) School,DEPT
1817,Roxby Downs Area School,7 Richardson Place,Roxby Downs,5725,-30.560299,136.897084,SCHL,AREA,Area Schools,DEPT
1829,Littlehampton Preschool,16-30 Baker Street,Littlehampton,5250,-35.049228,138.868164,PRESC,CPC,Child Parent Centres,DEPT
1830,Houghton Preschool,1376 Lower North East Road,Houghton,5131,-34.831013,138.758898,PRESC,CPC,Child Parent Centres,DEPT
1832,SA Maritime Museum-Ed Service,119 Lipson Street,Port Adelaide,5015,-34.84332319,138.505932,NONS,AEE,Ancillary Education Establishments,DEPT
1834,Golden Grove High School,1 Adey Place,Golden Grove,5125,-34.792874,138.696789,SCHL,HIGH,High/Secondary Schools,DEPT
1838,Kenmore Park Child Parent Centre,N/A,Kenmore Park,872,-26.327195,132.446228,PRESC,ANPRE,Anangu Preschools,DEPT
1839,Wynn Vale Child Parent Centre,17-19 Sunnybrook Drive,Wynn Vale,5127,-34.800685,138.687269,PRESC,CPC,Child Parent Centres,DEPT
1841,Oak Valley Aboriginal School CPC,N/A,Oak Valley,5690,-29.402891,130.738974,PRESC,ABPRE,Aboriginal Preschools,DEPT
1844,Burton Primary School,49A Kensington Way,Burton,5110,-34.741477,138.597764,SCHL,PS,Primary Schools,DEPT
1847,Keithcot Farm Primary School,5 Keithcot Farm Drive,Wynn Vale,5127,-34.800122,138.677195,SCHL,PS,Primary Schools,DEPT
1848,Golden Grove Primary School,140 Bicentennial Drive,Golden Grove,5125,-34.786314,138.70893,SCHL,PS,Primary Schools,DEPT
1851,Settlers Farm Campus R-7,23 Barassi Street,Paralowie,5108,-34.756756,138.595629,SCHL,PS,Primary Schools,DEPT
1854,Blakeview Primary School,Omega Drive,Blakeview,5114,-34.687892,138.699485,SCHL,PS,Primary Schools,DEPT
1855,Seaford Rise Primary School,Grand Boulevard,Seaford Rise,5169,-35.199247,138.487561,SCHL,PS,Primary Schools,DEPT
1856,Mimili Child Parent Centre,N/A,Mimili,872,-27.006274,132.708713,PRESC,ANPRE,Anangu Preschools,DEPT
1858,Greenwith Primary School,1500 Golden Grove Road,Greenwith,5125,-34.77021,138.720617,SCHL,PS,Primary Schools,DEPT
1859,Murputja Anangu School,N/A,Murputja Homelands,872,-26.160906,130.181841,SCHL,ANSCH,Anangu Schools,DEPT
1861,Adelaide Centre for Hearing Impaired,West Terrace,Adelaide,5000,-34.925733,138.586678,NONS,SPHR,Hospital Education Services,DEPT
1863,Beafield Education Centre,90 Beafield Road,Para Hills West,5096,-34.799266,138.650711,NONS,BSSER,Behaviour Support Services,DEPT
1865,Bellevue Heights PS IELC,7-19 Vaucluse Crescent,Bellevue Heights,5050,-35.0277585,138.58851251,NONS,LANGU,Language Unit,DEPT
1866,Ingle Farm PS IELC,2 Belalie Road,Ingle Farm,5098,-34.8271201,138.64093451,NONS,LANGU,Language Unit,DEPT
1867,Salisbury North R-7 IELC,38 Bagster Road,Salisbury North,5108,-34.75359089,138.63360809,NONS,LANGU,Language Unit,DEPT
1868,Thebarton SC New Arrivals Program,Ashley Street,Torrensville,5031,-34.91730169,138.56279754,NONS,LANGU,Language Unit,DEPT
1870,Pennington R-7 School IELC,Butler Avenue,Pennington,5013,-34.857487,138.532493,NONS,LANGU,Language Unit,DEPT
1874,Gilles St PS IELC,91 Gilles Street,Adelaide,5000,-34.9343927,138.60374738,NONS,LANGU,Language Unit,DEPT
1876,Hewett Primary School,Kingfisher Drive,Hewett,5118,-34.575404,138.751078,SCHL,PS,Primary Schools,DEPT
1878,Murputja Child Parent Centre,N/A,Murputja Homelands,872,-26.160906,130.181841,PRESC,ANPRE,Anangu Preschools,DEPT
1879,Playford Primary School,216-220 Adams Road,Craigmore,5114,-34.688885,138.713131,SCHL,PS,Primary Schools,DEPT
1881,Sturt Street Community School,221-239 Sturt Street,Adelaide,5000,-34.933817,138.590211,SCHL,PS,Primary Schools,DEPT
1882,Kangaroo Island Community Education,5 Centenary Avenue,Kingscote,5223,-35.65122575,137.63325056,SCHL,AREA,Area Schools,DEPT
1883,Disability Unit Christies Beach,Morton Road,Christie Downs,5164,-35.136982,138.497694,NONS,SPDIS,Disability Units,DEPT
1884,Eastern Fleurieu R-12 School,11 Callington Road,Strathalbyn,5255,-35.258179,138.903269,SCHL,PSS,Primary/Secondary Schools,DEPT
1886,Senior Campus - Norwood,505 The Parade,Magill,5072,-34.918267,138.67227,SCHL,HIGH,High/Secondary Schools,DEPT
1888,Bowden Brompton CS Torrens Road Cmps,85A Torrens Road,Brompton,5007,-34.895043,138.580071,SCHL,ALTPS,Alternative Prim/Sec Schools,DEPT
1889,Bowden Brompton CS Beach Campus,181 Beach Road,Christies Beach,5165,-35.137356,138.492056,SCHL,ALTPS,Alternative Prim/Sec Schools,DEPT
1890,Bowden Brompton CS Northern Middle S,55 Downton Avenue,Salisbury North,5108,-34.753533,138.635553,SCHL,ALTPS,Alternative Prim/Sec Schools,DEPT
1892,Clovelly Park PS IELC,1 Renown Place,Clovelly Park,5042,-34.998429,138.565416,NONS,LANGU,Language Unit,DEPT
1893,Richmond PS IELC,8 Surrey Road,Keswick,5035,-34.943391,138.571798,NONS,LANGU,Language Unit,DEPT
1894,Cowandilla PS IELC,21 Jenkins Street,Cowandilla,5033,-34.934543,138.558874,NONS,LANGU,Language Unit,DEPT
1895,Blair Athol North School B-7 IELC,Marmion Avenue,Blair Athol,5084,-34.853585,138.598933,NONS,LANGU,Language Unit,DEPT
1896,East Torrens PS IELC,12 Robson Road,Hectorville,5073,-34.890062,138.6663521,NONS,LANGU,Language Unit,DEPT
1897,Elizabeth Vale PS IELC,Rollison Road,Elizabeth Vale,5112,-34.746118,138.669137,NONS,LANGU,Language Unit,DEPT
1899,The Pines R-7 IELC,42 Andrew Smith Drive,Parafield Gardens,5107,-34.77288,138.607741,NONS,LANGU,Language Unit,DEPT
1900,Mark Oliphant College (B-12),99 Douglas Drive,Munno Para,5115,-34.665475,138.683575,SCHL,PSS,Primary/Secondary Schools,DEPT
1901,John Hartley School (B-7),199 Peachey Road,Smithfield Plains,5114,-34.679553,138.672641,SCHL,PS,Primary Schools,DEPT
1902,Roma Mitchell Secondary College,"Sports Park, Briens Road",Gepps Cross,5094,-34.843058,138.618235,SCHL,HIGH,High/Secondary Schools,DEPT
1903,Blair Athol North School B-7,Marmion Avenue,Blair Athol,5084,-34.853585,138.598933,SCHL,PS,Primary Schools,DEPT
1904,Woodville Gardens School B-7,Ridley Grove,Woodville Gardens,5012,-34.863319,138.55068,SCHL,PS,Primary Schools,DEPT
1905,Mt Gambier Nth PS IELC,Heath Street,Mount Gambier,5290,-37.81683,140.775534,NONS,LANGU,Language Unit,DEPT
1906,Morphett Vale Primary School,Lawrence Street,Morphett Vale,5162,-35.107646,138.514521,SCHL,PS,Primary Schools,DEPT
1907,Reynella East College,63 Malbeck Drive,Reynella East,5161,-35.090666,138.556465,SCHL,PSS,Primary/Secondary Schools,DEPT
1908,Lake Windemere B-7 School,17 Uraidla Avenue,Salisbury North,5108,-34.740607,138.620474,SCHL,PS,Primary Schools,DEPT
1909,Elizabeth Downs PS IELC,Heard Street,Elizabeth Downs,5113,-34.698589,138.694874,NONS,LANGU,Language Unit,DEPT
1910,Hampstead PS IELC,38-56 Muller Road,Greenacres,5086,-34.870813,138.625981,NONS,LANGU,Language Unit,DEPT
1911,Darlington PS IELC,9-11 White Crescent,Seacombe Gardens,5047,-35.027204,138.546916,NONS,LANGU,Language Unit,DEPT
1912,Mount Gambier HS New Arrivals Prog,Brownes Road,Mount Gambier,5290,-37.826147,140.765689,NONS,LANGU,Language Unit,DEPT
1950,Kilkenny PS IELC,Jane Street,West Croydon,5008,-34.890764,138.552731,NONS,LANGU,Language Unit,DEPT
2001,Northern Ad Learning Together @ Home,Woodford Road,Elizabeth,5112,-34.713319,138.669144,CARE,TOY,Learning Together @ Home,DEPT
2102,Midway Road Community House Vac,48 Midway Road,Elizabeth East,5112,-34.72551,138.680673,CARE,OSHC,Out of School Hours Care,NONDEPT
2105,Para Hills PS OSHC,2 Frances Avenue,Para Hills,5096,-34.812267,138.654143,CARE,OSHC,Out of School Hours Care,DEPT
2106,Tanunda - Barossa OSHC,Research Road,Tanunda,5352,-34.526253,138.959337,CARE,OSHC,Out of School Hours Care,DEPT
2600,Kaurna Plains CC,85 Ridley Road,Elizabeth,5112,-34.725712,138.664564,CARE,COMCC,Community Managed CCCs,NONDEPT
2601,Angaston Kindergarten,16 Newcastle Street,Angaston,5353,-34.502708,139.048155,PRESC,CSC,Children's Services Centres,DEPT
2602,Mawson Lakes Parkway Child Care Ctr,5 Park Way,Mawson Lakes,5095,-34.815508,138.620237,CARE,COMCC,Community Managed CCCs,NONDEPT
2603,Mawson Lakes Garden Terrace CCC,12-28 Garden Terrace,Mawson Lakes,5095,-34.809165,138.613958,CARE,COMCC,Community Managed CCCs,NONDEPT
2604,Brahma Lodge Kindergarten Inc,64 The Strand,Brahma Lodge,5109,-34.777876,138.65488,PRESC,CSC,Children's Services Centres,DEPT
2605,Andamooka Children's Centre,Government Road,Andamooka,5722,-30.450885,137.167482,ECDC,CCEN,Children's Centres,DEPT
2608,Craigmore Kindergarten,2 Carinya Street,Craigmore,5114,-34.706201,138.704829,PRESC,CSC,Children's Services Centres,DEPT
2610,Dorothy Hughes Kindergarten,Rolleston Ave,Salisbury North,5108,-34.753925,138.635434,PRESC,CSC,Children's Services Centres,DEPT
2612,Elizabeth East Kindergarten,90 Hornet Crescent,Elizabeth East,5112,-34.724673,138.679531,PRESC,CSC,Children's Services Centres,DEPT
2614,Elizabeth Grove Children's Centre,20 Haynes Street,Elizabeth Grove,5112,-34.73233,138.669527,PRESC,CCEN,Children's Centres,DEPT
2621,Kaurna Plains Children's Centre,85 Ridley Road,Elizabeth,5112,-34.725684,138.66456,PRESC,CCEN,Children's Centres,DEPT
2622,Elsie Ey Children's Centre,23 Kingfisher Drive,Hewett,5118,-34.577223,138.7496,PRESC,CCEN,Children's Centres,DEPT
2624,Gawler & Dist College B-12 Chn Ctr,Barnet Road,Evanston,5116,-34.619476,138.736184,PRESC,CCEN,Children's Centres,DEPT
2625,Riverview Preschool Centre,44-48 Riverview Drive,Salisbury Downs,5108,-34.767584,138.614059,PRESC,CSC,Children's Services Centres,DEPT
2627,Angle Vale Preschool,45 Fradd Road,Angle Vale,5117,-34.643884,138.648599,PRESC,CSC,Children's Services Centres,DEPT
2629,Hamley Bridge Kindergarten,13 Florence Street,Hamley Bridge,5401,-34.354549,138.684929,PRESC,CSC,Children's Services Centres,DEPT
2630,Ingle Farm Children's Centre,2 Belalie Road,Ingle Farm,5098,-34.82783164,138.64324415,PRESC,CCEN,Children's Centres,DEPT
2633,Kapunda Kindergarten,Beck Street,Kapunda,5373,-34.339059,138.912873,PRESC,CSC,Children's Services Centres,DEPT
2635,Andrews Farm Community Preschool,Lot 31 President Avenue,Andrews Farm,5114,-34.672113,138.666505,PRESC,CSC,Children's Services Centres,DEPT
2636,Lantana Kindergarten,45 Lantana Drive,Parafield Gardens,5107,-34.788648,138.606346,PRESC,CSC,Children's Services Centres,DEPT
2637,Nuriootpa Comm Chn's Ctr CC,14 Park Avenue,Nuriootpa,5355,-34.47155,138.997679,CARE,COMCC,Community Managed CCCs,NONDEPT
2638,Liberman Kindergarten,41 Liberman Road,Para Hills,5096,-34.80572,138.65716,PRESC,CSC,Children's Services Centres,DEPT
2639,Salisbury Downs Preschool Centre,12 Donegal Street,Salisbury Downs,5108,-34.776852,138.624938,PRESC,CSC,Children's Services Centres,DEPT
2640,Madison Park Kindergarten,29 Piccadilly Road,Salisbury East,5109,-34.779275,138.670525,PRESC,CSC,Children's Services Centres,DEPT
2642,Manor Farm Kindergarten,32 Melville Road,Salisbury East,5109,-34.791687,138.658213,PRESC,CSC,Children's Services Centres,DEPT
2645,Munno Para Kindergarten,14 Karinga Crescent,Munno Para,5115,-34.671817,138.6971,PRESC,CSC,Children's Services Centres,DEPT
2650,Ernabella Children and Family Centre,N/A,Ernabella,872,-26.266359,132.14184,ECDC,CCEN,Children's Centres,DEPT
2651,Para Hills West Preschool,69 Kesters Road,Para Hills West,5096,-34.804501,138.644971,PRESC,CSC,Children's Services Centres,DEPT
2653,Eudunda Community Preschool,Morgan Road,Eudunda,5374,-34.180855,139.09133,PRESC,CSC,Children's Services Centres,DEPT
2654,Parafield Gardens Children's Centre,9 Casuarina Drive,Parafield Gardens,5107,-34.785192,138.616383,PRESC,CCEN,Children's Centres,DEPT
2655,Paralowie Kindergarten,13 Yalumba Drive,Paralowie,5108,-34.757277,138.620671,PRESC,CSC,Children's Services Centres,DEPT
2656,Pooraka Community Kindergarten,14 McCarthy Court,Pooraka,5095,-34.82926,138.621747,PRESC,CSC,Children's Services Centres,DEPT
2667,Salisbury Kindergarten,12 Ann Street,Salisbury,5108,-34.763161,138.648715,PRESC,CSC,Children's Services Centres,DEPT
2668,Salisbury Park  Kindergarten,5 Wildwood Drive,Salisbury Park,5109,-34.760632,138.670505,PRESC,CSC,Children's Services Centres,DEPT
2669,Salisbury Lutheran Kindergarten,10 Waterloo Corner Road,Salisbury,5108,-34.763123,138.638936,PRESC,AFPRE,Affiliate Preschools,NONDEPT
2670,Salisbury Heights Preschool,5-9 Stanford Road,Salisbury Heights,5109,-34.7680748,138.67826054,PRESC,CSC,Children's Services Centres,DEPT
2672,Sir Thomas Playford Kindergarten,Chivell Street,Elizabeth South,5112,-34.73111,138.66211,PRESC,CSC,Children's Services Centres,DEPT
2673,Smithfield Plains Kindergarten,Bald Street,Smithfield Plains,5114,-34.675789,138.678646,PRESC,CSC,Children's Services Centres,DEPT
2675,Tanunda Kindergarten Association,MacDonnell Street,Tanunda,5352,-34.525203,138.960786,PRESC,CSC,Children's Services Centres,DEPT
2676,Two Wells Community Children's Ctr,27A Gawler Road,Two Wells,5501,-34.59241062,138.5182945,PRESC,INTRU,Integrated Rural Preschools/CCC,DEPT
2677,Valley View Kindergarten,Geoffrey Avenue,Valley View,5093,-34.842462,138.65415,PRESC,CSC,Children's Services Centres,DEPT
2678,Two Wells Community Children's Ct CC,27A Gawler Road,Two Wells,5501,-34.59241062,138.5182945,CARE,COMCC,Community Managed CCCs,NONDEPT
2681,Zion Preschool Centre,24 Cowan Street,Gawler,5118,-34.597016,138.745097,PRESC,AFPRE,Affiliate Preschools,NONDEPT
2686,Minlaton District Early Learning Ctr,1 West Terrace,Minlaton,5575,-34.769286,137.592575,PRESC,CSC,Children's Services Centres,DEPT
2691,Gawler East Preschool Centre,Finch Road,Gawler,5118,-34.597384,138.76217,PRESC,CSC,Children's Services Centres,DEPT
2692,Lyndoch Valley Family Centre,8 William Street,Lyndoch,5351,-34.60431,138.885491,PRESC,CSC,Children's Services Centres,DEPT
2693,Settlers Farm Campus Kindergarten,2 Du Villars Street,Paralowie,5108,-34.755874,138.594776,PRESC,CSC,Children's Services Centres,DEPT
2694,Burton Park Preschool,30 Brookfield Avenue,Burton,5110,-34.741477,138.597764,PRESC,CSC,Children's Services Centres,DEPT
2696,Adams Road Children's Centre,33 Adams Road,Craigmore,5114,-34.688119,138.711775,PRESC,CSC,Children's Services Centres,DEPT
2697,Blakeview Preschool,Omega Drive,Blakeview,5114,-34.687725,138.700427,PRESC,CSC,Children's Services Centres,DEPT
2703,The Cherubim Early Learning & Care,254 Kings Road,Paralowie,5108,-34.765425,138.603149,CARE,PRVCC,Private CCCs,NONDEPT
2706,Kadina Child Care Centre,19 Doswell Terrace,Kadina,5554,-33.960677,137.713271,CARE,COMCC,Community Managed CCCs,NONDEPT
2707,St Francis Community Ch Ctr,306 Waterloo Corner Road,Paralowie,5108,-34.745296,138.612791,CARE,COMCC,Community Managed CCCs,NONDEPT
2708,The Pines Community Children's Ctr,14 Hemming Street,Parafield Gardens,5107,-34.773,138.608621,CARE,COMCC,Community Managed CCCs,NONDEPT
2709,Salisbury Campus Child Care Centre,31-41 Birch Avenue,Salisbury East,5109,-34.772963,138.66705,CARE,COMCC,Community Managed CCCs,NONDEPT
2710,Cheeky Monkey's ELC Child Care,24 Keller Road,Salisbury East,5109,-34.794004,138.656381,CARE,PRVCC,Private CCCs,NONDEPT
2711,Oasis Community Children's Centre,27 Ann Street,Salisbury,5108,-34.764749,138.648008,CARE,COMCC,Community Managed CCCs,NONDEPT
2712,Kindy Patch Salisbury Heights,41 The Grove Way,Salisbury Heights,5109,-34.768034,138.673403,CARE,PRVCC,Private CCCs,NONDEPT
2728,Hillbank Community Children's Centre,Penarth Court,Hillbank,5112,-34.731487,138.684466,CARE,COMCC,Community Managed CCCs,NONDEPT
2730,Pooraka Community Child Care Centre,23-27 South Terrace,Pooraka,5095,-34.83401,138.614458,CARE,COMCC,Community Managed CCCs,NONDEPT
2736,Gawler Community Child Care Centre,Finch Road,Gawler East,5118,-34.597278,138.761499,CARE,COMCC,Community Managed CCCs,NONDEPT
2738,Goodstart EL Pooraka,124 Henderson Avenue,Pooraka,5095,-34.823483,138.622631,CARE,PRVCC,Private CCCs,NONDEPT
2739,Goodstart EL Penfield,201 Argent Road,Penfield,5121,-34.691485,138.630146,CARE,PRVCC,Private CCCs,NONDEPT
2742,Highway CC & Early Learning Centre,267 Salisbury Highway,Salisbury Downs,5108,-34.775925,138.628767,CARE,PRVCC,Private CCCs,NONDEPT
2801,Country Central FDC Scheme,20 Langford Drive,Elizabeth,5112,-34.720659,138.66503,CARE,FDC,Family Day Care Schemes,DEPT
2808,Berri Family Day Care,3 Kay Avenue,Berri,5343,-34.284636,140.602649,CARE,FDC,Family Day Care Schemes,DEPT
2809,Northside Family Day Care Scheme,20 Langford Drive,Elizabeth,5112,-34.720659,138.66503,CARE,FDC,Family Day Care Schemes,DEPT
2903,Wasleys Playcentre,Annie Terrace,Wasleys,5400,-34.471483,138.680274,PRESC,PLCEN,Playcentres,DEPT
2906,Owen Playcentre,Fourth Street,Owen,5460,-34.271592,138.543232,PRESC,PLCEN,Playcentres,DEPT
2907,Robertstown Playcentre,Corey Street,Robertstown,5381,-33.98999,139.084262,PRESC,PLCEN,Playcentres,DEPT
2909,Truro Playcentre,1 Burr Street,Truro,5356,-34.41122,139.126375,PRESC,PLCEN,Playcentres,DEPT
2999,St Peter's College Early Learning,North Terrace,St Peters,5069,-34.915028,138.614522,CARE,OTPCC,Other Private CCCs,NONDEPT
3002,Strathalbyn Children's Centre,1A Burkett Drive,Strathalbyn,5255,-35.259013,138.905539,CARE,COMCC,Community Managed CCCs,NONDEPT
3004,Community Kids McLaren Vale Early Ed,224-226 Main Road,McLaren Vale,5171,-35.212138,138.534132,CARE,PRVCC,Private CCCs,NONDEPT
3005,Clare Valley Children's Centre CC,Cnr of Blyth Road and Elliot Street,Clare,5453,-33.822948,138.594911,CARE,CCEN,Children's Centres,NONDEPT
3006,Goodstart EL Aberfoyle Pk,1 Windebanks Road,Aberfoyle Park,5159,-35.080661,138.584405,CARE,PRVCC,Private CCCs,NONDEPT
3007,Goodstart EL Sheidow Park Young St,1A Young Street,Sheidow Park,5158,-35.076802,138.536281,CARE,PRVCC,Private CCCs,NONDEPT
3009,Our Lady of the Visitation OSHC/Vac,433 Victoria Road,Taperoo,5017,-34.805225,138.500193,CARE,OSHC,Out of School Hours Care,NONDEPT
3012,Montessori Children's Ctr Seacliff,41 Kauri Parade,Seacliff,5049,-35.034383,138.521783,CARE,PRVCC,Private CCCs,NONDEPT
3024,Outback Childcare SA,59 Power Crescent,Port Augusta,5700,-32.495897,137.785314,CARE,BABYS,Baby Sitting Agencies,NONDEPT
3025,The Hills Montessori School Inc,12 Anderson Road,Aldgate,5154,-35.012925,138.748722,PRESC,GRNTF,Other Grant Funded Preschools,NONDEPT
3027,Sturt St Community School CCC,221-239 Sturt Street,Adelaide,5000,-34.933817,138.590211,CARE,OTCMC,Other Community Managed CCCs,DEPT
3028,Community Kids Blossomvale Early Ed,1 Aldersey Street,McLaren Vale,5171,-35.220238,138.5441624,CARE,PRVCC,Private CCCs,NONDEPT
3029,Stepping Stone Kidman Park Childcare,346 Grange Road,Kidman Park,5025,-34.906924,138.5288423,CARE,PRVCC,Private CCCs,NONDEPT
3030,Chancery Lane Montessori Preschool,21 Chancery Lane,Adelaide,5000,-34.92934,138.603199,CARE,PRVCC,Private CCCs,NONDEPT
3031,Prince Alfred College Early Learning,The Parade West,Kent Town,5067,-34.921657,138.620032,CARE,OTPCC,Other Private CCCs,NONDEPT
3032,TRY Playford Children's Centre,3 Langford Drive,Elizabeth,5112,-34.720659,138.66503,CARE,OTPCC,Other Private CCCs,NONDEPT
3033,Daws Road Early Learning Centre,155-157 Daws Road,St Marys,5042,-34.992694,138.5783,CARE,OTPCC,Other Private CCCs,NONDEPT
3034,The Learning Sanctuary Littlehampton,1 Rosella Court,Littlehampton,5250,-35.048109,138.859845,CARE,PRVCC,Private CCCs,NONDEPT
3035,Confident Kids Child Care & ELC,67 Regency Road,Croydon Park,5008,-34.875908,138.55855,CARE,PRVCC,Private CCCs,NONDEPT
3036,Stepping Stone Curtis Rd CC & EDC,234 Curtis Road,Munno Para,5115,-34.673307,138.683649,CARE,PRVCC,Private CCCs,NONDEPT
3111,Aberfoyle Campus Schools OSHC,2 Campus Drive,Aberfoyle Park,5159,-35.06784,138.59476,CARE,OSHC,Out of School Hours Care,NONDEPT
3137,Woodcroft College OSHC,"Woodcroft College, Bains Road",Woodcroft,5162,-35.113443,138.543829,CARE,OSHC,Out of School Hours Care,NONDEPT
3600,Aberfoyle Hub Preschool - Hub Drive,Hub Drive,Aberfoyle Park,5159,-35.078096,138.59404,PRESC,CSC,Children's Services Centres,DEPT
3601,Aberfoyle Hub Preschool - Taylors Rd,36 Taylors Road,Aberfoyle Park,5159,-35.07363412,138.59121363,PRESC,CSC,Children's Services Centres,DEPT
3602,Aberfoyle Park Campus Preschool,11 Budapest Road,Aberfoyle Park,5159,-35.06446,138.602399,PRESC,CSC,Children's Services Centres,DEPT
3603,Aldinga Community Kindergarten,63 Butterworth Road,Aldinga Beach,5173,-35.273947,138.452876,PRESC,CSC,Children's Services Centres,DEPT
3604,Hallett Cove Preschool,15 Zwerner Drive,Hallett Cove,5158,-35.075678,138.517799,PRESC,CSC,Children's Services Centres,DEPT
3605,Morphett Vale East Kindergarten,1 Archer Court,Morphett Vale,5162,-35.120468,138.531839,PRESC,CSC,Children's Services Centres,DEPT
3606,Ascot Park Kindergarten,630 Marion Road,Park Holme,5043,-34.986281,138.556092,PRESC,CSC,Children's Services Centres,DEPT
3607,Noarlunga Downs Preschool,Canterbury Crescent,Noarlunga Downs,5168,-35.150168,138.49621,PRESC,CPC,Child Parent Centres,DEPT
3608,Ballara Park Kindergarten,9 Ormonde Avenue,Warradale,5046,-35.006449,138.535292,PRESC,CSC,Children's Services Centres,DEPT
3610,Bains Road Preschool,10 Gum Court,Morphett Vale,5162,-35.114397,138.542368,PRESC,CSC,Children's Services Centres,DEPT
3612,Brentwood Drive Kindergarten,79 Brentwood Drive,Huntfield Heights,5163,-35.150572,138.506776,PRESC,CSC,Children's Services Centres,DEPT
3614,Calvary Kindergarten,5 Windsong Court,Morphett Vale,5162,-35.136759,138.510869,PRESC,AFPRE,Affiliate Preschools,NONDEPT
3615,Chandlers Hill Kindergarten,2 Education Road,Happy Valley,5159,-35.086724,138.584125,PRESC,CSC,Children's Services Centres,DEPT
3616,Christie Downs Kindergarten,14 Charles Street,Christie Downs,5164,-35.131159,138.491504,PRESC,CSC,Children's Services Centres,DEPT
3617,Christies North Kindergarten,27 Shepherd Road,Christies Beach,5165,-35.131683,138.482217,PRESC,CSC,Children's Services Centres,DEPT
3618,Seaford Rise Kindergarten,178 Grand Boulevard,Seaford Rise,5169,-35.200073,138.487121,PRESC,CSC,Children's Services Centres,DEPT
3619,Strathalbyn Kindergarten Outreach,1A Burkett Drive,Strathalbyn,5255,-35.259013,138.905539,PRESC,CSC,Children's Services Centres,DEPT
3620,Clarendon Kindergarten,82 Grants Gully Road,Clarendon,5157,-35.110415,138.632103,PRESC,CSC,Children's Services Centres,DEPT
3621,Coorara Preschool Centre,22 Matison Road,Morphett Vale,5162,-35.131005,138.541037,PRESC,CSC,Children's Services Centres,DEPT
3622,Coromandel Valley Kindergarten,9 Sean Court,Coromandel Valley,5051,-35.049064,138.622124,PRESC,CSC,Children's Services Centres,DEPT
3624,Darlington Children's Centre,12A Kurrajong Place,Seacombe Gardens,5047,-35.026403,138.547363,PRESC,CCEN,Children's Centres,DEPT
3625,Woodcroft Heights Children's Centre,25 Investigator Drive,Woodcroft,5162,-35.106587,138.556962,PRESC,CCEN,Children's Centres,DEPT
3626,Ladybird Manor Montessori Child Care,121-139 Grote Street,Adelaide,5000,-34.929302,138.594447,CARE,PRVCC,Private CCCs,NONDEPT
3627,Yankalilla Community Children's Ctr,208-210 Main South Road,Yankalilla,5203,-35.453957,138.332073,PRESC,INTRU,Integrated Rural Preschools/CCC,DEPT
3629,Flagstaff Hill Kindergarten,15 Renwick Street,Flagstaff Hill,5159,-35.047091,138.581218,PRESC,CSC,Children's Services Centres,DEPT
3630,Flagstaff Oval Kindergarten,York Drive,Flagstaff Hill,5159,-35.052648,138.596644,PRESC,CSC,Children's Services Centres,DEPT
3632,Frieda Corpe Community Kindergarten,42 Benny Avenue,Port Noarlunga,5167,-35.144175,138.471406,PRESC,CSC,Children's Services Centres,DEPT
3635,Goolwa Children's Centre,Brooking Street,Goolwa,5214,-35.497832,138.782318,PRESC,CCEN,Children's Centres,DEPT
3636,Hackham East Kindergarten,Arnold Drive,Hackham,5163,-35.138206,138.533233,PRESC,CSC,Children's Services Centres,DEPT
3638,Hackham West Children's Centre,9 Vintners Walk,Hackham West,5163,-35.145281,138.519023,PRESC,CCEN,Children's Centres,DEPT
3640,Happy Valley Kindergarten,12B Regency Road,Happy Valley,5159,-35.088255,138.564645,PRESC,CSC,Children's Services Centres,DEPT
3641,Forbes Children's Centre,80 Thomas Street,South Plympton,5038,-34.978139,138.557598,PRESC,CCEN,Children's Centres,DEPT
3642,Fleurieu Occasional Comm Chn's Ctr,Alexander Kelly Drive,Noarlunga Centre,5168,-35.139675,138.498835,CARE,COMCC,Community Managed CCCs,NONDEPT
3645,Hallett Cove Karrara Kindergarten,45 Barramundi Drive,Hallett Cove,5158,-35.068215,138.518385,PRESC,CSC,Children's Services Centres,DEPT
3647,Madge Sexton Kindergarten,249 Main Road,McLaren Vale,5171,-35.21939,138.541095,PRESC,CSC,Children's Services Centres,DEPT
3649,Mary Bywaters Memorial Kindergarten,54 Corn Street,Reynella,5161,-35.090203,138.542753,PRESC,CSC,Children's Services Centres,DEPT
3654,Mitchell Park Kindergarten,Lanark Avenue,Mitchell Park,5043,-35.01215,138.564923,PRESC,CSC,Children's Services Centres,DEPT
3657,Pimpala Kindergarten,24 Vanstone Avenue,Morphett Vale,5162,-35.112846,138.530333,PRESC,CSC,Children's Services Centres,DEPT
3658,Seaford District Comm Chn's Ctr Inc,600 Grand Boulevard,Seaford,5169,-35.185808,138.481438,CARE,COMCC,Community Managed CCCs,NONDEPT
3661,Mount Compass Preschool Centre,Oval Road,Mount Compass,5210,-35.349594,138.618858,PRESC,CSC,Children's Services Centres,DEPT
3664,O'Halloran Hill Kindergarten,Wren Street,O'Halloran Hill,5158,-35.065802,138.556211,PRESC,CSC,Children's Services Centres,DEPT
3665,O'Sullivan Beach Children's Centre,51A Galloway Road,O'Sullivan Beach,5166,-35.124449,138.48123,PRESC,CCEN,Children's Centres,DEPT
3666,Oaklands Estate Kindergarten,16 Pethick Terrace,Marion,5043,-34.997541,138.550359,PRESC,CSC,Children's Services Centres,DEPT
3674,Reynella Kindergarten,28 Thames Drive,Reynella,5161,-35.099207,138.527824,PRESC,CSC,Children's Services Centres,DEPT
3683,Seaford K-7 Campus Preschool,39 Jane Street,Port Noarlunga South,5167,-35.175841,138.472256,PRESC,CSC,Children's Services Centres,DEPT
3684,Seaview Downs Kindergarten,5A Hume Street,Seaview Downs,5049,-35.031413,138.535099,PRESC,CSC,Children's Services Centres,DEPT
3686,Trott Park Kindergarten,8 Hessing Crescent,Trott Park,5158,-35.070451,138.538428,PRESC,CSC,Children's Services Centres,DEPT
3687,Morphett Vale Primary Sch-Preschool,Lawrence Street,Morphett Vale,5162,-35.107646,138.514521,PRESC,CPC,Child Parent Centres,DEPT
3688,Strathalbyn Kindergarten,9 Coronation Road,Strathalbyn,5255,-35.260713,138.886856,PRESC,CSC,Children's Services Centres,DEPT
3689,Woodend Children's Centre,20 Bathbank Crescent,Sheidow Park,5158,-35.080114,138.53526,PRESC,CSC,Children's Services Centres,DEPT
3690,Moana Kindergarten,Schooner Road,Seaford,5169,-35.191544,138.47426,PRESC,CSC,Children's Services Centres,DEPT
3695,Plympton South Kindergarten,13 Yapinga Street,South Plympton,5038,-34.969961,138.561157,PRESC,CSC,Children's Services Centres,DEPT
3696,Victor Harbor Community Kindergarten,1 Oval Street,Victor Harbor,5211,-35.556983,138.615636,PRESC,CSC,Children's Services Centres,DEPT
3697,Port Elliot Kindergarten,5 Wright Street,Port Elliot,5212,-35.529976,138.678196,PRESC,CSC,Children's Services Centres,DEPT
3698,Warradale Kindergarten,Cnr Cairns Ave & Wyndham St,Warradale,5046,-35.016098,138.537378,PRESC,CSC,Children's Services Centres,DEPT
3699,Willunga Preschool,Station Road,Willunga,5172,-35.270268,138.551092,PRESC,CSC,Children's Services Centres,DEPT
3700,Goodstart EL Parafield Gardens,121 Shepherdson Road,Parafield Gardens,5107,-34.780561,138.607179,CARE,PRVCC,Private CCCs,NONDEPT
3703,Goldilocks Child Care Centre,1 Portland Avenue,Sturt,5047,-35.027076,138.554447,CARE,PRVCC,Private CCCs,NONDEPT
3704,Camden Community Child Care,7 Carlisle Street,Camden Park,5038,-34.971376,138.539041,CARE,COMCC,Community Managed CCCs,NONDEPT
3705,Victor Harbor Child Care Centre,Bay Road,Victor Harbor,5211,-35.561788,138.606072,CARE,COMCC,Community Managed CCCs,NONDEPT
3706,Tiny Tots Academy - Morphett Vale,96 Main South Road,Morphett Vale,5162,-35.128139,138.524055,CARE,PRVCC,Private CCCs,NONDEPT
3707,Reynella Community Children's Centre,65 Concord Drive,Reynella,5161,-35.100471,138.536406,CARE,COMCC,Community Managed CCCs,NONDEPT
3708,Goodstart EL Magill,38-40 Moules Road,Magill,5072,-34.902748,138.680084,CARE,PRVCC,Private CCCs,NONDEPT
3710,Warradale Community CC - Warradale,362 Morphett Road,Warradale,5046,-35.003877,138.539449,CARE,COMCC,Community Managed CCCs,NONDEPT
3711,Lady Gowrie Child Centre Inc,39A Dew Street,Thebarton,5031,-34.918095,138.572709,CARE,COMCC,Community Managed CCCs,NONDEPT
3712,Kerry Street Early Learning Centre,9 Kerry Street,Christies Beach,5165,-35.136528,138.485315,CARE,PRVCC,Private CCCs,NONDEPT
3713,Nanna's CCC - Camille Street,31 Camille Street,Hallett Cove,5158,-35.082624,138.511204,CARE,PRVCC,Private CCCs,NONDEPT
3715,Yankalilla Community Chn Ctr CC,208-210 Main South Road,Yankalilla,5203,-35.453957,138.332073,CARE,COMCC,Community Managed CCCs,NONDEPT
