id,school_name,school_address,suburb,postcode,sector,school_type,school_lat,school_lon,state_code
1,Franklin Early Childhood School,Oodgeroo Avenue,Franklin,2913,Government,Early Childhood School,-35.200461,149.141327,ACT
2,Isabella Plains Early Childhood School,Ellerston Avenue,Isabella Plains,2905,Government,Early Childhood School,-35.428715999999994,149.089497,ACT
3,Lyons Early Childhood School,Tarraleah Crescent,Lyons,2606,Government,Early Childhood School,-35.341633,149.076243,ACT
4,Narrabundah Early Childhood School,Kootara Crescent,Narrabundah,2604,Government,Early Childhood School,-35.329015999999996,149.150698,ACT
5,O'Connor Cooperative School,MacPherson Street,O'Connor,2602,Government,Early Childhood School,-35.261994,149.12073600000002,ACT
6,Southern Cross Early Childhood School,Wirraway Crescent,Scullin,2614,Government,Early Childhood School,-35.232766999999996,149.03836299999998,ACT
7,Ainslie Preschool,Baker Gardens,Ainslie,2602,Government,Preschool,-35.2549285,149.14687560000002,ACT
8,Amaroo Preschool,Burdekin Avenue,Amaroo,2914,Government,Preschool,-35.1649299,149.1287001,ACT
9,Aranda Preschool,Gingana Street,Aranda,2614,Government,Preschool,-35.255173799999994,149.0794239,ACT
10,Bonython Preschool,Hurtle Avenue,Bonython,2905,Government,Preschool,-35.431126,149.0831991,ACT
11,Calwell Preschool,Casey Crescent,Calwell,2905,Government,Preschool,-35.4349544,149.1134679,ACT
12,Campbell Preschool,Chauvel Street,Campbell,2612,Government,Preschool,-35.289871000000005,149.156207,ACT
13,Chapman Preschool,Perry Drive,Chapman,2611,Government,Preschool,-35.3563115,149.0430219,ACT
14,Charles Conder Preschool,Tom Roberts Avenue,Conder,2906,Government,Preschool,-35.4643995,149.09874209999998,ACT
15,Charnwood-Dunlop Preschool,Bettington Circuit,Charnwood,2615,Government,Preschool,-35.198947499999996,149.03607390000002,ACT
16,Chifley Preschool Torrens Primary School,Maclaurin Crescent,Chifley,2606,Government,Preschool,-35.351831,149.0787274,ACT
17,Chisholm Preschool,Hambidge Street,Chisholm,2905,Government,Preschool,-35.417719500000004,149.12104680000002,ACT
18,Curtin North Preschool,Ayers Street,Curtin,2605,Government,Preschool,-35.3241941,149.0795648,ACT
19,Curtin South Preschool,Carruthers Street,Curtin,2605,Government,Preschool,-35.3305158,149.08014119999999,ACT
20,Deakin Preschool - Forrest Primary School,Hopetoun Street,Deakin,2603,Government,Preschool,-35.3145743,149.1257949,ACT
21,Downer Preschool - Lyneham Primary School,Cotton Street,Downer,2602,Government,Preschool,-35.2514401,149.1259021,ACT
22,Duffy Preschool,Burrinjuck Crescent,Duffy ,2611,Government,Preschool,-35.33483629999999,149.033244,ACT
23,Allen Main Memorial Preschool (Duntroon) - Campbell Primary School,Vowles Rd.,Duntroon,2612,Government,Preschool,-35.289871000000005,149.156207,ACT
24,Evatt Preschool,Heydon Crescent,Evatt,2617,Government,Preschool,-35.2069186,149.07567509999998,ACT
25,Fadden Preschool,Hanlon Crescent,Fadden,2904,Government,Preschool,-35.404101399999995,149.11748799999998,ACT
26,Farrer Preschool,Longeranong Street,Farrer,2607,Government,Preschool,-35.3781381,149.1068321,ACT
27,Florey Preschool,Ratcliffe Crescent,Florey,2615,Government,Preschool,-35.226169299999995,149.0523452,ACT
28,Flynn Preschool Mt Rogers Primary School,Hedland Circuit,Flynn,2615,Government,Preschool,-35.2068113,149.0456879,ACT
29,Fraser Preschool,Tillyard Drive,Fraser,2615,Government,Preschool,-35.1919186,149.0430226,ACT
30,Garran Preschool,Robson Street,Garran,2605,Government,Preschool,-35.3426132,149.10440319999998,ACT
31,Gilmore Preschool,Heagney Crescent,Gilmore,2905,Government,Preschool,-35.418901700000006,149.1346484,ACT
32,Giralang Preschool,Canopus Crescent,Giralang,2617,Government,Preschool,-35.214262700000006,149.0952071,ACT
33,Gordon Preschool,Knoke Avenue,Gordon,2906,Government,Preschool,-35.4564402,149.0867311,ACT
34,Gold Creek Preschool,Kelleway Street,Nicholls,2913,Government,Preschool,-35.193312799999994,149.0878668,ACT
35,Gowrie Preschool,Jeffries Street,Gowrie,2904,Government,Preschool,-35.412748799999996,149.1110402,ACT
36,Griffith Preschool - Red Hill Primary School,Bannister Gardens,Griffith,2603,Government,Preschool,-35.339297200000004,149.1332387,ACT
37,Hackett Preschool - North Ainslie Primary School,Mills Street,Hackett,2602,Government,Preschool,-35.2549285,149.14687560000002,ACT
38,Hall Preschool - Gold Creek School,Hoskin Street,Hall,2618,Government,Preschool,-35.167800899999996,149.0695049,ACT
39,Harrison Preschool,Nullabor Avenue,Harrison,2914,Government,Preschool,-35.1984463,149.15184250000001,ACT
40,Hawker Preschool,Kulgera Street,Hawker,2614,Government,Preschool,-35.249914399999994,149.0346695,ACT
41,Hughes Preschool,Kent Street,Hughes,2605,Government,Preschool,-35.3315032,149.0947229,ACT
42,Isabella Plains Early Childhood School,Ellerston Avenue,Isabella Plains,2905,Government,Preschool,-35.4282393,149.08942340000002,ACT
43,Jervis Bay Preschool,Jervis Bay,ACT 2540,2540,Government,Preschool,-35.131541399999996,150.70556509999997,ACT
44,Kaleen Preschool,Ashburton Circuit,Kaleen,2617,Government,Preschool,-35.235135,149.1030995,ACT
45,Kingsford Smith Preschool Unit - Kingsford Smith School,Cnr Hardwick Cres and Starke St,Holt,2615,Government,Preschool,-35.2274513,149.02105690000002,ACT
46,Latham Preschool,Wanless Street,Latham,2615,Government,Preschool,-35.219707299999996,149.03436200000002,ACT
47,Lyneham Preschool,Glover Street,Lyneham,2602,Government,Preschool,-35.2514401,149.1259021,ACT
48,Lyons Early Childhood School,Tarraleah Crescent,Lyons,2606,Government,Preschool,-35.3415836,149.0765361,ACT
49,MacGregor Preschool,Code Crescent,MacGregor,2615,Government,Preschool,-35.213198799999994,149.01237690000002,ACT
50,Macquarie Preschool,Bennelong Crescent,Macquarie,2614,Government,Preschool,-35.250192799999994,149.05907209999998,ACT
51,Maribyrnong Preschool,Alberga Street,Kaleen,2617,Government,Preschool,-35.235135,149.1030995,ACT
52,Mawson Preschool,Ainsworth Street,Mawson,2607,Government,Preschool,-35.358528799999995,149.0978592,ACT
53,Melba Preschool - Mt Rogers Primary School,Grainger Circuit,Melba,2615,Government,Preschool,-35.2084845,149.0555531,ACT
54,Miles Franklin Preschool,Alderman Street,Evatt,2617,Government,Preschool,-35.2128511,149.06657230000002,ACT
55,Monash Preschool,Forwood Street,Monash,2904,Government,Preschool,-35.414612899999995,149.08949740000003,ACT
56,Namadgi School - Boddington Site,Boddington Crescent,Kambah,2902,Government,Preschool,-35.392013399999996,149.0679124,ACT
57,Namadgi School - O'Halloran Site,O'Halloran Circuit,Kambah,2902,Government,Preschool,-35.392013399999996,149.0679124,ACT
58,Narrabundah Early Childhood School,Kootara Crescent,Narrabundah,2604,Government,Preschool,-35.328791700000004,149.1508632,ACT
59,Ngunnawal Preschool,Wanganeen Avenue,Ngunnawal,2913,Government,Preschool,-35.1687184,149.1110909,ACT
60,Nicholls Preschool - Gold Creek School,Kellaway Street,Nicholls,2913,Government,Preschool,-35.1812497,149.1001483,ACT
61,North Ainslie Preschool,Sherbrooke Street,Ainslie,2602,Government,Preschool,-35.2549285,149.14687560000002,ACT
62,O'Connor Cooperative School,Macpherson Street,O'Connor,2602,Government,Preschool,-35.261107,149.12063569999998,ACT
63,Palmerston Preschool,Koszciusko Avenue,Palmerston,2913,Government,Preschool,-35.1970889,149.1209508,ACT
64,Pearce Preschool -  Torrens Primary School,Pendred Street,Pearce,2607,Government,Preschool,-35.371346100000004,149.0913845,ACT
65,Red Hill Preschool,Astrolabe Street,Red Hill,2603,Government,Preschool,-35.3383964,149.1325205,ACT
66,Reid Preschool,Dirrawan Gardens,Reid,2612,Government,Preschool,-35.282576500000005,149.1402365,ACT
67,Richardson Preschool,May Gibbs Close,Richardson,2905,Government,Preschool,-35.4292347,149.11444369999998,ACT
68,Spence Preschool - Mt Rogers Primary School,Baddeley Crescent,Spence,2615,Government,Preschool,-35.1995111,149.0655759,ACT
69,Southern Cross Early Childhood School,Wirraway Crescent,Scullin,2614,Government,Preschool,-35.2325569,149.03840309999998,ACT
70,Taylor Preschool,Marconi Crescent,Kambah,2913,Government,Preschool,-35.1518915,149.11356919999997,ACT
71,Tharwa Preschool - Charles Conder Primary School,Tharwa,ACT 2620,2906,Government,Preschool,-35.4643995,149.09874209999998,ACT
72,Theodore Preschool,Lawrence Wackett Crescent,Theodore,2905,Government,Preschool,-35.447438,149.12304530000003,ACT
73,Torrens Preschool,Parsons Street,Torrens,2607,Government,Preschool,-35.3732525,149.0856114,ACT
74,Turner Preschool,Hartley Street,Turner,2612,Government,Preschool,-35.2641826,149.1267797,ACT
75,Wanniassa Hills Preschool,Langdon Avenue,Wanniassa,2903,Government,Preschool,-35.3929901,149.09548049999998,ACT
76,Wanniassa Preschool,Sternberg Crescent,Wanniassa,2903,Government,Preschool,-35.3992365,149.08579699999999,ACT
77,Waramanga Preschool - Arawang Primary School,Nemarang Crescent,Waramanga,2611,Government,Preschool,-35.3544092,149.0593284,ACT
78,Watson Preschool - Majura Primary School,Knox Street,Watson,2602,Government,Preschool,-35.2371859,149.1521392,ACT
79,Weetangera Preschool,Southwell Street,Weetangera,2614,Government,Preschool,-35.251823200000004,149.04766750000002,ACT
80,Weston Preschool - Arawang Primary School,Minns Place,Weston,2611,Government,Preschool,-35.3544092,149.0593284,ACT
81,Yarralumla Preschool Villa, Loftus Street,Yarralumla,2600,Government,Preschool,-35.310051200000004,149.1055699,ACT
82,Yarralumla Montessori Villa School,Loftus Street,Yarralumla,2600,Government,Preschool,-35.3068178,149.1021454,ACT
83,Amaroo School,Katherine Avenue,Amaroo,2914,Government,Preschool to Year 10,-35.163986,149.129705,ACT
84,Caroline Chisholm School,Hambidge Crescent,Chisholm,2905,Government,Preschool to Year 10,-35.418155,149.122047,ACT
85,Gold Creek School,Kelleway Street,Nicholls,2913,Government,Preschool to Year 10,-35.181275,149.10026200000001,ACT
86,Harrison School,Wimmera Street,Harrison,2914,Government,Preschool to Year 10,-35.19753060000001,149.15164230000002,ACT
87,Kingsford Smith School,Cnr Hardwick Cres and Starke St,Holt,2615,Government,Preschool to Year 10,-35.227532000000004,149.021001,ACT
88,Namadgi School,O'Halloran Circuit,Kambah,2902,Government,Preschool to Year 10,-35.393842,149.064431,ACT
89,Wanniassa School,Sternberg Crescent,Wanniassa,2903,Government,Preschool to Year 10,-35.394991999999995,149.08636299999998,ACT
90,Canberra College,Launceston Street,Phillip,2606,Government,Colleges Year 11-12,-35.340387,149.088676,ACT
91,Dickson College,Phillip Avenue,Dickson,2602,Government,Colleges Year 11-12,-35.249,149.153,ACT
92,Erindale College,McBryde Crescent,Wanniassa,2903,Government,Colleges Year 11-12,-35.403008,149.09717,ACT
93,Gungahlin College,Gozzard Street,Gungahlin,2912,Government,Colleges Year 11-12,-35.185515,149.131357,ACT
94,Hawker College,Murranji Street,Hawker,2614,Government,Colleges Year 11-12,-35.245207,149.033634,ACT
95,University of Canberra - Senior Secondary College Lake Ginninderra,Emu Bank,Belconnen,2617,Government,Colleges Year 11-12,-35.238771,149.073894,ACT
96,Lake Tuggeranong College,Cowlishaw Street,Tuggeranong,2900,Government,Colleges Year 11-12,-35.4132,149.067934,ACT
97,Melba Copland Secondary School - Copland Campus Years 11 - 12,Copland Drive,Melba,2615,Government,Colleges Year 11-12,-35.212194000000004,149.05916299999998,ACT
98,Narrabundah College,Jerrabomberra Avenue,Narrabundah,2604,Government,Colleges Year 11-12,-35.336028000000006,149.147301,ACT
99,Ainslie School,Donaldson Street,Braddon,2612,Government,Primary School,-35.273728999999996,149.139632,ACT
100,Ainslie North Primary,Majura Avenue,Ainslie,2602,Government,Primary School,-35.254796999999996,149.145509,ACT
101,Amaroo School,Katherine Avenue,Amaroo,2914,Government,Primary School,-35.163986,149.129705,ACT
102,Aranda Primary,Banambila Crescent,Aranda,2614,Government,Primary School,-35.255998999999996,149.079914,ACT
103,Arawang Primary,Nemarang Crescent,Waramanga,2611,Government,Primary School,-35.355017,149.059719,ACT
104,Bonython Primary,Hurtle Avenue,Bonython,2905,Government,Primary School,-35.431846,149.082604,ACT
105,Calwell Primary,Casey Crescent,Calwell,2905,Government,Primary School,-35.438412,149.109254,ACT
106,Campbell Primary,Chauvel Street,Campbell,2612,Government,Primary School,-35.290271000000004,149.156099,ACT
107,Chapman Primary,Perry Drive,Chapman,2611,Government,Primary School,-35.356878,149.043079,ACT
108,Charles Conder Primary,Tom Roberts Avenue,Conder,2906,Government,Primary School,-35.464883,149.098449,ACT
109,Charles Weston School,Woodberry Avenue,Coombs,2611,Government,Primary School,-35.322603,149.042848,ACT
110,Charnwood-Dunlop School,Bettington Circuit,Charnwood,2615,Government,Primary School,-35.198682,149.036203,ACT
111,Caroline Chisholm Primary,Hambidge Crescent,Chisholm,2905,Government,Primary School,-35.418155,149.122047,ACT
112,Curtin Primary,Theodore Street,Curtin,2605,Government,Primary School,-35.331662,149.079926,ACT
113,Duffy Primary,Burrinjuck Crescent,Duffy,2611,Government,Primary School,-35.334219,149.033656,ACT
114,Evatt Primary,Heydon Crescent,Evatt,2617,Government,Primary School,-35.20707,149.075906,ACT
115,Fadden Primary,Hanlon Crescent,Fadden,2904,Government,Primary School,-35.404286,149.118175,ACT
116,Farrer Primary,Lambrigg Street,Farrer,2607,Government,Primary School,-35.378739,149.107114,ACT
117,Florey Primary,Ratcliffe Crescent,Florey,2615,Government,Primary School,-35.226519,149.052092,ACT
118,Forrest Primary,National Circuit,Forrest,2603,Government,Primary School,-35.315084000000006,149.126171,ACT
119,Franklin Early Childhood School,Oodgeroo Avenue,Franklin,2913,Government,Primary School,-35.200461,149.141327,ACT
120,Fraser Primary,Tillyard Drive,Fraser,2615,Government,Primary School,-35.191795,149.043375,ACT
121,Garran Primary,Gilmore Crescent,Garran,2605,Government,Primary School,-35.344681,149.10328700000002,ACT
122,Gilmore Primary,Heagney Crescent,Gilmore,2905,Government,Primary School,-35.419488,149.135582,ACT
123,Giralang Primary,Canopus Crescent,Giralang,2617,Government,Primary School,-35.213716999999995,149.094449,ACT
124,Gold Creek School,Kelleway Street,Nicholls,2913,Government,Primary School,-35.181275,149.10026200000001,ACT
125,Gordon Primary,Knoke Avenue,Gordon,2906,Government,Primary School,-35.455517,149.08697800000002,ACT
126,Gowrie Primary,Jeffries Street,Gowrie,2904,Government,Primary School,-35.413608,149.11056499999998,ACT
127,Harrison School,Nullabor Avenue,Harrison,2914,Government,Primary School,-35.19753060000001,149.15164,ACT
128,Hawker Primary,Erldunda Cicuit,Hawker,2614,Government,Primary School,-35.250284,149.034593,ACT
129,Hughes Primary,Kent Street,Hughes,2605,Government,Primary School,-35.332248,149.093456,ACT
130,Isabella Plains Early Childhood School,Ellerston Avenue,Isabella Plains,2905,Government,Primary School,-35.428715999999994,149.089497,ACT
131,Jervis Bay Primary,Jervis Bay,ACT 2540,2540,Government,Primary School,-35.135011999999996,150.703614,ACT
132,Kaleen Primary,Ashburton Circuit,Kaleen,2617,Government,Primary School,-35.224835,149.11404,ACT
133,Kingsford Smith School,Cnr Hardwick Cres and Starke St,Holt,2615,Government,Primary School,-35.226971,149.02336100000002,ACT
134,Latham Primary,O'Loghlen Street,Latham,2615,Government,Primary School,-35.220157,149.034298,ACT
135,Lyneham Primary,Hall Street,Lyneham,2602,Government,Primary School,-35.25148,149.124974,ACT
136,Lyons Early Childhood School,Tarraleah Crescent,Lyons,2606,Government,Primary School,-35.341633,149.076243,ACT
137,Macgregor Primary,Hirschfeld Crescent,MacGregor,2615,Government,Primary School,-35.213112,149.012349,ACT
138,Macquarie Primary,Bennelong Crescent,Macquarie,2614,Government,Primary School,-35.250069,149.059393,ACT
139,Majura Primary,Knox Street,Watson,2602,Government,Primary School,-35.238509,149.15501,ACT
140,Maribyrnong Primary,Alberga Street,Kaleen,2617,Government,Primary School,-35.235115,149.102261,ACT
141,Mawson Primary,Ainsworth Street,Mawson,2607,Government,Primary School,-35.358505,149.097655,ACT
142,Miles Franklin Primary,Alderman Street,Evatt,2617,Government,Primary School,-35.213295,149.06696100000002,ACT
143,Monash Primary,Corlette Crescent,Monash,2904,Government,Primary School,-35.414879,149.089411,ACT
144,Mount Rogers Primary School,Alfred Hill Drive,Melba,2615,Government,Primary School,-35.208737,149.055621,ACT
145,Namadgi School,O'Halloran Circuit,Kambah,2902,Government,Primary School,-35.393842,149.064431,ACT
146,Narrabundah Early Childhood School,Kootara Crescent,Narrabundah,2604,Government,Primary School,-35.329015999999996,149.150698,ACT
147,Neville Bonner Primary School,Mabo Boulevard,Bonner,2914,Government,Primary School,-35.161141,149.139812,ACT
148,Ngunnawal Primary,Unaipon Crescent,Ngunnawal,2913,Government,Primary School,-35.169196,149.111784,ACT
149,O'Connor Cooperative School,MacPherson Street,O'Connor,2602,Government,Primary School,-35.261994,149.12073600000002,ACT
150,Palmerston District Primary,Kosciusko Avenue,Palmerston,2913,Government,Primary School,-35.1975,149.120303,ACT
151,Red Hill Primary,Astrolabe Street,Red Hill,2603,Government,Primary School,-35.339741,149.132893,ACT
152,Richardson Primary,May Gibbs Close,Richardson,2905,Government,Primary School,-35.428859,149.113943,ACT
153,Southern Cross Early Childhood School,Wirraway Crescent,Scullin,2614,Government,Primary School,-35.232766999999996,149.03836299999998,ACT
154,Taylor Primary,Marconi Crescent,Kambah,2902,Government,Primary School,-35.378318,149.06426100000002,ACT
155,Telopea Park School,New South Wales Crescent,Barton,2600,Government,Primary School,-35.313804,149.134385,ACT
156,Theodore Primary,Lawrence-Wackett Crescent,Theodore,2905,Government,Primary School,-35.447666999999996,149.12396,ACT
157,Torrens Primary,Ritchie Street,Torrens,2607,Government,Primary School,-35.370046,149.090949,ACT
158,Turner School,Condamine Street,Turner,2612,Government,Primary School,-35.264995,149.126081,ACT
159,Wanniassa Hills Primary,Langdon Avenue,Wanniassa,2903,Government,Primary School,-35.393069,149.095898,ACT
160,Wanniassa School,Sternberg Crescent,Wanniassa,2903,Government,Primary School,-35.394991999999995,149.08636299999998,ACT
161,Weetangera Primary,Southwell Street,Weetangera,2614,Government,Primary School,-35.251826,149.04713700000002,ACT
162,Yarralumla Primary,Loftus Street,Yarralumla,2600,Government,Primary School,-35.306948,149.10323400000001,ACT
163,Alfred Deakin High,Denison Street,Deakin,2600,Government,High School,-35.323848999999996,149.094282,ACT
164,Amaroo School,Katherine Avenue,Amaroo,2914,Government,High School,-35.163986,149.129705,ACT
165,Belconnen High,Murranji Street,Hawker,2614,Government,High School,-35.246957,149.039298,ACT
166,Calwell High,Casey Crescent,Calwell,2905,Government,High School,-35.441052,149.117635,ACT
167,Campbell High,Treloar Crescent,Campbell,2612,Government,High School,-35.278101,149.147123,ACT
168,Canberra High,Bindubi Street,Macquarie,2614,Government,High School,-35.251302,149.074517,ACT
169,Caroline Chisholm School,Hambidge Crescent,Chisholm,2905,Government,High School,-35.418155,149.122047,ACT
170,Gold Creek School,Kelleway Street,Nicholls,2913,Government,High School,-35.181275,149.10026200000001,ACT
171,Harrison School,Nullabor Avenue,Harrison,2914,Government,High School,-35.19753060000001,149.15164,ACT
172,University of Canberra High School - Kaleen,Baldwin Drive,Kaleen,2617,Government,High School,-35.225083000000005,149.1012,ACT
173,Kingsford Smith School,Cnr Hardwick Cres and Starke St,Holt,2615,Government,High School,-35.227532000000004,149.021001,ACT
174,Lanyon High,Heidelberg Street,Conder,2906,Government,High School,-35.460389,149.09507,ACT
175,Lyneham High,Goodwin Street,Lyneham,2602,Government,High School,-35.252379,149.130653,ACT
176,Melba Copland Secondary School,Conley Drive,Melba,2615,Government,High School,-35.212540000000004,149.05979399999998,ACT
177,Melrose High,Marr Street,Pearce,2607,Government,High School,-35.363475,149.089434,ACT
178,Mount Stromlo High School,Badimara Street,Waramanga,2611,Government,High School,-35.355429,149.05436,ACT
179,Namadgi School,O'Halloran Circuit,Kambah,2902,Government,High School,-35.393842,149.064431,ACT
180,Telopea Park School,New South Wales Crescent,Barton,2600,Government,High School,-35.313804,149.134385,ACT
181,Wanniassa School,Wheeler Crescent,Wanniassa,2903,Government,High School,-35.395277,149.085588,ACT
182,Alternative Education Program/Dickson College,Phillip Avenue,Dickson,2602,Government,Specialist School/Education Centre,-35.248452,149.154143,ACT
183,Alternative Education Program/Canberra College,Fremantle Drive,Stirling,2611,Government,Specialist School/Education Centre,-35.350801000000004,149.049754,ACT
184,Birrigai Outdoor School,Tidbinbilla Road,Tharwa,2620,Government,Specialist School/Education Centre,-35.444728999999995,148.959975,ACT
185,Black Mountain  School,Dryandra Street,O'Connor,2602,Government,Specialist School/Education Centre,-35.265223999999996,149.11236599999998,ACT
186,Cranleigh School,Starke Street,Holt,2615,Government,Specialist School/Education Centre,-35.224913,149.02911,ACT
187,Hospital School (The)/Canberra Hospital,Yamba Drive,Garran,2605,Government,Specialist School/Education Centre,-35.34513,149.10078000000001,ACT
188,Instrumental Music Program c/o Kaleen High School,Baldwin Drive,Kaleen,2617,Government,Specialist School/Education Centre,-35.225083000000005,149.1012,ACT
189,Malkara School,Wisdom Street,Garran,2605,Government,Specialist School/Education Centre,-35.337447,149.09402,ACT
190,Melrose Guidance and Counselling Service/Melrose HS,Marr Street,Pearce,2607,Government,Specialist School/Education Centre,-35.363475,149.089434,ACT
191,Turner Early Childhood Centre,Condamine Street,Turner,2612,Government,Specialist School/Education Centre,-35.264995,149.126081,ACT
192,Woden School (The),Denison Street,Deakin,2600,Government,Specialist School/Education Centre,-35.326599,149.092398,ACT
193,Northside Primary Introductory English Centre (at North Ainslie Primary School),Majura Avenue,Ainslie,2602,Government,Introductory English Centre,-35.254796999999996,149.145509,ACT
194,Southside Primary Introductory English Centre (at Hughes Primary School),Kent Street,Hughes,2605,Government,Introductory English Centre,-35.332248,149.093456,ACT
195,Secondary Introductory English Centre (at Dickson College),Phillip Avenue,Dickson,2602,Government,Introductory English Centre,-35.249,149.153,ACT
196,Belconnen Primary Introductory English Centre (at Charnwood Dunlop Primary School),Bettington Circuit,Charnwood,2615,Government,Introductory English Centre,-35.19876,149.03622,ACT
197,Tuggeranong Introductory English Centre (at Wanniassa Hills Primary School),Langdon Avenue,Wanniassa,2903,Government,Introductory English Centre,-35.39282,149.09216,ACT
198,Gungahlin Primary Introductory English Centre (at Palmerston District Primary School),Kosciuszko Avenue,Palmerston,2913,Government,Introductory English Centre,-35.1975,149.120303,ACT
199,Blue Gum Community School,Maitland Street,Hackett,2602,Non-Government,Independent Community,-35.249947,149.162514,ACT
200,Brindabella Christian College - Lyneham Campus,Brigalow Street,Lyneham,2602,Non-Government,Independent Christian,-35.249003,149.127639,ACT
201,Brindabella Christian College - Charnwood campus,Lhotsky Street,Charnwood,2615,Non-Government,Independent Christian,-35.203094,149.03007140000003,ACT
202,Burgmann Anglican School - Valley Campus,Cnr Gungahlin Drive & The Valley Avenue,Gungahlin,2912,Non-Government,Independent Anglican,-35.188528999999996,149.123672,ACT
203,Burgmann Anglican School - Ford Campus,Cnr Francis Forde Boulevarde & Hurrell Street,Forde,2914,Non-Government,Independent Anglican,-35.1709074,149.1428459,ACT
204,Canberra Christian School,Ainsworth Street,Mawson,2607,Non-Government,Independent Christian,-35.356475,149.097963,ACT
205,Canberra Girls' Grammar School,Melbourne Avenue,Deakin,2600,Non-Government,Independent Anglican,-35.316990000000004,149.115115,ACT
206,Canberra Girls' Grammar School - Junior school campus,Grey Street,Deakin,2600,Non-Government,Independent Anglican,-35.312126,149.110759,ACT
207,Canberra Grammar School,Monaro Crescent,Red Hill,2603,Non-Government,Independent Anglican,-35.330919,149.124674,ACT
208,Canberra Grammar School - Junior school campus,Alexander Street,Red Hill,2603,Non-Government,Independent Anglican,-35.332344,149.12469099999998,ACT
209,Canberra Grammar School - Southside - early childhood campus,Alexander Street,Red Hill,2603,Non-Government,Independent Anglican,-35.332344,149.12469099999998,ACT
210,Canberra Grammar School - Northside - early childhood campus,Blamey Crescent,Campbell,2612,Non-Government,Independent Anglican,-35.285315999999995,149.147091,ACT
211,Canberra Montessori School,Mulley Street,Holder,2611,Non-Government,Independent Montessori,-35.332246999999995,149.051068,ACT
212,Covenant Christian School,Woodcock Drive,Gordon,2906,Non-Government,Independent Christian,-35.439221999999994,149.090709,ACT
213,Daramalan College,Cowper Street,Dickson,2602,Non-Government,Independent Catholic,-35.253518,149.13869499999998,ACT
214,Emmaus Christian School,Davenport Street,Dickson,2602,Non-Government,Independent Christian,-35.253355,149.142818,ACT
215,Good Shepherd Primary School,Burdekin Avenue,Amaroo,2914,Non-Government,Catholic systemic,-35.166843,149.123922,ACT
216,Mother Teresa - campus of Good Shepherd,Wimmera St,Harrison,2914,Non-Government,Catholic systemic,-35.19549310000001,149.1531305,ACT
217,St John Paul II College - secondary campus of Good Shepherd,Gungahlin Drive,Nicholls,2913,Non-Government,Catholic systemic,-35.176194200000005,149.0999636,ACT
218,Holy Family Parish Primary,Castleton Crescent,Gowrie,2904,Non-Government,Catholic systemic,-35.410301000000004,149.116552,ACT
219,Holy Spirit Primary,Kelleway Avenue,Nicholls,2913,Non-Government,Catholic systemic,-35.180246000000004,149.101809,ACT
220,Holy Trinity Primary,Theodore Street,Curtin,2605,Non-Government,Catholic systemic,-35.327678999999996,149.081951,ACT
221,Islamic School of Canberra,Heysen Street,Weston,2602,Non-Government,Independent Islamic,-35.240588,149.15037,ACT
222,Marist College Canberra,Marr Street,Pearce,2606,Non-Government,Independent Islamic,-35.357959,149.088697,ACT
223,Merici College,Wise Street,Braddon,2612,Non-Government,Catholic systemic,-35.266525,149.13703700000002,ACT
224,Orana Steiner School,Unwin Place,Weston,2611,Non-Government,Independent Steiner,-35.327858,149.058949,ACT
225,Radford College,College Street,Bruce,2617,Non-Government,Independent Anglican,-35.243503000000004,149.089323,ACT
226,Rosary Primary,Fleming Street,Watson,2602,Non-Government,Catholic systemic,-35.24641,149.154682,ACT
227,Sacred Heart Primary,Murphy Street,Pearce,2607,Non-Government,Catholic systemic,-35.366935999999995,149.08439099999998,ACT
228,St Anthony's Primary,Wheeler Crescent,Wanniassa,2903,Non-Government,Catholic systemic,-35.394049,149.08008600000002,ACT
229,St Bede's Primary,Nuyts Street,Red Hill,2603,Non-Government,Catholic systemic,-35.338846999999994,149.128788,ACT
230,St Benedict's Primary,Tallara Parkway,Narrabundah,2604,Non-Government,Catholic systemic,-35.33483,149.148034,ACT
231,St Clare of Assisi Primary,Heidelberg Street,Conder,2906,Non-Government,Catholic systemic,-35.45791,149.096766,ACT
232,St Clare's College,McMillan Crescent,Griffith,2603,Non-Government,Catholic systemic,-35.323929,149.14765,ACT
233,St Edmund's College,Canberra Avenue,Griffith,2603,Non-Government,Independent Catholic,-35.32282,149.144242,ACT
234,St Francis of Assisi Primary,Casey Crescent,Calwell,2905,Non-Government,Catholic systemic,-35.440799,149.11959299999998,ACT
235,St Francis Xavier College,Barnard Circuit,Florey,2615,Non-Government,Catholic systemic,-35.223979,149.040615,ACT
236,St John the Apostle Primary,Pawsey Circuit,Florey,2615,Non-Government,Catholic systemic,-35.225664,149.041696,ACT
237,St John Vianney's Primary,Namatjira Drive,Waramanga,2611,Non-Government,Catholic systemic,-35.351057,149.05555900000002,ACT
238,St Joseph's Primary,Boronia Drive,O'Connor,2602,Non-Government,Catholic systemic,-35.259648,149.126375,ACT
239,St Jude's Primary,Mulley Street,Holder,2611,Non-Government,Catholic systemic,-35.333940999999996,149.04981899999999,ACT
240,St Mary MacKillop College - Isabella Plains Campus,Ellerston Avenue,Isabella Plains,2903,Non-Government,Catholic systemic,-35.404923,149.089258,ACT
241,St Mary MacKillop College - Wanniassa Campus,Mackinnon Street,Wanniassa,2903,Non-Government,Catholic systemic,-35.404923,149.089258,ACT
242,St Matthew's Primary,Stutchbury Street,Page,2614,Non-Government,Catholic systemic,-35.240755,149.04155500000002,ACT
243,St Michael's Primary,Tyrell Circuit,Kaleen,2617,Non-Government,Catholic systemic,-35.223473999999996,149.10970700000001,ACT
244,St Monica's Primary,Moynihan Street,Evatt,2617,Non-Government,Catholic systemic,-35.213525,149.061289,ACT
245,St's Peter & Paul,Wisdom Street,Garran,2605,Non-Government,Catholic systemic,-35.339376,149.092732,ACT
246,St Thomas Aquinas Primary,Lhotsky Street,Charnwood,2615,Non-Government,Catholic systemic,-35.205121000000005,149.02963799999998,ACT
247,St Thomas More's Primary,White Crescent,Campbell,2612,Non-Government,Catholic systemic,-35.286716999999996,149.156836,ACT
248,St Thomas the Apostle Primary,Boddington Crescent,Kambah,2902,Non-Government,Catholic systemic,-35.382449,149.051977,ACT
249,St Vincent's Primary,Bindel Street,Aranda,2614,Non-Government,Catholic systemic,-35.254993,149.076661,ACT
250,Taqwa School,Crofts Crescent,Spence,2615,Non-Government,Independent Islamic,-35.1981297,149.065433,ACT
251,The Galilee School,PO Box 1066,Tuggeranong,2901,Non-Government,Independent Special Assistance School,-35.380778,149.035968,ACT
252,Trinity Christian School,McBryde Crescent,Wanniassa,2903,Non-Government,Independent Christian,-35.408265,149.086051,ACT
253,Abbotsleigh,1666 Pacific Highway,Wahroonga,2076,Independent,Combined,-33.719891,151.111345,NSW
254,All Hallows School,Bayly Street,Gulgong,2852,Catholic,Primary,-32.361340000000006,149.53096499999998,NSW
255,All Hallows Catholic Primary School,1 Halley St,Five Dock,2046,Catholic,Primary,-33.860896999999994,151.133872,NSW
256,All Saints College,Ophir Road,Bathurst,2795,Independent,Combined,-33.399074,149.564889,NSW
257,All Saints Primary School,Murray Street,Tumbarumba,2653,Catholic,Primary,-35.775636999999996,148.012444,NSW
258,Arden Anglican School,39-43 Wongala Crescent,Beecroft,2119,Independent,Combined,-33.746393,151.065133,NSW
259,Ascham School Ltd,188 New South Head Rd,Edgecliff,2027,Independent,Combined,-33.877077,151.23623700000002,NSW
260,The Assumption School,192 Mitre Street,Bathurst West,2795,Catholic,Primary,-33.411773,149.566954,NSW
261,Bethlehem College,18 Bland Street,Ashfield,2131,Catholic,Secondary,-33.885622,151.12496299999998,NSW
262,Henschke Primary School,105 Fernleigh Road,Wagga Wagga,2650,Catholic,Primary,-35.131374,147.352069,NSW
263,St Oliver's Primary School,33 Wigram Street,Harris Park,2150,Catholic,Primary,-33.824515999999996,151.008984,NSW
264,Blessed Sacrament Catholic Primary School,2 Queen Street,Clifton Gardens,2088,Catholic,Primary,-33.835101,151.24453799999998,NSW
265,Blue Mountains Grammar School,Matcham Avenue,Wentworth Falls,2782,Independent,Combined,-33.708453999999996,150.370541,NSW
266,Brigidine College  St Ives,325 Mona Vale Road,St Ives,2075,Independent,Secondary,-33.721615,151.17269,NSW
267,Brigidine College Randwick,6 Aeolia Street,Randwick,2031,Catholic,Secondary,-33.919181,151.243928,NSW
268,St Patrick's Parish School,Vale & Murray Streets,Cooma,2630,Catholic,Combined,-36.238065999999996,149.126353,NSW
269,Catherine McAuley Westmead,Darcy Road,Westmead,2145,Catholic,Secondary,-33.804721,150.984486,NSW
270,Mercy Catholic College,101 Archer St,Chatswood,2067,Catholic,Secondary,-33.792968,151.18458700000002,NSW
271,Sacred Heart School,Morris Street,Cootamundra,2590,Catholic,Combined,-34.634589,148.030567,NSW
272,Marian Catholic College,185 Wakaden Street,Griffith,2680,Catholic,Secondary,-34.286778999999996,146.05828300000002,NSW
273,Central Coast Adventist School,Penrose Crescent,Erina,2250,Independent,Combined,-33.43634,151.38973000000001,NSW
274,Cerdon College,Sherwood Road,Merrylands,2160,Catholic,Secondary,-33.837664000000004,150.968322,NSW
275,Chevalier College,11 Charlotte Street,Burradoo,2576,Independent,Secondary,-34.506824,150.405476,NSW
276,Southern Cross Catholic Vocational College,17 Comer Street,Burwood,2134,Catholic,Secondary,-33.871725,151.103225,NSW
277,Christian Brothers High School,68 The Boulevarde,Lewisham,2049,Independent,Combined,-33.897141999999995,151.145781,NSW
278,St Mary's Cathedral College,St Mary'S Road,Sydney,2000,Catholic,Combined,-33.871288,151.213998,NSW
279,St Paul's Catholic College,Darley Road,Manly,2095,Catholic,Secondary,-33.805199,151.29163300000002,NSW
280,Christ The King Catholic School Bass Hill,2 Cantrell Street,Yagoona,2199,Catholic,Primary,-33.906086,151.012986,NSW
281,Newcastle Grammar School,60 Newcomen St,Newcastle,2300,Independent,Combined,-32.929914000000004,151.78016200000002,NSW
282,Claremont College,30-32 Coogee Bay Road,Randwick,2031,Independent,Primary,-33.918233,151.244594,NSW
283,Kincoppal-Rose Bay School of the Sacred Heart,New South Head Road,Rose Bay,2029,Independent,Combined,-33.864133,151.271996,NSW
284,Coogee Boys' Preparatory School,Cnr Cook and Alison Road,Randwick,2031,Independent,Primary,-33.912015000000004,151.238686,NSW
285,Corpus Christi Catholic Primary School,17 Link Road,St Ives,2075,Catholic,Primary,-33.728293,151.16603,NSW
286,Corpus Christi Primary School,Platt Street,Waratah,2298,Catholic,Primary,-32.900845000000004,151.723195,NSW
287,Cranbrook School,5 Victoria Road,Bellevue Hill,2023,Independent,Combined,-33.871697999999995,151.251993,NSW
288,Currambena School,205 Longueville Road,Lane Cove,2066,Independent,Primary,-33.820807,151.170301,NSW
289,Danebank School,84-98 Park Rd & 75 Queens Rd,Hurstville,2220,Independent,Combined,-33.962508,151.102756,NSW
290,De La Salle College,24 Bland St,Ashfield,2131,Catholic,Secondary,-33.885212,151.12536599999999,NSW
291,La Salle Catholic College,544 Chapel Rd,Bankstown,2200,Catholic,Secondary,-33.90808,151.034897,NSW
292,"De La Salle Catholic College, Caringbah",389 Port Hacking Road,Caringbah,2229,Catholic,Secondary,-34.045089000000004,151.12243899999999,NSW
293,De La Salle College,9 Ferndale Road,Revesby Heights,2212,Catholic,Secondary,-33.963328999999995,151.015616,NSW
294,Mackillop College,Gorman'S Hill Road,Bathurst,2795,Catholic,Secondary,-33.432524,149.58828400000002,NSW
295,Domremy Catholic College,121 First Avenue,Five Dock,2046,Catholic,Secondary,-33.869709,151.132909,NSW
296,Edmund Rice College,112 Mount Keira Road,Wollongong West,2500,Independent,Secondary,-34.419125,150.863596,NSW
297,Elonera Montessori School,21 Mount Ousley Road,Mount Ousley,2519,Independent,Combined,-34.407737,150.887415,NSW
298,Frensham School,Range Road,Mittagong,2575,Independent,Secondary,-34.452408,150.45232099999998,NSW
299,Gib Gate School,Old Bowral Rd,Mittagong,2575,Independent,Primary,-34.454371,150.429814,NSW
300,Glenaeon Rudolf Steiner School,5A Glenroy Avenue,Middle Cove,2068,Independent,Combined,-33.791478999999995,151.208694,NSW
301,St Augustine's Parish Primary School,10 Dandaloo St,Narromine,2821,Catholic,Primary,-32.227799,148.23986599999998,NSW
302,Holy Cross College,517 Victoria Road,Ryde,2112,Catholic,Secondary,-33.819607,151.117446,NSW
303,Holy Cross Catholic Primary School,81 Edgecliff Road,Woollahra,2022,Catholic,Primary,-33.889857,151.25198500000002,NSW
304,Holy Cross Primary School,326 Lake Rd,Glendale,2285,Catholic,Primary,-32.925591,151.644715,NSW
305,Holy Cross Catholic Primary School,1 Mcmillan Street,Helensburgh,2508,Catholic,Primary,-34.186510999999996,150.986895,NSW
306,Holy Family Primary School,199 The Trongate,Granville East,2142,Catholic,Primary,-33.847668,151.011135,NSW
307,Holy Family Catholic Primary School,2-4 Highfield Road,Lindfield,2070,Catholic,Primary,-33.773994,151.165844,NSW
308,Holy Family Primary School,19 Janet Street,Merewether Beach,2291,Catholic,Primary,-32.948935999999996,151.753398,NSW
309,Holy Innocents' Catholic Primary School,86-98 Queen Street,Croydon,2132,Catholic,Primary,-33.876215,151.113518,NSW
310,Holy Name Primary School,41 Lake Street,Forster,2428,Catholic,Primary,-32.182848,152.517788,NSW
311,Holy Spirit Primary School,Mutsch Street,Lavington,2641,Catholic,Primary,-36.037908,146.93483700000002,NSW
312,Holy Trinity School,Moore Street,Inverell,2360,Catholic,Combined,-29.779152000000003,151.130976,NSW
313,Holy Trinity West Wagga,13 Bardia Street,Ashmont,2650,Catholic,Primary,-35.125111,147.334402,NSW
314,Holy Trinity Primary School,Grimwood Street,Granville,2142,Catholic,Primary,-33.835021999999995,151.00161200000002,NSW
315,The Illawarra Grammar School,10-12 Western Ave,West Wollongong,2500,Independent,Combined,-34.428141,150.87076499999998,NSW
316,Immaculate Heart of Mary Catholic Primary School,10 Kerrinea Road,Sefton,2162,Catholic,Primary,-33.887156,151.008747,NSW
317,Kambala,794 New South Head Road,Rose Bay,2029,Independent,Combined,-33.865613,151.272108,NSW
318,Kinma School,127 Coolowie Road,Terrey Hills,2084,Independent,Primary,-33.686607,151.216969,NSW
319,Kinross Wolaroi School,59-67 Bathurst Road,Orange,2800,Independent,Combined,-33.290963,149.11314,NSW
320,Knox Grammar School,Pacific Highway,Wahroonga,2076,Independent,Combined,-33.72254,151.118596,NSW
321,La Salle Academy,Rabaul St,Lithgow,2790,Catholic,Secondary,-33.495532,150.133152,NSW
322,Loreto Kirribilli,85 Carabella St,Kirribilli,2061,Independent,Combined,-33.847115,151.215953,NSW
323,Loreto Normanhurst,91-93 Pennant Hills Road,Normanhurst,2076,Independent,Combined,-33.721001,151.101132,NSW
324,Lorien Novalis School for Rudolf Steiner Education,456 Old Northern Road,GLENHAVEN,2156,Independent,Combined,-33.702607,151.014572,NSW
325,McAuley Catholic Primary School,8 Carlisle St,Rose Bay,2029,Catholic,Primary,-33.870578,151.27203500000002,NSW
326,Macksville Adventist School,Dudley Street,Macksville,2447,Independent,Primary,-30.709738,152.927269,NSW
327,Macarthur Adventist College,12 Victoria Road,Macquarie Fields,2564,Independent,Combined,-33.98353,150.885188,NSW
328,Marcellin College,195 Alison Road,Randwick,2031,Catholic,Secondary,-33.913571000000005,151.240721,NSW
329,Maria Regina Catholic Primary School,42 Central Road,Avalon Beach,2107,Catholic,Primary,-33.633492,151.33053999999998,NSW
330,Marist College Kogarah,52 Wolseley St,Bexley,2207,Catholic,Secondary,-33.958304,151.130397,NSW
331,Marist College,44 Hillview Road,Eastwood,2122,Catholic,Secondary,-33.789442,151.0772,NSW
332,Marist Catholic College Penshurst,65 Victoria Avenue,Mortdale,2223,Catholic,Secondary,-33.967665999999994,151.083278,NSW
333,Champagnat Catholic College,35 Donovan Avenue,Maroubra,2035,Catholic,Secondary,-33.946605,151.229064,NSW
334,Marist College North Shore,270 Miller Street,North Sydney,2060,Catholic,Secondary,-33.831804,151.20810500000002,NSW
335,Sacred Heart Catholic Primary School,8 Cardinal St,Mosman,2088,Catholic,Primary,-33.824564,151.236298,NSW
336,St Joseph's College,Mark Street,Hunters Hill,2110,Independent,Secondary,-33.830728,151.138935,NSW
337,Marist Sisters' College Woolwich,66A Woolwich Road,Woolwich,2110,Catholic,Secondary,-33.839249,151.167506,NSW
338,Mater Dei Catholic Primary School,29 Heath Road,Blakehurst,2221,Catholic,Primary,-33.98596,151.11170900000002,NSW
339,Mater Maria Catholic College,Forest Road,Warriewood,2102,Catholic,Secondary,-33.683473,151.286945,NSW
340,Meriden School,12 Redmyre Road,Strathfield,2135,Independent,Combined,-33.873995,151.092041,NSW
341,MLC School,Rowley Street,Burwood,2134,Independent,Combined,-33.871646999999996,151.100967,NSW
342,Monte Sant' Angelo Mercy College,128 Miller Street,North Sydney,2060,Independent,Secondary,-33.836476,151.207088,NSW
343,Moriah College,Queens Park Road,Bondi Junction,2022,Independent,Combined,-33.899355,151.24482700000002,NSW
344,Our Lady of Mount Carmel Catholic Primary,4 Kellick Street,Waterloo,2017,Catholic,Primary,-33.899515,151.205678,NSW
345,Mount St Benedict College,447A Pennant Hills Road,Pennant Hills,2120,Independent,Secondary,-33.741555,151.059254,NSW
346,Sacred Heart Catholic School,4 Richard Porter Way,Pymble,2073,Catholic,Primary,-33.739331,151.137104,NSW
347,Mount St John Primary School,Karabin Street,Dorrigo,2453,Catholic,Primary,-30.347208000000002,152.714704,NSW
348,Mount St Joseph Milperra,273 Horsley Road,Milperra,2214,Catholic,Secondary,-33.942553000000004,150.993292,NSW
349,Mount St Patrick Primary School,30 Mooball Street,Murwillumbah,2484,Catholic,Primary,-28.326148,153.39483700000002,NSW
350,Mount St Patrick College,Main Street,Murwillumbah,2484,Catholic,Secondary,-28.325477000000003,153.394073,NSW
351,Nagle College,58A Orwell Street,Blacktown South,2148,Catholic,Secondary,-33.790141999999996,150.901741,NSW
352,Macquarie College,182-222 Lake Road,Wallsend,2287,Independent,Combined,-32.922273,151.65273100000002,NSW
353,New England Girls School,Uralla Road,Armidale,2350,Independent,Combined,-30.519325,151.639774,NSW
354,Newington College,200 Stanmore Road,Stanmore,2048,Independent,Combined,-33.897706,151.16291299999997,NSW
355,Oakhill College Castle Hill,423-513 Old Northern Road,Castle Hill,2154,Independent,Secondary,-33.72331,151.019677,NSW
356,Our Lady Help of Christians Catholic Primary School,8-14 Cambridge Street,Epping,2121,Catholic,Primary,-33.770685,151.082975,NSW
357,Our Lady Help of Christians Primary School,24 Rhodes Street,Lismore South,2480,Catholic,Primary,-28.815294,153.263706,NSW
358,Our Lady of Dolours Catholic Primary School,94A Archer Street,Chatswood,2067,Catholic,Primary,-33.794612,151.184258,NSW
359,Our Lady of Fatima Catholic Primary School,389 Port Hacking Road,Caringbah,2229,Catholic,Primary,-34.04568,151.12151699999998,NSW
360,Our Lady of Fatima Catholic Primary School,51 Caroline Street,Kingsgrove,2208,Catholic,Primary,-33.940713,151.102911,NSW
361,Our Lady of Good Counsel Catholic Primary School,11 Currie Road,Forestville,2087,Catholic,Primary,-33.760228999999995,151.22055600000002,NSW
362,Maronite College of the Holy Family - Parramatta,23-25 Alice Street,Harris Park,2150,Independent,Combined,-33.821552000000004,151.014574,NSW
363,Our Lady of Lourdes Primary School,5 Canyon Road,Baulkham Hills South,2153,Catholic,Primary,-33.766925,150.998102,NSW
364,Our Lady of Lourdes Catholic Primary School,St James Avenue,Earlwood,2206,Catholic,Primary,-33.926987,151.126725,NSW
365,Our Lady of Lourdes Primary School,7 Grantham Road,Seven Hills,2147,Catholic,Primary,-33.778664,150.932254,NSW
366,Our Lady of Lourdes Primary School,Anderson Drive,Tarro,2322,Catholic,Primary,-32.809188,151.661803,NSW
367,Our Lady of Mercy Catholic College Burraneer,62-66 Dominic Street,Cronulla,2230,Catholic,Secondary,-34.05434,151.135366,NSW
368,Our Lady of Mercy College Parramatta,Victoria Road,Parramatta,2150,Independent,Secondary,-33.808347999999995,151.003558,NSW
369,Saints Peter and Paul Primary School,10 Knox Street,Goulburn,2580,Catholic,Primary,-34.759304,149.701827,NSW
370,Our Lady of Mt Carmel Catholic Primary School Mount Pritchard,230 Humphries Rd,Bonnyrigg,2177,Catholic,Primary,-33.893599,150.898581,NSW
371,Our Lady of Mount Carmel Primary School,Bennett Street,Wentworthville,2145,Catholic,Primary,-33.812221,150.96959099999998,NSW
372,Our Lady of Perpetual Succour Catholic Primary School,64 Kendall Street,West Pymble,2073,Catholic,Primary,-33.761008000000004,151.130312,NSW
373,Our Lady of The Annunciation Catholic Primary School,31 Donovan Avenue,Maroubra,2035,Catholic,Primary,-33.946787,151.229893,NSW
374,Our Lady of the Nativity Primary School,7 Somers Street,Lawson,2783,Catholic,Primary,-33.719732,150.440038,NSW
375,Mary MacKillop Catholic College,5 Carnarvon Street,Wakeley,2176,Catholic,Secondary,-33.866026,150.91082600000001,NSW
376,Our Lady of the Rosary Catholic Primary School,20 Vine Street,Fairfield,2165,Catholic,Primary,-33.872794,150.959367,NSW
377,Our Lady of The Rosary Catholic Primary School,Kensington Road,Kensington,2033,Catholic,Primary,-33.912153,151.221109,NSW
378,Our Lady of the Rosary Primary School,32b Saddington Street,St Marys,2760,Catholic,Primary,-33.772735,150.774748,NSW
379,Our Lady Of The Rosary Catholic Primary School,Shelly Beach Road,Shelly Beach,2261,Catholic,Primary,-33.345211,151.49493999999999,NSW
380,Our Lady of the Rosary Catholic Primary School,23 Yardley Avenue,Waitara,2077,Catholic,Primary,-33.713747,151.10447299999998,NSW
381,Our Lady of the Sacred Heart College,36 Addison Street,Kensington,2033,Catholic,Secondary,-33.912662,151.21976899999999,NSW
382,Our Lady of the Sacred Heart Catholic Primary School,193 Avoca Street,Randwick,2031,Catholic,Primary,-33.915717,151.24160600000002,NSW
383,Our Lady of Victories Primary School,15 Lovell Parade,Shortland,2307,Catholic,Primary,-32.888519,151.69449699999998,NSW
384,Parramatta Marist High School,2 Darcy Road,Westmead,2145,Catholic,Secondary,-33.805128,150.98421299999998,NSW
385,Patrician Brothers' College,100 Flushcombe Rd,Blacktown,2148,Catholic,Secondary,-33.775358000000004,150.90954299999999,NSW
386,Patrician Brothers' College Fairfield,268 The Horsley Drive,Fairfield,2165,Catholic,Secondary,-33.872141,150.963528,NSW
387,Delany College,Grimwood Street,Granville,2142,Catholic,Secondary,-33.834406,151.001174,NSW
388,Port Macquarie Adventist School,500 Ocean Drive,Port Macquarie,2444,Independent,Primary,-31.467565000000004,152.899899,NSW
389,PLC Armidale,15-57 Crest Road,Armidale,2350,Independent,Combined,-30.503633,151.66291,NSW
390,Presbyterian Ladies College,Boundary Street,Croydon,2132,Independent,Combined,-33.881336,151.115655,NSW
391,Pymble Ladies' College,Avon Road,Pymble,2073,Independent,Combined,-33.747306,151.134137,NSW
392,Prouille Catholic Primary School,5 Water Street,Wahroonga,2076,Catholic,Primary,-33.715801,151.121588,NSW
393,Queenwood School for Girls Ltd,47 Mandolong Rd,Mosman,2088,Independent,Combined,-33.834453,151.243303,NSW
394,Ravenswood School for Girls,Henry Street,Gordon,2072,Independent,Combined,-33.759249,151.155054,NSW
395,Regina Coeli Catholic Primary School,2 Tarrilli Street,Beverly Hills,2209,Catholic,Primary,-33.946884999999995,151.08,NSW
396,Roseville College,27-29 Bancroft Avenue,Roseville,2069,Independent,Combined,-33.78517,151.179521,NSW
397,Sacred Heart School,57 Laidlaw Street,Boggabri,2382,Catholic,Primary,-30.706671000000004,150.045822,NSW
398,Sacred Heart Catholic School,Gilmore Street,Cabramatta,2166,Catholic,Primary,-33.890482,150.93653,NSW
399,Sacred Heart Primary School,Church St,Coolah,2843,Catholic,Primary,-31.825643,149.710819,NSW
400,Sacred Heart Catholic Primary School,Waratah St,Mona Vale,2103,Catholic,Primary,-33.675596,151.30026,NSW
401,Sacred Heart Primary School,37-45 Charlotte Street,Tocumwal,2714,Catholic,Primary,-35.814863,145.575806,NSW
402,Sacred Heart Catholic Primary School,122 Carawatha Street,Villawood,2163,Catholic,Primary,-33.889059,150.975512,NSW
403,Sacred Heart Primary School,12 Ralph Street,Westmead,2145,Catholic,Primary,-33.813595,150.986749,NSW
404,St Agatha's Catholic Primary School,7 Trebor Road,Pennant Hills,2120,Catholic,Primary,-33.739302,151.066878,NSW
405,St Agnes' Catholic Primary School,511 Bunnerong Road,Matraville,2036,Catholic,Primary,-33.958865,151.231575,NSW
406,St Aidan's Catholic Primary School,214 Maroubra Road,Maroubra,2035,Catholic,Primary,-33.941868,151.241796,NSW
407,St Aidan's Primary School,1-5 Adelaide Street,Rooty Hill,2766,Catholic,Primary,-33.765133,150.83744,NSW
408,St Aloysius' College,47 Upper Pitt Street,Milsons Point,2061,Independent,Combined,-33.848502,151.214259,NSW
409,St Aloysius Catholic Primary School,Giddings Avenue,Cronulla,2230,Catholic,Primary,-34.057601,151.153079,NSW
410,St Ambrose Catholic Primary School,Stuart Street,Concord West,2138,Catholic,Primary,-33.849833000000004,151.086876,NSW
411,St Andrew's Catholic Primary School,18 Prince Edward Street,Malabar,2036,Catholic,Primary,-33.964057000000004,151.247554,NSW
412,St Andrew's Primary School,36 Breakfast Road,Marayong,2148,Catholic,Primary,-33.749153,150.88896100000002,NSW
413,Galilee Catholic Primary School,60B Blair Street,Bondi Beach,2026,Catholic,Primary,-33.885435,151.27652700000002,NSW
414,St Anne's Primary School,Curlew Crescent,Albury North,2640,Catholic,Primary,-36.060324,146.936111,NSW
415,St Anne's Catholic Primary School,St Anne'S Square,Strathfield South,2136,Catholic,Primary,-33.892383,151.077934,NSW
416,St Anne's Central School,De Boos St,Temora,2666,Catholic,Combined,-34.445516999999995,147.535171,NSW
417,St Anthony's Catholic Primary School,58 Arden Street,Clovelly,2031,Catholic,Primary,-33.910531,151.25876599999998,NSW
418,St Anthony's Primary School,216 Targo Rd,Girraween,2145,Catholic,Primary,-33.792235999999995,150.950479,NSW
419,St Anthony's Primary School,23 Boomerang Street,Kingscliff,2487,Catholic,Primary,-28.257509000000002,153.57609399999998,NSW
420,St Augustine's College,Alfred Road,Brookvale,2100,Independent,Combined,-33.760141,151.271862,NSW
421,St Augustine's Primary School,Gordon Street,Coffs Harbour,2450,Catholic,Primary,-30.300858,153.113055,NSW
422,St Bede's Primary School,Park Lane,Braidwood,2622,Catholic,Primary,-35.44175,149.799421,NSW
423,St Benedict's Primary School,839 Main Road,Edgeworth,2285,Catholic,Primary,-32.923248,151.611986,NSW
424,St Bernadette's Primary School,357 Old Northern Road,Castle Hill,2154,Catholic,Primary,-33.731875,151.011759,NSW
425,St Bernadette's Primary School,Cox Crescent,Dundas Valley,2117,Catholic,Primary,-33.790923,151.05055,NSW
426,St Bernadette's Primary School,18 Wheeler Street,Lalor Park,2147,Catholic,Primary,-33.761315,150.92628,NSW
427,St Bernard's Catholic Primary School,Warrina St,Berowra Heights,2082,Catholic,Primary,-33.614196,151.144474,NSW
428,St Bernard's Catholic Primary School,Ramsgate Street,Botany,2019,Catholic,Primary,-33.945453,151.20003400000002,NSW
429,St Brigid's Primary School,8 Tooloon Street,Coonamble,2829,Catholic,Primary,-30.952783,148.387128,NSW
430,St Brendan's Catholic Primary School,30 Collins St,Annandale,2038,Catholic,Primary,-33.884204,151.170909,NSW
431,St Brendan's Catholic Primary School,18 Cambridge Avenue,Bankstown,2200,Catholic,Primary,-33.921723,151.029046,NSW
432,St Brendan's Primary School,46 Langham St,Ganmain,2702,Catholic,Primary,-34.796397,147.042871,NSW
433,St Brigid's Catholic Primary School,2 Vickery Street,Gwynneville,2500,Catholic,Primary,-34.416383,150.88233200000002,NSW
434,St Brigid's Catholic Primary School,392A Marrickville Road,Marrickville,2204,Catholic,Primary,-33.909693,151.15246299999998,NSW
435,St Brigid's Primary School,Groom Street,Kyogle,2474,Catholic,Primary,-28.626191,153.00456499999999,NSW
436,St Brigid's Primary School,52 Irrawang Street,Raymond Terrace,2324,Catholic,Primary,-32.764559999999996,151.74658300000002,NSW
437,St Canice's Primary School,158 Katoomba Street,Katoomba,2780,Catholic,Primary,-33.716088,150.311092,NSW
438,St Catherine Labour?Catholic Primary School,123 Gymea Bay Road,Gymea,2227,Catholic,Primary,-34.037134,151.083979,NSW
439,St Catherine's School,26 Albion Street,Waverley,2024,Independent,Combined,-33.903752000000004,151.255351,NSW
440,St Cecilia's Catholic Primary School,59 Seaview Street,Balgowlah,2093,Catholic,Primary,-33.796240000000004,151.25797,NSW
441,St Cecilia's Catholic Primary School,Panonia Road,Wyong,2259,Catholic,Primary,-33.291361,151.428293,NSW
442,St Charles Catholic Primary School,582 Victoria Road,Ryde,2112,Catholic,Primary,-33.818342,151.114403,NSW
443,St Charles' Primary School,53-63 Carrington Road,Waverley,2024,Catholic,Primary,-33.89926,151.253604,NSW
444,St Christopher's Catholic Primary School,237 Tower Street,Panania,2213,Catholic,Primary,-33.957452,150.996616,NSW
445,St Philip Neri Catholic Primary School,67 Baringa Road,Northbridge,2063,Catholic,Primary,-33.812124,151.214678,NSW
446,St Clare's College,41-51 Carrington Road,Waverley,2024,Catholic,Secondary,-33.898575,151.253428,NSW
447,St Columban's Primary School,39 Church St,Mayfield,2304,Catholic,Primary,-32.896763,151.74188999999998,NSW
448,St Columba's School,Forbes Street,Yeoval,2868,Catholic,Primary,-32.754016,148.649583,NSW
449,St Columba's Primary School,Lockyer St,Adamstown,2289,Catholic,Primary,-32.937186,151.725652,NSW
450,St Columba's Primary School,6-14 Corcoran St,Berrigan,2712,Catholic,Primary,-35.655676,145.80874,NSW
451,St Columba's Catholic Primary School,215 Elswick St,Leichhardt North,2040,Catholic,Primary,-33.879698,151.152206,NSW
452,St Columbkille's Catholic Primary School,119 Princes Highway,Corrimal,2518,Catholic,Primary,-34.367869,150.897683,NSW
453,St Declan's Catholic Primary School,94 Penshurst St,Penshurst,2222,Catholic,Primary,-33.963246999999996,151.086994,NSW
454,St Dominic's College,54-74 Gascoigne Street,Kingswood,2747,Independent,Combined,-33.753735,150.713765,NSW
455,St Edward's College,13 Frederick Street,East Gosford,2250,Independent,Secondary,-33.438548,151.346057,NSW
456,St Edward's School,Tilga Street,Canowindra,2804,Catholic,Primary,-33.565652,148.664657,NSW
457,St Felix's Catholic Primary School,552 Chapel Road,Bankstown,2200,Catholic,Primary,-33.907133,151.03543200000001,NSW
458,St Fiacre's Catholic Primary School,98 Catherine Street,Leichhardt,2040,Catholic,Primary,-33.884797999999996,151.162197,NSW
459,St Finbarr's Primary School,1 Arakwal Court,Byron Bay,2481,Catholic,Primary,-28.6656,153.6158,NSW
460,St Finbar's Primary School,Broughton St,Sans Souci,2219,Catholic,Primary,-33.992474,151.129188,NSW
461,St Finbar's Primary School,Levy Street,Glenbrook,2773,Catholic,Primary,-33.761142,150.61756,NSW
462,St Francis de Sales Regional College,Yanco Avenue,Leeton,2705,Catholic,Secondary,-34.567877,146.41053,NSW
463,St Francis De Sales' Catholic Primary School,14 Hill Street,Woolooware,2230,Catholic,Primary,-34.052366,151.14213600000002,NSW
464,St Francis of Assisi Catholic Primary School,95 Flagstaff Road,Warrawong,2502,Catholic,Primary,-34.479703,150.879865,NSW
465,St Francis of Assisi Regional Catholic Primary School,64 Gordon St,Paddington,2021,Catholic,Primary,-33.888487,151.23135200000002,NSW
466,St Francis Xavier's College,286 Parkway Avenue,Hamilton,2303,Catholic,Secondary,-32.927166,151.753714,NSW
467,St Francis Xavier Catholic School Ashbury,40-44 Forbes St,Croydon Park,2133,Catholic,Primary,-33.896955,151.114352,NSW
468,St Francis Xavier's Catholic Primary School,Forest Road,Arncliffe,2205,Catholic,Primary,-33.939599,151.14726299999998,NSW
469,St Francis Xavier's Primary School,38-50 Swift Street,Ballina,2478,Catholic,Primary,-28.868353000000003,153.564096,NSW
470,St Francis Xavier Primary School,Conapaira Street,Lake Cargelligo,2672,Catholic,Primary,-33.29647,146.3688,NSW
471,St Francis Xavier Primary School,End Street,Urana,2645,Catholic,Primary,-35.334685,146.26408,NSW
472,St Gabriel's Catholic School,50-52 Abercorn Street,Bexley,2207,Catholic,Primary,-33.947877000000005,151.12174,NSW
473,St Gerard's Catholic Primary School,543 North Rocks Rd,Carlingford,2118,Catholic,Primary,-33.765875,151.050937,NSW
474,St Gertrude's Catholic Primary School,1-11 Justin Street,Smithfield,2164,Catholic,Primary,-33.854662,150.93816999999999,NSW
475,St Gregory's College Campbelltown,100 Badgally Road,Gregory Hills,2557,Independent,Secondary,-34.04102,150.78849499999998,NSW
476,St Ignatius' College,Tambourine Bay Road,Lane Cove,2066,Independent,Combined,-33.819533,151.165517,NSW
477,St Ignatius' Primary School,3 Meek Street,Bourke,2840,Catholic,Primary,-30.088163,145.931546,NSW
478,St James Catholic Primary School,2 Woolley St,Glebe,2037,Catholic,Primary,-33.879546999999995,151.18509,NSW
479,St James Primary School,Vista Parade,Kotara South,2289,Catholic,Primary,-32.948315,151.69988500000002,NSW
480,St James Primary School,Skellatar Stock Route,Muswellbrook,2333,Catholic,Primary,-32.28022,150.883778,NSW
481,St Jerome's Catholic Primary School,Rossmore Ave,Punchbowl,2196,Catholic,Primary,-33.927378000000004,151.054852,NSW
482,St Joachim's Catholic Primary School,7 Mary Street,Lidcombe,2141,Catholic,Primary,-33.862936,151.04611699999998,NSW
483,St Joan Of Arc Catholic Primary School,88 Dalhousie St,Haberfield,2045,Catholic,Primary,-33.879352000000004,151.139551,NSW
484,St John Bosco Catholic Primary School,Banksia Avenue,Engadine,2233,Catholic,Primary,-34.065931,151.008349,NSW
485,St John's Primary School,138 Sheraton Road,Dubbo,2830,Catholic,Primary,-32.252065,148.60355900000002,NSW
486,St John's College,162 Sheraton Road,Dubbo,2830,Catholic,Secondary,-32.268003,148.645796,NSW
487,St John's Lutheran Primary School,154 Adams Street,Jindera,2642,Independent,Primary,-35.95709,146.881683,NSW
488,St John's Catholic Primary School,77 Queen Street,Auburn,2144,Catholic,Primary,-33.851348,151.03278600000002,NSW
489,St John the Evangelist Catholic Primary School,Lindesay Street,Campbelltown,2560,Catholic,Primary,-34.069508,150.817454,NSW
490,St John's Catholic Primary School,Jerematta Street,Dapto,2530,Catholic,Primary,-34.49325,150.799363,NSW
491,St John the Baptist Primary School,12 Victoria St,Maitland,2320,Catholic,Primary,-32.73807,151.558325,NSW
492,St John's School,Queen St,Baradine,2396,Catholic,Primary,-30.950582,149.065925,NSW
493,St John's Primary School,2-4 Prince Street,Cobar,2835,Catholic,Primary,-31.498509000000002,145.83393600000002,NSW
494,St John's Primary School,Dickson Street,Lambton,2299,Catholic,Primary,-32.910351,151.710549,NSW
495,St John The Apostle Catholic Primary School,166 Alfred Street,Narraweena,2099,Catholic,Primary,-33.750459,151.274351,NSW
496,St John's Primary School,5 Mcculloch Street,Riverstone,2765,Catholic,Primary,-33.67541,150.871901,NSW
497,St John's Primary School,89 Dandaloo Street,Trangie,2823,Catholic,Primary,-32.03496,147.978546,NSW
498,St John The Baptist Catholic Primary School,7 Johnson St,Freshwater,2096,Catholic,Primary,-33.774908,151.28298600000002,NSW
499,St John The Baptist Catholic Primary School,21A Dulkara Road,Woy Woy South,2256,Catholic,Primary,-33.502835,151.304027,NSW
500,St John Vianney Catholic Primary School,78 Tempe Street,Greenacre,2190,Catholic,Primary,-33.903833,151.0593,NSW
501,St John Vianney's Primary School,60-66 Yambo Street,Morisset,2264,Catholic,Primary,-33.109189,151.485189,NSW
502,St Patrick's Primary School,113 Gregory Rd,Lochinvar,2321,Catholic,Primary,-32.70211,151.45523899999998,NSW
503,St Joseph's Primary School,Greville Street,South Murwillumbah,2484,Catholic,Primary,-28.331315999999998,153.398364,NSW
504,St Joseph's Primary School,80 Palace Street,Denman,2328,Catholic,Primary,-32.386959000000004,150.68913500000002,NSW
505,St Joseph's Primary School,36 Kemp Street,West Kempsey,2440,Catholic,Primary,-31.075540999999998,152.832134,NSW
506,St Joseph's Primary School,421 Ocean Drive,Laurieton,2443,Catholic,Primary,-31.640825,152.792044,NSW
507,Sts Peter and Paul Catholic Primary School,96 Manning Street,Kiama,2533,Catholic,Primary,-34.675825,150.85322299999999,NSW
508,St Joseph's Catholic School,Queen Street,Oberon,2787,Catholic,Primary,-33.705108,149.85678000000001,NSW
509,St Joseph's Catholic College,Russell Drysdale St,Gosford East,2250,Catholic,Secondary,-33.436858,151.346876,NSW
510,Holy Spirit Infants School,Church Street,Abermain,2326,Catholic,Primary,-32.81091,151.443237,NSW
511,St Joseph's Primary School,Adam St,Coraki,2471,Catholic,Primary,-28.989311999999998,153.286072,NSW
512,St Joseph's Catholic School,Pye St,Eugowra,2806,Catholic,Primary,-33.428149,148.373779,NSW
513,St Joseph's Primary School,Coree Street,Finley,2713,Catholic,Primary,-35.637614,145.57730800000002,NSW
514,St Joseph's Primary School,53 Denison Street,Gloucester,2422,Catholic,Primary,-32.00817,151.961621,NSW
515,St Joseph's Primary School,18 Ash Street,Leeton,2705,Catholic,Primary,-34.554930999999996,146.404439,NSW
516,St Joseph's Primary School,Farquhar Street,Merewether,2291,Catholic,Primary,-32.937049,151.758934,NSW
517,St Joseph's Catholic Primary School,108 Ocean Street,Narrabeen,2101,Catholic,Primary,-33.713045,151.30001399999998,NSW
518,St Joseph's School,Williewa Street,Portland,2847,Catholic,Primary,-33.353244000000004,149.988335,NSW
519,St Joseph's Primary School,Warlters Street,Port Macquarie,2444,Catholic,Primary,-31.429358,152.894868,NSW
520,St Joseph's Catholic Primary School,Watkin Street,Rockdale,2216,Catholic,Primary,-33.951347,151.13523600000002,NSW
521,St Joseph's Primary School,1 St Joseph's Drive,Taree,2430,Catholic,Primary,-31.912498,152.456446,NSW
522,St Joseph's Primary School,20 Coraki Rd,Woodburn,2472,Catholic,Primary,-29.072576,153.33785,NSW
523,St Joseph's Primary School,Adelaide Street,Blayney,2799,Catholic,Primary,-33.524941,149.257227,NSW
524,St Joseph's High School,Segenhoe Street,Aberdeen,2336,Catholic,Secondary,-32.167615000000005,150.88798400000002,NSW
525,St Joseph's School,21-35 Gundagai Street,Adelong,2729,Catholic,Primary,-35.313492,148.06687,NSW
526,St Joseph's Primary School,11 Perry Street,Alstonville,2477,Catholic,Primary,-28.838297999999998,153.437713,NSW
527,St Joseph's School,60 Fitzroy St,Barraba,2347,Catholic,Primary,-30.377121999999996,150.608957,NSW
528,St Bernard's Primary School  Batemans Bay,David Street,Batehaven,2536,Catholic,Primary,-35.739114,150.205622,NSW
529,St Francis Xavier's Primary School,Ernest Street,Belmont,2280,Catholic,Primary,-33.037763,151.66165900000001,NSW
530,St Joseph's Catholic Primary School,8 Wilson Ave,Belmore,2192,Catholic,Primary,-33.923891999999995,151.089192,NSW
531,St Joseph's School,29 Queen Street,Bombala,2632,Catholic,Primary,-36.906441,149.2359,NSW
532,St Joseph's School,Scott St,Boorowa,2586,Catholic,Primary,-34.438553000000006,148.71293899999998,NSW
533,St Joseph's Primary School,26C Bulahdelah Way,Bulahdelah,2423,Catholic,Primary,-32.404872999999995,152.213469,NSW
534,St Joseph's Catholic Primary School,50 Park Road,Bulli,2516,Catholic,Primary,-34.334055,150.918223,NSW
535,St Kevin's Primary School,228 Main Rd,Cardiff,2285,Catholic,Primary,-32.942795000000004,151.665665,NSW
536,St Joseph's Primary School,Shelton Street,Charlestown,2290,Catholic,Primary,-32.966894,151.702628,NSW
537,St Joseph's Catholic Primary School Como - Oyster Bay,Oyster Bay Road,Como,2226,Catholic,Primary,-34.00927,151.073429,NSW
538,St Joseph's Primary School,279 William Street,Condobolin,2877,Catholic,Primary,-33.084592,147.146801,NSW
539,St Joseph's Primary School,8 Blair St,Culcairn,2660,Catholic,Primary,-35.668659000000005,147.035821,NSW
540,St Joseph's Primary School,49 Brown Street,Dungog,2420,Catholic,Primary,-32.400729,151.754143,NSW
541,St Joseph's Catholic Primary School,126 Liverpool Road,Enfield,2136,Catholic,Primary,-33.888059999999996,151.10128999999998,NSW
542,St Joseph's School,20 Wrigley Street,Gilgandra,2827,Catholic,Primary,-31.708488,148.66323899999998,NSW
543,St Joseph's Primary School,Hyde Street,Grafton South,2460,Catholic,Primary,-29.725385,152.933617,NSW
544,St Joseph's School,Weddin Street,Grenfell,2810,Catholic,Primary,-33.898153,148.16251599999998,NSW
545,St Joseph's Primary School,Aiden Street,Hillston,2675,Catholic,Primary,-33.484283000000005,145.52814899999998,NSW
546,St Joseph's Primary School,Kitchener Street,Junee,2663,Catholic,Primary,-34.872240000000005,147.577395,NSW
547,St Joseph's Primary School,94 Joseph Street,Kingswood,2747,Catholic,Primary,-33.756797999999996,150.72150200000002,NSW
548,Holy Spirit Primary School,Barton Street,Kurri Kurri,2327,Catholic,Primary,-32.818582,151.484671,NSW
549,St Joseph's Primary School,Ferrier Street,Lockhart,2656,Catholic,Primary,-35.220471999999994,146.718077,NSW
550,St Joseph's Primary School,23 Stanley Street,Maclean,2463,Catholic,Primary,-29.459346000000004,153.202276,NSW
551,St Joseph's Primary School,57 King Street,East Maitland,2323,Catholic,Primary,-32.750531,151.58513,NSW
552,St Joseph's School,Loftus Street,Manildra,2865,Catholic,Primary,-33.184217,148.694661,NSW
553,St Joseph's Primary School,Marquet Street,Merriwa,2329,Catholic,Primary,-32.136813000000004,150.358488,NSW
554,St Joseph's School,Edward Street,Molong,2866,Catholic,Primary,-33.094281,148.864531,NSW
555,St Joseph's School,72 - 74 Bucknell Street,Mungindi,2406,Catholic,Primary,-28.979978999999997,148.99084399999998,NSW
556,St Joseph's Primary School,85 Larmer Street,Narrandera,2700,Catholic,Primary,-34.749233000000004,146.554626,NSW
557,St Joseph's Primary School,23 Terangion Street,Nyngan,2825,Catholic,Primary,-31.564390000000003,147.19063300000002,NSW
558,St Joseph's Catholic Primary School,21 Rosa Street,Oatley,2223,Catholic,Primary,-33.981565,151.082548,NSW
559,St Joseph's Primary School,165 Caswell Street,Peak Hill,2869,Catholic,Primary,-32.726162,148.187016,NSW
560,St Joseph's School,18 Thomas Street,Quirindi,2343,Catholic,Primary,-31.510241999999998,150.677422,NSW
561,St Joseph's Catholic Primary School,28-32 Thurlow St,Riverwood,2210,Catholic,Primary,-33.951767,151.055038,NSW
562,St Joseph's School,99 Bridge Street,Tamworth West,2340,Catholic,Primary,-31.093384999999998,150.917015,NSW
563,St Joseph's School,50 Scott Street,Tenterfield,2372,Catholic,Primary,-29.058372,152.014773,NSW
564,St Joseph's Primary School,140 Wangi Road,Kilaben Bay,2283,Catholic,Primary,-33.024861,151.57777,NSW
565,St Joseph's School,Wood Street,Uralla,2358,Catholic,Primary,-30.639193,151.50501,NSW
566,St Joseph's School,82 Arthur Street,Walgett,2832,Catholic,Primary,-30.024697999999997,148.114405,NSW
567,St Joseph's School,Stewart Street,Warialda,2402,Catholic,Primary,-29.543428000000002,150.57334,NSW
568,St Joseph's Primary School,1 King Street,Wauchope,2446,Catholic,Primary,-31.459694,152.732375,NSW
569,St Joseph's Primary School,Alma Street,Wee Waa,2388,Catholic,Primary,-30.227233000000002,149.443937,NSW
570,St Joseph's Primary School,Church Crescent,Wingham,2429,Catholic,Primary,-31.871014000000002,152.373716,NSW
571,St Joseph The Worker Catholic Primary School,2 New Street,Auburn South,2144,Catholic,Primary,-33.864697,151.02426,NSW
572,St Joseph's School,26 Coreen St,Jerilderie,2716,Catholic,Primary,-35.358181,145.724032,NSW
573,St Kevin's Catholic Primary School,57 - 59 Oaks Avenue,Dee Why,2099,Catholic,Primary,-33.754445000000004,151.29036399999998,NSW
574,St Kevin's Catholic Primary School,28 Hillview Road,Eastwood,2122,Catholic,Primary,-33.789546,151.078684,NSW
575,St Kieran's Catholic Primary School,63 Gordon Street,Manly Vale,2093,Catholic,Primary,-33.801553000000006,151.255521,NSW
576,St Laurence's Primary School,Fitzroy Street,Dubbo,2830,Catholic,Primary,-32.260407,148.611988,NSW
577,St Lawrence's Primary School,Dalgarno St,Coonabarabran,2357,Catholic,Primary,-31.275219,149.27338400000002,NSW
578,St Leo's Catholic College,16 Woolcott Ave,Wahroonga,2076,Catholic,Secondary,-33.715037,151.10433799999998,NSW
579,St Luke's Catholic Primary School,75-79 Victoria Street,Revesby,2212,Catholic,Primary,-33.945569,151.016979,NSW
580,St Margaret Mary's Primary School,7 Chetwynd Road,Merrylands,2160,Catholic,Primary,-33.836279,150.981727,NSW
581,St Margaret Mary's Catholic Primary School,Cnr Avoca St and Clovelly Rd,Randwick,2031,Catholic,Primary,-33.90529,151.244676,NSW
582,St Mark's Catholic Primary School,31 Tranmere St,Drummoyne,2047,Catholic,Primary,-33.855573,151.154133,NSW
583,St Maroun's College,194-206 Wardell Road,Dulwich Hill,2203,Independent,Combined,-33.908235999999995,151.144181,NSW
584,St Martha's Catholic Primary School,88 Churchill Avenue,Strathfield,2135,Catholic,Primary,-33.873815,151.086979,NSW
585,St Mary of the Angels Primary School,36 Wirruna Street,Guyra,2365,Catholic,Primary,-30.225568,151.67242,NSW
586,St Mary's Primary School,156 Rusden Street,Armidale,2350,Catholic,Primary,-30.516282,151.66403400000002,NSW
587,St Mary Star of the Sea College,Harbour Street,Wollongong,2500,Independent,Secondary,-34.424075,150.903403,NSW
588,St Mary's Primary School,Park Street,Bellingen,2454,Catholic,Primary,-30.455709999999996,152.898143,NSW
589,St Mary's Catholic Primary School,2 Broughton Street,Concord,2137,Catholic,Primary,-33.86792,151.103026,NSW
590,All Saints Catholic College,53 Bigge Street,Liverpool,2170,Catholic,Secondary,-33.920035999999996,150.926859,NSW
591,St Mary's High School,Pacific Highway,Gateshead,2290,Catholic,Secondary,-32.980587,151.692941,NSW
592,St Mary's Catholic School,Percy St,Wellington,2820,Catholic,Combined,-32.556533,148.943445,NSW
593,All Saints Catholic Primary School (Liverpool),George Street,Liverpool,2170,Catholic,Primary,-33.919077,150.926265,NSW
594,Rosebank College,1A Harris Road,Five Dock,2046,Independent,Secondary,-33.868701,151.12221200000002,NSW
595,St Mary's School,Selwyn Street,Batlow,2730,Catholic,Primary,-35.521774,148.146249,NSW
596,St Mary's Primary School,Carbin Street,Bowraville,2449,Catholic,Primary,-30.650993,152.850688,NSW
597,St Mary's Catholic College,Canterbury Street,Casino,2470,Catholic,Secondary,-28.861067,153.045384,NSW
598,St Mary's Primary School,207 Federation Drive,Corowa,2646,Catholic,Primary,-35.996528000000005,146.388105,NSW
599,St Mary's School,Wade Street,Crookwell,2583,Catholic,Primary,-34.462394,149.46928799999998,NSW
600,St Mary's Primary School,Wheeler'S Lane,Dubbo,2830,Catholic,Primary,-32.242336,148.63138500000002,NSW
601,St Mary's Catholic Primary School ,54 Swanson Street,Erskineville,2043,Catholic,Primary,-33.900199,151.187625,NSW
602,St Mary's Primary School,436 Moppett Street,Hay,2711,Catholic,Primary,-34.508916,144.839753,NSW
603,St Mary's Catholic Primary School,Whistler St,Manly,2095,Catholic,Primary,-33.795043,151.286323,NSW
604,St Mary's School,Queen Street,Moruya,2537,Catholic,Primary,-35.909964,150.080108,NSW
605,St Mary's Catholic Primary School ,40 Ridge Street,North Sydney,2060,Catholic,Primary,-33.832701,151.207592,NSW
606,St Mary's Primary School,Cnr Byng & Park Streets,Orange East,2800,Catholic,Primary,-33.284615,149.117119,NSW
607,St Mary's Primary School,1 Myrtle St,Rydalmere,2116,Catholic,Primary,-33.811898,151.040766,NSW
608,St Mary's Primary School,12 Short Street,Scone,2337,Catholic,Primary,-32.053022,150.872225,NSW
609,St Mary's Primary School,2 Bayview St,Warners Bay,2282,Catholic,Primary,-32.975937,151.648849,NSW
610,St Mary's Primary School,2 Lawson Street,Warren,2824,Catholic,Primary,-31.699525,147.838373,NSW
611,St Mary's Primary School,Edon Street,Yoogali,2680,Catholic,Primary,-34.300591,146.083074,NSW
612,St Mary's Primary School,Elizabeth Street,Young,2594,Catholic,Primary,-34.308091,148.300263,NSW
613,St Mary's Star of the Sea Catholic Primary School,24-26 Croydon Road,Hurstville,2220,Catholic,Primary,-33.960257,151.111775,NSW
614,St Mary's Star of the Sea Catholic Primary School,Corks Lane,Milton,2538,Catholic,Primary,-35.311398,150.43026,NSW
615,St Mary's War Memorial School,England Street,West Wyalong,2671,Catholic,Primary,-33.926278,147.205942,NSW
616,St Matthew's Catholic School,4 Lewis Street,Mudgee,2850,Catholic,Combined,-32.593070000000004,149.590336,NSW
617,St Matthew's Primary School,Tebbutt Street,Windsor,2756,Catholic,Primary,-33.6096,150.81528600000001,NSW
618,St Mel's Catholic Primary School,14 Duke Street,Campsie,2194,Catholic,Primary,-33.910999,151.105925,NSW
619,St Michael's School,Tucklan Street,Dunedoo,2844,Catholic,Primary,-32.05976,149.260333,NSW
620,St Michael's School,3-5 Chapel Lane,Baulkham Hills,2153,Catholic,Primary,-33.743606,150.980025,NSW
621,St Michael's Catholic Primary School,24 Margaret Street,Belfield,2191,Catholic,Primary,-33.901446,151.088022,NSW
622,St Michael's Primary School,155 Reservoir Road,Blacktown South,2148,Catholic,Primary,-33.789893,150.899006,NSW
623,St Michael's School,55 Methul Street,Coolamon,2701,Catholic,Primary,-34.817776,147.203353,NSW
624,St Michael's Catholic Primary School,Haig Avenue,Daceyville,2032,Catholic,Primary,-33.930186,151.225447,NSW
625,St Michael's School,356-372 Harrison Street,Deniliquin,2710,Catholic,Primary,-35.53091,144.961567,NSW
626,St Michael's Catholic Primary School,181-187 Longueville Road,Lane Cove,2066,Catholic,Primary,-33.819014,151.169995,NSW
627,St Michael's School,45 Rowan Street,Manilla,2346,Catholic,Primary,-30.750059000000004,150.723451,NSW
628,St Michael's Catholic Primary School,Maxim Street,Meadowbank,2114,Catholic,Primary,-33.812298,151.08724099999998,NSW
629,St Michael's Catholic Primary School,Alfred St,Mittagong,2575,Catholic,Primary,-34.447452,150.449884,NSW
630,St Michael's Primary School,Sproule Street,Nelson Bay,2315,Catholic,Primary,-32.722709,152.135301,NSW
631,St Michael's Catholic Primary School,20 North Street,Nowra,2541,Catholic,Primary,-34.872859999999996,150.597327,NSW
632,St Michael's Catholic Primary School,Percival Road,Stanmore,2048,Catholic,Primary,-33.892382,151.16499,NSW
633,St Michael's Catholic Primary School,Station Street,Thirroul,2515,Catholic,Primary,-34.317496000000006,150.920991,NSW
634,St Monica's Primary School,10 Daking Street,North Parramatta,2151,Catholic,Primary,-33.793627,151.001217,NSW
635,St Monica's Primary School,32 Francis Rd,Richmond,2753,Catholic,Primary,-33.599585999999995,150.759532,NSW
636,St Nicholas of Myra Primary School,Cnr Higgins Street and Lane,Penrith,2750,Catholic,Primary,-33.75482,150.700042,NSW
637,St Patrick's College,4 St Johns Road,Campbelltown,2560,Independent,Secondary,-34.078356,150.824679,NSW
638,St Patrick's College,Edgar Street,Strathfield,2135,Independent,Combined,-33.874621000000005,151.075674,NSW
639,St Patrick's Marist College,151 Kirby Street,Dundas,2117,Catholic,Secondary,-33.802721999999996,151.046824,NSW
640,St Patrick's Catholic Primary School,1 Royston Parade,Asquith,2077,Catholic,Primary,-33.685547,151.111529,NSW
641,St Patrick's Primary School,51-59 Allawah Street,Blacktown,2148,Catholic,Primary,-33.774574,150.898548,NSW
642,St Patrick's Catholic Primary School,Cnr York And Melbourne Streets,Gosford East,2250,Catholic,Primary,-33.436909,151.351495,NSW
643,St Patrick's Catholic Primary School,Belmont Street,Sutherland,2232,Catholic,Primary,-34.033941999999996,151.06213,NSW
644,St Patrick's Parish School,449 Olive Street,Albury,2640,Catholic,Primary,-36.083551,146.918126,NSW
645,St Patrick's Primary School,Gipps Street,Bega,2550,Catholic,Primary,-36.679312,149.842771,NSW
646,St Patrick's Primary School,108-116 Bathurst Street,Brewarrina,2839,Catholic,Primary,-29.961078999999998,146.858789,NSW
647,St Patrick's Primary School,155 Wollombi Road,Cessnock,2325,Catholic,Primary,-32.835544,151.350789,NSW
648,St Patrick's Primary School,Warrambool Street,Griffith,2680,Catholic,Primary,-34.281573,146.04609,NSW
649,St Patrick's Primary School,34 Calliope Street,Guildford,2161,Catholic,Primary,-33.853384000000005,150.978105,NSW
650,St Patrick's Primary School,145 Albury Street,Holbrook,2644,Catholic,Primary,-35.721096,147.315255,NSW
651,St Patrick's Catholic Primary School,36 Chapel Street,Kogarah,2217,Catholic,Primary,-33.968416,151.135385,NSW
652,St Patrick's School,Mort Street,Lithgow,2790,Catholic,Primary,-33.483901,150.153401,NSW
653,St Patrick's Primary School,32 Macksville Heights Drive,Macksville,2447,Catholic,Primary,-30.708608,152.916726,NSW
654,St Patrick's Primary School,Villiers St,Parramatta,2150,Catholic,Primary,-33.807321,151.00380800000002,NSW
655,St Patrick's Catholic Primary School,Kemble Street,Port Kembla,2505,Catholic,Primary,-34.482986,150.899823,NSW
656,St Patrick's Catholic Primary School,9 Drynan St,Summer Hill,2130,Catholic,Primary,-33.893718,151.133396,NSW
657,St Patrick's Primary School,213 Northcote Avenue,Swansea,2281,Catholic,Primary,-33.097424,151.643474,NSW
658,St Patrick's Primary School,Austin St,Trundle,2875,Catholic,Primary,-32.923921,147.7084,NSW
659,St Patrick's School,51N South Street,Walcha,2354,Catholic,Primary,-30.984563,151.591198,NSW
660,St Patrick's Primary School,Macquarie Street,Wallsend,2287,Catholic,Primary,-32.900094,151.66393300000001,NSW
661,St Paul of The Cross Catholic Primary School,16 May St,Dulwich Hill,2203,Catholic,Primary,-33.905241,151.134799,NSW
662,St Paul's College,3 Klemke Avenue,Walla Walla,2659,Independent,Secondary,-35.755412,146.908182,NSW
663,St Paul's Lutheran Primary School,Lyne Street.,Henty,2658,Independent,Primary,-35.517777,147.031188,NSW
664,St Paul's Catholic Primary School,247-251 Tongarra Road,Albion Park,2527,Catholic,Primary,-34.572309000000004,150.764554,NSW
665,St Paul's Catholic Primary School,20 Mitchell Street,Camden,2570,Catholic,Primary,-34.053084999999996,150.695685,NSW
666,St Paul's Primary School,Felton Street,Gateshead,2290,Catholic,Primary,-32.979409000000004,151.693609,NSW
667,St Paul's Catholic Primary School,18 Garrett Street,Moss Vale,2577,Catholic,Primary,-34.545843,150.37073999999998,NSW
668,St Paul's Primary School,90A Gilles Street,Rutherford,2320,Catholic,Primary,-32.721035,151.530271,NSW
669,St Peter Chanel Catholic Primary School,43 Regent Street,Regents Park,2143,Catholic,Primary,-33.879232,151.02734099999998,NSW
670,St Peter's Primary School,Currawong Crescent,Coleambally,2707,Catholic,Primary,-34.805096999999996,145.879428,NSW
671,St Peter's Primary School,Dunbar St,Stockton,2295,Catholic,Primary,-32.908970000000004,151.785877,NSW
672,St Philomena's School,Lloyds Road,Bathurst,2795,Catholic,Primary,-33.438323,149.566922,NSW
673,St Philomena's School,55 Boston Street,Moree,2400,Catholic,Combined,-29.459249,149.838103,NSW
674,St Pius' Catholic Primary School,209 Edgeware Road,Enmore,2042,Catholic,Primary,-33.907429,151.174296,NSW
675,St Pius X High School,Park Avenue,Adamstown,2289,Catholic,Secondary,-32.937602000000005,151.715156,NSW
676,St Pius X College,35 Anderson Street,Chatswood,2067,Independent,Combined,-33.794902,151.182925,NSW
677,St Pius X Primary School,East Street,Dubbo West,2830,Catholic,Primary,-32.250603999999996,148.588217,NSW
678,St Pius X Catholic Primary School,Cummins Street,Unanderra,2526,Catholic,Primary,-34.45198,150.841422,NSW
679,St Pius X Primary School,2 Lake Road,Windale,2306,Catholic,Primary,-32.992825,151.68365,NSW
680,St Raphael's Catholic School,11-15 Liverpool Street,Cowra,2794,Catholic,Combined,-33.832721,148.688619,NSW
681,St Raphael's Catholic Primary School,82 George Street,Hurstville,2221,Catholic,Primary,-33.975224,151.11051,NSW
682,St Scholastica's College,4 Avenue Road,Glebe,2037,Independent,Secondary,-33.875564000000004,151.18109099999998,NSW
683,Our Lady Queen of Peace Primary School,Braeside Road,Greystanes,2145,Catholic,Primary,-33.819846999999996,150.95404,NSW
684,St Stanislaus College,Bentinck And Brilliant Streets,Bathurst,2795,Independent,Secondary,-33.427611,149.571665,NSW
685,St Patrick's School,26 Homer Street,Gundagai,2722,Catholic,Primary,-35.063066,148.108453,NSW
686,St Therese Catholic Primary School,96 Cartwright Ave,Sadleir,2168,Catholic,Primary,-33.918997,150.88363700000002,NSW
687,St Therese's Catholic Primary School,448 Blaxland Road,Denistone,2122,Catholic,Primary,-33.797267,151.093926,NSW
688,St Therese's Catholic Primary School,2A Yerrick Road,Lakemba,2195,Catholic,Primary,-33.916143,151.078125,NSW
689,St Therese Catholic Primary School,43 Sutherland Street,Mascot,2020,Catholic,Primary,-33.925808,151.201113,NSW
690,St Therese Catholic Primary School,48 Chamberlain Rd,Padstow Heights,2211,Catholic,Primary,-33.962464000000004,151.03156299999998,NSW
691,St Therese's Catholic Primary School,1 Princes Highway,West Wollongong,2500,Catholic,Primary,-34.425936,150.871158,NSW
692,St Thomas More's Catholic School,Francis Avenue,Brighton-Le-Sands,2216,Catholic,Primary,-33.958325,151.151476,NSW
693,St Thomas Aquinas Primary School,168 Hawkesbury Rd,Springwood,2777,Catholic,Primary,-33.681499,150.589168,NSW
694,St Thomas' Catholic Primary School,2 Horsley Avenue,Willoughby,2068,Catholic,Primary,-33.795983,151.200205,NSW
695,O'Connor Catholic College,35 Kirwood Street,Armidale,2350,Catholic,Secondary,-30.511740000000003,151.67943,NSW
696,St Ursula's College,69 Caroline St,Kingsgrove,2208,Catholic,Secondary,-33.941884,151.103281,NSW
697,St Vincent's College,1 Rockwall Crescent,Potts Point,2011,Independent,Secondary,-33.869586,151.223801,NSW
698,St Vincent's Catholic Primary School,30-34 Charlotte Street,Ashfield,2131,Catholic,Primary,-33.886031,151.126225,NSW
699,St Xavier's School,150 - 172 Bloomfield Street,Gunnedah,2380,Catholic,Primary,-30.977063,150.258252,NSW
700,St Francis Xavier's School,32 Nandewar Street,Narrabri,2390,Catholic,Primary,-30.325975,149.789022,NSW
701,San Clemente High School,Havelock Street,Mayfield,2304,Catholic,Secondary,-32.895967999999996,151.743709,NSW
702,Catherine McAuley Catholic Primary School,90 Hill Street,Orange,2800,Catholic,Primary,-33.279406,149.094667,NSW
703,Blue Hills College,17 Blue Hills Avenue,Goonellabah,2480,Independent,Combined,-28.824665999999997,153.35494599999998,NSW
704,Border Christian College,Elizabeth Mitchell Drive,Thurgoona,2640,Independent,Combined,-36.039775,146.98142099999998,NSW
705,Hills Adventist College,84 Cecil Avenue,Castle Hill,2154,Independent,Combined,-33.735512,151.005702,NSW
706,Mountain View Adventist College,41 Doonside Road,Doonside,2767,Independent,Combined,-33.767122,150.87024,NSW
707,Hurstville Adventist School,24 - 30 Wright Street,Hurstville,2220,Independent,Primary,-33.964775,151.109124,NSW
708,Tweed Valley Adventist College,7a Hall Drive,Murwillumbah,2484,Independent,Combined,-28.33261,153.371153,NSW
709,St Paul's Catholic College,198 Old Prospect Road,Greystanes,2145,Catholic,Secondary,-33.819078999999995,150.952686,NSW
710,Holy Spirit Catholic Primary School,Cooney Street,North Ryde,2113,Catholic,Primary,-33.796209000000005,151.123777,NSW
711,Our Lady Star of the Sea Catholic School,44 Kiora Road,Miranda,2228,Catholic,Primary,-34.032851,151.104062,NSW
712,Stella Maris College,52 Eurobin Avenue,Manly,2095,Independent,Secondary,-33.78629,151.28608400000002,NSW
713,Stella Maris Catholic Primary School,Wentworth Street,Shellharbour,2529,Catholic,Primary,-34.580333,150.869894,NSW
714,SCEGGS  Darlinghurst,215 Forbes Street,Darlinghurst,2010,Independent,Combined,-33.87599,151.218826,NSW
715,Sydney Church of England Co-Educational Grammar School  Redlands,272 Military Road,Cremorne,2090,Independent,Combined,-33.832193,151.227263,NSW
716,Sydney Church of England Grammar School,Blue Street,North Sydney,2060,Independent,Combined,-33.839913,151.204871,NSW
717,Sydney Grammar School  Edgecliff Preparatory School,7 Alma Street,Paddington,2021,Independent,Primary,-33.879554,151.230279,NSW
718,Sydney Grammar School  St Ives Preparatory School,11-21 Ayres Road,St Ives,2075,Independent,Primary,-33.718123,151.17078,NSW
719,Sydney Grammar School,10 College Street,Darlinghurst,2010,Independent,Secondary,-33.874973,151.213277,NSW
720,Tara Anglican School for Girls,Masons Drive,North Parramatta,2151,Independent,Combined,-33.790469,151.014717,NSW
721,St Clare's High School,Davis Street,Taree,2430,Catholic,Secondary,-31.897022999999997,152.479476,NSW
722,The Armidale School,87 Douglas Street,Armidale,2350,Independent,Combined,-30.519975,151.673195,NSW
723,The King's School,87-129 Pennant Hills Road,North Parramatta,2151,Independent,Combined,-33.788027,151.021918,NSW
724,The Scots College,Victoria Road,Bellevue Hill,2023,Independent,Combined,-33.875115,151.253856,NSW
725,The Scots School,4173 O'Connell Road,Bathurst,2795,Independent,Combined,-33.431184,149.616329,NSW
726,Trinity Grammar School,Prospect Road,Summer Hill,2130,Independent,Combined,-33.898552,151.13071100000002,NSW
727,Tudor House,6480 Illawarra Highway,Moss Vale,2577,Independent,Primary,-34.560626,150.408017,NSW
728,Tyndale Christian School,58 Douglas Road,Blacktown,2148,Independent,Combined,-33.782348999999996,150.885119,NSW
729,Villa Maria Catholic Primary School,Mark Street,Hunters Hill,2110,Catholic,Primary,-33.830064,151.139696,NSW
730,Waverley College,131 Birrell Street,Waverley,2024,Independent,Combined,-33.900034000000005,151.257337,NSW
731,Wenona School Ltd,176 Walker Street,North Sydney,2060,Independent,Combined,-33.834101000000004,151.209609,NSW
732,Christ the King Primary School,2 Statham Avenue,North Rocks,2151,Catholic,Primary,-33.775284,151.02327,NSW
733,Sacred Heart Primary School,235-245 Lake Albert Road,Kooringal,2650,Catholic,Primary,-35.137892,147.376874,NSW
734,St Paul the Apostle Primary School,44 Buckleys Rd,Winston Hills,2153,Catholic,Primary,-33.777215000000005,150.97311299999998,NSW
735,St Paul's College,107 Sea Street,West Kempsey,2440,Catholic,Secondary,-31.060509000000003,152.82209699999999,NSW
736,St Rose Catholic Primary School,8 Rose Avenue,Collaroy Plateau,2097,Catholic,Primary,-33.726921000000004,151.286194,NSW
737,St Therese's Primary School,Burke Street,New Lambton,2305,Catholic,Primary,-32.925619,151.71606699999998,NSW
738,St Therese's Community School,Barrier Hwy,Wilcannia,2836,Catholic,Primary,-31.559128,143.379376,NSW
739,The Scots School Albury,Perry Street,Albury,2640,Independent,Combined,-36.07289,146.9272,NSW
740,St Joseph's Primary School,106 Church Street,Balranald,2715,Catholic,Primary,-34.638078,143.56382299999999,NSW
741,Caroline Chisholm College,90-98 The Lakes Drive,Glenmore Park,2745,Catholic,Secondary,-33.786590000000004,150.674905,NSW
742,Our Lady Queen of Peace Catholic Primary School,Cnr Westminster Rd And Oxford St,Gladesville,2111,Catholic,Primary,-33.826260999999995,151.126955,NSW
743,St Mary's Catholic Primary School,458 Main Road,Noraville,2263,Catholic,Primary,-33.268628,151.558775,NSW
744,St Anthony's Catholic Primary School,Cnr Balaclava And Agincourt Rds,Marsfield,2122,Catholic,Primary,-33.780982,151.102615,NSW
745,St Mary's Primary School,Centre Street,Casino,2470,Catholic,Primary,-28.862006,153.044961,NSW
746,St John's Primary School,11 Murwillumbah Road,Mullumbimby,2482,Catholic,Primary,-28.549467,153.496826,NSW
747,Cathedral School,98 George Street,Bathurst,2795,Catholic,Primary,-33.419281,149.575319,NSW
748,Barker College,91 Pacific Highway,Hornsby,2077,Independent,Combined,-33.709245,151.09905600000002,NSW
749,Kamaroi Rudolf Steiner School,220 Forest Way,Belrose,2085,Independent,Primary,-33.711374,151.215821,NSW
750,Regents Park Christian School,59-61 Regent Street,Regents Park,2143,Independent,Combined,-33.881223999999996,151.02676200000002,NSW
751,Wycliffe Christian School,133 Rickard Road,Warrimoo,2774,Independent,Combined,-33.720683,150.615343,NSW
752,St Thomas Aquinas Catholic Primary School,Bundaroo Street,Bowral,2576,Catholic,Primary,-34.476804,150.420872,NSW
753,Narromine Christian School,147-153 Terangion St,Narromine,2821,Independent,Primary,-32.238002,148.245937,NSW
754,Sydney Japanese School,112 Booralie Road,Terrey Hills,2084,Independent,Combined,-33.676173999999996,151.19965,NSW
755,St Francis Xavier's Catholic Primary School,71 Webster Rd,Lurnea,2170,Catholic,Primary,-33.933221,150.899256,NSW
756,St Joseph's Catholic Primary School,35-45 Nuwarra Road,Moorebank,2170,Catholic,Primary,-33.92836,150.954871,NSW
757,Hennessy Catholic College,Ripon St,Young,2594,Catholic,Secondary,-34.31487,148.292351,NSW
758,St Anthony's Catholic Primary School,Menangle Street,Picton,2571,Catholic,Primary,-34.170802,150.611975,NSW
759,James Sheahan Catholic High School,46-49 Anson Street,Orange,2800,Catholic,Secondary,-33.300853000000004,149.091091,NSW
760,St Joseph's Primary School,Lagoon Street,Goulburn North,2580,Catholic,Primary,-34.746244,149.73280400000002,NSW
761,Mosman Church of England Preparatory School,75 Shadforth Street,Mosman,2088,Independent,Primary,-33.832910999999996,151.240046,NSW
762,Kempsey Adventist School,108 Crescent Head Road,Kempsey,2440,Independent,Combined,-31.091621999999997,152.83048,NSW
763,Shire Christian School,16A Allies Road,Barden Ridge,2234,Independent,Combined,-34.03633,151.00911499999998,NSW
764,Manning District Adventist School,Bucketts Way,Tinonee,2430,Independent,Primary,-31.895128000000003,152.49811699999998,NSW
765,Korowal School,54 Hall Parade,Hazelbrook,2779,Independent,Combined,-33.711046,150.350184,NSW
766,Mamre Anglican School,45 Bakers Lane,Erskine Park,2759,Independent,Combined,-33.831381,150.78596399999998,NSW
767,Tambelin Independent School,Fenwick Crescent,Goulburn,2580,Independent,Primary,-34.749518,149.726329,NSW
768,Linuwel School Ltd,133 Morpeth Road,East Maitland,2323,Independent,Combined,-32.736732,151.600686,NSW
769,Holy Family School,10 French-Smith Place,Kelso,2795,Catholic,Primary,-33.401074,149.606009,NSW
770,Our Lady of the Way Primary School,17 Troy Street,Emu Plains,2750,Catholic,Primary,-33.756277000000004,150.655824,NSW
771,St Mary's Catholic Primary School,Rex Road,Georges Hall,2198,Catholic,Primary,-33.910571999999995,150.982365,NSW
772,Good Shepherd Primary School,134 Hyatts Road,Plumpton,2761,Catholic,Primary,-33.746681,150.832854,NSW
773,St Columba's Catholic College,168 Hawkesbury Road,Springwood,2777,Catholic,Secondary,-33.673201,150.58763000000002,NSW
774,Our Lady Star of the Sea Catholic Primary School,165 Serpentine Road,Terrigal,2260,Catholic,Primary,-33.428434,151.413873,NSW
775,St Martin's Catholic Primary School,147 Prahran Avenue,Davidson,2085,Catholic,Primary,-33.741943,151.19945800000002,NSW
776,Our Lady of The Rosary Catholic Primary School,92 Glennie Street,Wyoming,2250,Catholic,Primary,-33.412651000000004,151.350553,NSW
777,St Thomas More Catholic Primary School,6 St Johns Road,Campbelltown,2560,Catholic,Primary,-34.081202000000005,150.82512,NSW
778,St John Bosco College,Banksia Avenue,Engadine,2233,Catholic,Secondary,-34.059276000000004,151.008769,NSW
779,Covenant Christian School,212 Forest Way,Belrose,2085,Independent,Combined,-33.713684,151.216023,NSW
780,Our Lady of the Rosary Primary School,8 Diana Avenue,Kellyville,2155,Catholic,Primary,-33.706786,150.955194,NSW
781,Bethel Christian School,104-112 Mount Druitt Road,Mount Druitt,2770,Independent,Combined,-33.775057000000004,150.810833,NSW
782,The Lakes Christian College,206 East Wilchard Road,Castlereagh,2749,Independent,Combined,-33.686263000000004,150.684721,NSW
783,Pacific Hills Christian School,9-11 Quarry Road,Dural,2158,Independent,Combined,-33.696684000000005,151.035675,NSW
784,John Therry Catholic High School,Demetrius Road,Rosemeadow,2560,Catholic,Secondary,-34.100424,150.785953,NSW
785,Arkana College,346 Stoney Creek Road,Kingsgrove,2208,Independent,Primary,-33.94985,151.09848,NSW
786,Highfields Preparatory & Kindergarten School Limited,18 Highfield Road,Lindfield,2070,Independent,Primary,-33.775314,151.16364099999998,NSW
787,Gilroy Catholic College,Marie St,Castle Hill,2154,Catholic,Secondary,-33.740154,150.996633,NSW
788,Mary Help of Christians Primary School Sawtell,Eungella Street,Toormina,2452,Catholic,Primary,-30.358164000000002,153.083971,NSW
789,Norwest Christian College,Cnr Regent & Mcculloch Streets,Riverstone,2765,Independent,Combined,-33.677741,150.873642,NSW
790,Sherwood Hills Christian School,61 Jacaranda Avenue,Bradbury,2560,Independent,Combined,-34.083556,150.814154,NSW
791,Nowra Christian School,194 Old Southern Rd,Nowra,2541,Independent,Combined,-34.904759000000006,150.615523,NSW
792,Hopepoint Christian School,39 Ashcroft Street,Georges Hall,2198,Independent,Primary,-33.911731,150.977206,NSW
793,Newcastle Waldorf School,36 Reservoir Road,Glendale,2285,Independent,Combined,-32.924437,151.655596,NSW
794,Forestville Montessori School,1 Angel Place,Forestville,2087,Independent,Primary,-33.75822,151.218913,NSW
795,Odyssey House,Moonstone Place,Eaglevale,2558,Independent,Secondary,-34.034379,150.813818,NSW
796,Toongabbie Christian School Ltd,40 Metella Road,Toongabbie,2146,Independent,Combined,-33.789371,150.943398,NSW
797,Coffs Harbour Christian Community School,226 Bonville Station Road,Bonville,2450,Independent,Combined,-30.378228000000004,153.05711200000002,NSW
798,Lindisfarne Anglican School,Maher'S Lane,Terranora,2486,Independent,Combined,-28.233789,153.504788,NSW
799,Northcross Christian School,Cnr Lane Cove Rd & Dobson Cres,Ryde,2112,Independent,Primary,-33.806204,151.111571,NSW
800,Orange Christian School,500 Cecil Road,Orange,2800,Independent,Combined,-33.298781,149.089093,NSW
801,Tuntable Falls Community Primary School,117 Upper Tuntable Falls Road,Nimbin,2480,Independent,Primary,-28.578560999999997,153.27973400000002,NSW
802,St Joseph's Catholic High School,16 Macquarie Street,Albion Park,2527,Catholic,Secondary,-34.572987,150.765948,NSW
803,Holy Family Catholic Primary School,Oxford Road,Ingleburn,2565,Catholic,Primary,-34.003284,150.87293799999998,NSW
804,Koinonia Christian Academy,Mitchell Highway,Bourke,2840,Independent,Combined,-30.073809000000004,145.95689099999998,NSW
805,Northern Beaches Christian School,Echunga Road,Terrey Hills,2084,Independent,Combined,-33.674045,151.20193899999998,NSW
806,Penrith Christian School,1 Simeon Road,Orchard Hills,2748,Independent,Combined,-33.785374,150.7101,NSW
807,St Agnes' Primary School,Boronia Street,Port Macquarie,2444,Catholic,Primary,-31.440466999999998,152.897739,NSW
808,Masada College High School,9-15 Link Road,St Ives,2075,Independent,Combined,-33.729757,151.166914,NSW
809,Inaburra School,Billa Road,Bangor,2234,Independent,Combined,-34.014571999999994,151.025931,NSW
810,St John Paul College,421 Hogbin Drive,Coffs Harbour,2450,Catholic,Secondary,-30.323793,153.098377,NSW
811,St Philip's Christian College - Gosford,20 Narara Creek Road,Narara,2250,Independent,Combined,-33.408273,151.33315100000002,NSW
812,Mount Sinai College,6 Runic Lane,Maroubra,2035,Independent,Primary,-33.935219000000004,151.236805,NSW
813,Biala Special School,78 Fox Street,Ballina,2478,Independent,Special,-28.861483000000003,153.562119,NSW
814,St Dominic's Centre,76 Havelock Street,Mayfield,2304,Catholic,Special,-32.895594,151.74417,NSW
815,Elouera Special School,Scott Avenue,Cootamundra,2590,Independent,Special,-34.634877,148.017776,NSW
816,Mater Dei School,229 Macquarie Grove Road,Camden,2570,Independent,Special,-34.015034,150.709163,NSW
817,St Edmund's School,60 Burns Road,Wahroonga,2076,Independent,Special,-33.714226000000004,151.126197,NSW
818,St Gabriel's School for Hearing Impaired Children,190 Old Northern Road,Castle Hill,2154,Independent,Special,-33.740289000000004,150.998945,NSW
819,St Lucy's School,21 Cleveland Street,Wahroonga,2076,Independent,Special,-33.716771,151.120651,NSW
820,Aspect Hunter School,3 Kooralbyn St,Thornton,2322,Independent,Special,-32.883265,151.695515,NSW
821,RIDBC Alice Betteridge School,361-365 North Rocks Road,North Rocks,2151,Independent,Special,-33.767614,151.029054,NSW
822,Aspect Vern Barnett School,41 Cook Street,Forestville,2087,Independent,Special,-33.763332,151.219315,NSW
823,Warrah Village Rudolf Steiner School for Curative Education,20-24 Harris Road,Dural,2158,Independent,Special,-33.702973,151.036467,NSW
824,Bhaktivedanta Swami Gurukula School,Hare Krishna Farm 525 Tyalgum Road,Eungella,2484,Independent,Combined,-28.353811999999998,153.31461299999998,NSW
825,Chrysalis School for Rudolf Steiner Education,703 Darkwood Road,Thora,2454,Independent,Combined,-30.43347,152.721978,NSW
826,St George Christian School,55-67 Woids Avenue,Hurstville,2220,Independent,Combined,-33.972286,151.11109,NSW
827,St Mary MacKillop Primary School,150 Fragar Road,South Penrith,2750,Catholic,Primary,-33.778928,150.70683,NSW
828,Oxley College,Railway Parade,Burradoo,2576,Independent,Combined,-34.498077,150.392007,NSW
829,Lutheran Primary School Wagga Wagga,Tamar Drive,Wagga Wagga,2650,Independent,Primary,-35.154047,147.362886,NSW
830,Marion Catholic Primary School,1788 The Horsley Drive,Horsley Park,2175,Catholic,Primary,-33.841231,150.850842,NSW
831,Mountains Christian College,60 Thirroul Avenue,Blackheath,2785,Independent,Combined,-33.631021999999994,150.27727099999998,NSW
832,Green Point Christian College,Avoca Drive,Green Point,2251,Independent,Combined,-33.461037,151.36312,NSW
833,St Philip's Christian College,57 High Street,Waratah,2298,Independent,Combined,-32.90305,151.723089,NSW
834,Wellington Christian School,Gipps Street,Wellington,2820,Independent,Primary,-32.539295,148.93008,NSW
835,Carinya Christian School,46 Elgin Street,Gunnedah,2380,Independent,Primary,-30.978876,150.25474,NSW
836,Toronto Adventist Primary School,Cnr Parkside Parade and Wangi Road,Toronto,2283,Independent,Primary,-33.028602,151.565397,NSW
837,Belmont Christian College,65 John Fisher Road,Belmont North,2280,Independent,Combined,-33.024547999999996,151.66959599999998,NSW
838,Parkes Christian School,243 Back Trundle Road,Parkes,2870,Independent,Combined,-33.119277000000004,148.150353,NSW
839,Tangara School for Girls,77-97 Franklin Road,Cherrybrook,2126,Independent,Combined,-33.736457,151.035696,NSW
840,Holy Spirit College,Cawley Road,Bellambi,2518,Catholic,Secondary,-34.36448,150.916451,NSW
841,The Hills Grammar School,43 Kenthurst Rd,Kenthurst,2156,Independent,Combined,-33.685772,151.013035,NSW
842,Northholm Grammar School,79 Cobah Rd,Arcadia,2159,Independent,Combined,-33.602911,151.053199,NSW
843,Southside Montessori School,35 Lilian Road,Riverwood,2210,Independent,Primary,-33.952384,151.044309,NSW
844,Dubbo Christian School,Sheraton Road,Dubbo,2830,Independent,Combined,-32.263095,148.64441000000002,NSW
845,St Peter's Anglican Primary School,Howe Street,Campbelltown,2560,Independent,Primary,-34.06686,150.817798,NSW
846,Cedars Christian College,Lot 36 Waples Road,Farmborough Heights,2526,Independent,Combined,-34.455585,150.830313,NSW
847,Heritage Christian School,33 Mumford Street,Port Macquarie,2444,Independent,Combined,-31.430279,152.881802,NSW
848,St Paul's High School,Primrose St,Booragul,2284,Catholic,Secondary,-32.9758,151.606948,NSW
849,Kuyper Christian School,294 Redbank Road,North Richmond,2754,Independent,Combined,-33.566666,150.683621,NSW
850,St Paul's Grammar School Penrith,52 Taylor Rd,Cranebrook,2749,Independent,Combined,-33.693046,150.715082,NSW
851,Aspect Central Coast School,Lot 4 Duffys Road,Terrigal,2260,Independent,Special,-33.443989,151.42689199999998,NSW
852,Yanginanook School,Bundaleer Street,Belrose,2085,Independent,Primary,-33.712408,151.214472,NSW
853,The Emanuel School,20 Stanley St,Randwick,2031,Independent,Combined,-33.907344,151.243268,NSW
854,Maitland Christian School,75-85 Chelmsford Drive,Metford,2323,Independent,Combined,-32.765994,151.60865,NSW
855,St Spyridon College,78 Gardeners Road,Kingsford,2032,Independent,Combined,-33.925404,151.224638,NSW
856,Sacred Heart Primary School,25 Nelson Street,Mt Druitt South,2770,Catholic,Primary,-33.773861,150.813454,NSW
857,Southern Highlands Christian School,22 Boardman Road South,Bowral,2576,Independent,Combined,-34.502635,150.439737,NSW
858,Blue Mountains Steiner School,83 Clearview Parade,Hazelbrook,2779,Independent,Primary,-33.72155,150.467986,NSW
859,St Charbel's College,142 Highclere Avenue,Punchbowl,2196,Independent,Combined,-33.917424,151.056608,NSW
860,The McDonald College,17 George Street,North Strathfield,2137,Independent,Combined,-33.863434000000005,151.088129,NSW
861,Nepean Christian School,836 Mulgoa Road,Mulgoa,2745,Independent,Combined,-33.829562,150.655171,NSW
862,Oxford Falls Grammar School,1078 Oxford Falls Road,Oxford Falls,2100,Independent,Combined,-33.739042,151.24580500000002,NSW
863,International Grammar School,4-8 Kelly Street,Ultimo,2007,Independent,Combined,-33.881668,151.195266,NSW
864,Redeemer Baptist School,2-12 Masons Drive,North Parramatta,2151,Independent,Combined,-33.793639,151.017344,NSW
865,Moree Christian School,409 Chester Street,Moree,2400,Independent,Combined,-29.482677000000002,149.83688999999998,NSW
866,Carinya Christian School,25 Boronia Drive,Tamworth,2340,Independent,Combined,-31.128839000000003,150.94033000000002,NSW
867,Namoi Valley Christian School,51 Rose Street,Wee Waa,2388,Independent,Primary,-30.226028999999997,149.44093700000002,NSW
868,Santa Sabina College,90 The Boulevarde,Strathfield,2135,Independent,Combined,-33.877348,151.09346000000002,NSW
869,Macarthur Anglican School,605 Cobbitty Road,Cobbitty,2570,Independent,Combined,-34.011465,150.721012,NSW
870,Aspect Western Sydney School,295 Victoria Street,Wetherill Park,2164,Independent,Special,-33.848273,150.914952,NSW
